lat,lon,type,title,link
54.3518181,18.6499666,bar,Lumi! Shot&Cocktail,https://www.google.com/maps/place/Lumi!+Shot%26Cocktail/data=!4m7!3m6!1s0x46fd73a886c32bfd:0x32a50ad8895ad57f!8m2!3d54.3518181!4d18.6499666!16s%2Fg%2F11q4t0ph6n!19sChIJ_SvDhqhz_UYRf9VaidgKpTI?authuser=0&hl=en&rclk=1
54.3517903,18.6502848,bar,Bar Turystyczny,https://www.google.com/maps/place/Bar+Turystyczny/data=!4m7!3m6!1s0x46fd73757fe95afb:0xb968f3b5049e17d2!8m2!3d54.3517903!4d18.6502848!16s%2Fg%2F1tlwdbhj!19sChIJ-1rpf3Vz_UYR0heeBLXzaLk?authuser=0&hl=en&rclk=1
54.352781,18.6520209,bar,Dominikański. Bar,https://www.google.com/maps/place/Dominika%C5%84ski.+Bar/data=!4m7!3m6!1s0x46fd73750ac2e835:0xec8b28c0bd2408f6!8m2!3d54.352781!4d18.6520209!16s%2Fg%2F11h14rm0n!19sChIJNejCCnVz_UYR9ggkvcAoi-w?authuser=0&hl=en&rclk=1
54.3538039,18.6509391,bar,Kuma I. Bar Bistro,https://www.google.com/maps/place/Kuma+I.+Bar+Bistro/data=!4m7!3m6!1s0x46fd7375a50c1977:0x55e8ba267fa76d70!8m2!3d54.3538039!4d18.6509391!16s%2Fg%2F1tdkwchp!19sChIJdxkMpXVz_UYRcG2nfya66FU?authuser=0&hl=en&rclk=1
54.3509524,18.6505388,bar,Jägspot,https://www.google.com/maps/place/J%C3%A4gspot/data=!4m7!3m6!1s0x46fd739af9c4c9b3:0x9ffd14a6283db3b7!8m2!3d54.3509524!4d18.6505388!16s%2Fg%2F11fm5vjhyw!19sChIJs8nE-Zpz_UYRt7M9KKYU_Z8?authuser=0&hl=en&rclk=1
54.35024,18.651048,bar,Craft Cocktails - Cocktail Bar,https://www.google.com/maps/place/Craft+Cocktails+-+Cocktail+Bar/data=!4m7!3m6!1s0x46fd73a007e95f35:0x8ae082032d6c514f!8m2!3d54.35024!4d18.651048!16s%2Fg%2F11c4760wrj!19sChIJNV_pB6Bz_UYRT1FsLQOC4Io?authuser=0&hl=en&rclk=1
54.3518218,18.651231,bar,Grass Irish Sports Pub,https://www.google.com/maps/place/Grass+Irish+Sports+Pub/data=!4m7!3m6!1s0x46fd73757da1bd9d:0x9ee5fdb95117915!8m2!3d54.3518218!4d18.651231!16s%2Fg%2F11c6f229hz!19sChIJnb2hfXVz_UYRFXkRldtf7gk?authuser=0&hl=en&rclk=1
54.3525267,18.6483991,bar,Ministerstwo Śledzia i Wódki,https://www.google.com/maps/place/Ministerstwo+%C5%9Aledzia+i+W%C3%B3dki/data=!4m7!3m6!1s0x46fd735c278ea8bf:0x2a3b1e0bbf0aa741!8m2!3d54.3525267!4d18.6483991!16s%2Fg%2F11grpwsywn!19sChIJv6iOJ1xz_UYRQacKvwseOyo?authuser=0&hl=en&rclk=1
54.351298,18.654461,bar,Labeerynt,https://www.google.com/maps/place/Labeerynt/data=!4m7!3m6!1s0x46fd730aaac4daa7:0xee3e1d5bf8985907!8m2!3d54.351298!4d18.654461!16s%2Fg%2F11byflprxc!19sChIJp9rEqgpz_UYRB1mY-FsdPu4?authuser=0&hl=en&rclk=1
54.3536354,18.6584046,bar,H5 Bar,https://www.google.com/maps/place/H5+Bar/data=!4m7!3m6!1s0x46fd731d9f838735:0x8f77d045bd54a845!8m2!3d54.3536354!4d18.6584046!16s%2Fg%2F11fl_xk1cm!19sChIJNYeDnx1z_UYRRahUvUXQd48?authuser=0&hl=en&rclk=1
54.351918,18.657729,bar,Cocktail Bar Pociąg do... Gdańsk,https://www.google.com/maps/place/Cocktail+Bar+Poci%C4%85g+do...+Gda%C5%84sk/data=!4m7!3m6!1s0x46fd730a932aaf81:0x84aada3dc93cda7e!8m2!3d54.351918!4d18.657729!16s%2Fg%2F11dylvfrh2!19sChIJga8qkwpz_UYRfto8yT3aqoQ?authuser=0&hl=en&rclk=1
54.3536354,18.6584046,bar,Bar F32,https://www.google.com/maps/place/Bar+F32/data=!4m7!3m6!1s0x46fd737411205fdb:0x6a60f0c2179dba25!8m2!3d54.3536354!4d18.6584046!16s%2Fg%2F11hyvmcvd8!19sChIJ218gEXRz_UYRJbqdF8LwYGo?authuser=0&hl=en&rclk=1
54.3516374,18.657623,bar,Tramp. Bar. Grudzień L.,https://www.google.com/maps/place/Tramp.+Bar.+Grudzie%C5%84+L./data=!4m7!3m6!1s0x46fd730a96b7a947:0x84f8add99c13863a!8m2!3d54.3516374!4d18.657623!16s%2Fg%2F1hc2ztf70!19sChIJR6m3lgpz_UYROoYTnNmt-IQ?authuser=0&hl=en&rclk=1
54.3500785,18.6513621,bar,LUMI SHOTBAR,https://www.google.com/maps/place/LUMI+SHOTBAR/data=!4m7!3m6!1s0x46fd739f93f59acf:0xd2fe24687f29ccde!8m2!3d54.3500785!4d18.6513621!16s%2Fg%2F11bv18stxn!19sChIJz5r1k59z_UYR3swpf2gk_tI?authuser=0&hl=en&rclk=1
54.3498833,18.6472472,bar,Bar Kapsel,https://www.google.com/maps/place/Bar+Kapsel/data=!4m7!3m6!1s0x46fd739e5cca5449:0x7ef5391be228ec59!8m2!3d54.3498833!4d18.6472472!16s%2Fg%2F11c7t398pm!19sChIJSVTKXJ5z_UYRWewo4hs59X4?authuser=0&hl=en&rclk=1
54.3503353,18.6495317,bar,Game Over,https://www.google.com/maps/place/Game+Over/data=!4m7!3m6!1s0x46fd73d3aa150bd7:0x789e35ec2dd9dfcc!8m2!3d54.3503353!4d18.6495317!16s%2Fg%2F11f5_0vb60!19sChIJ1wsVqtNz_UYRzN_ZLew1nng?authuser=0&hl=en&rclk=1
54.3487344,18.6545971,bar,Flisak '76,https://www.google.com/maps/place/Flisak+'76/data=!4m7!3m6!1s0x46fd73a036391d81:0x3953c9de4dcd2b89!8m2!3d54.3487344!4d18.6545971!16s%2Fg%2F1tf19fyd!19sChIJgR05NqBz_UYRiSvNTd7JUzk?authuser=0&hl=en&rclk=1
54.3486169,18.6552621,bar,Pub pod Chmurką,https://www.google.com/maps/place/Pub+pod+Chmurk%C4%85/data=!4m7!3m6!1s0x46fd7327c3a971e3:0x4fa9e4a58a4f9762!8m2!3d54.3486169!4d18.6552621!16s%2Fg%2F11h6l39vp0!19sChIJ43Gpwydz_UYRYpdPiqXkqU8?authuser=0&hl=en&rclk=1
54.3484465,18.6542187,bar,Pijalnia Wódki I Piwa,https://www.google.com/maps/place/Pijalnia+W%C3%B3dki+I+Piwa/data=!4m7!3m6!1s0x46fd73a03544b9cb:0xa240f6bdcdab9822!8m2!3d54.3484465!4d18.6542187!16s%2Fg%2F11b8c3jl03!19sChIJy7lENaBz_UYRIpirzb32QKI?authuser=0&hl=en&rclk=1
54.3495334,18.6585718,bar,Celtic Pub,https://www.google.com/maps/place/Celtic+Pub/data=!4m7!3m6!1s0x46fd7367b2b8377f:0xe0c567bf6003b204!8m2!3d54.3495334!4d18.6585718!16s%2Fg%2F11q2tj0cfy!19sChIJfze4smdz_UYRBLIDYL9nxeA?authuser=0&hl=en&rclk=1
54.3508407,18.6552628,bar,Craft Cocktails - Gin Bar,https://www.google.com/maps/place/Craft+Cocktails+-+Gin+Bar/data=!4m7!3m6!1s0x46fd7312e0b8d8c9:0x91faee176dfe23f1!8m2!3d54.3508407!4d18.6552628!16s%2Fg%2F11s8h3rrqt!19sChIJydi44BJz_UYR8SP-bRfu-pE?authuser=0&hl=en&rclk=1
54.3484569,18.6477747,bar,Bar Harcówka,https://www.google.com/maps/place/Bar+Harc%C3%B3wka/data=!4m7!3m6!1s0x46fd739ee271eaa3:0x80b35d39a4d0a3!8m2!3d54.3484569!4d18.6477747!16s%2Fg%2F1tcxsyjn!19sChIJo-px4p5z_UYRo9CkOV2zgAA?authuser=0&hl=en&rclk=1
54.348374,18.651386,bar,107,https://www.google.com/maps/place/107/data=!4m7!3m6!1s0x46fd739f7a486265:0x81c875bbc0003b46!8m2!3d54.348374!4d18.651386!16s%2Fg%2F11b8v9kqw2!19sChIJZWJIep9z_UYRRjsAwLt1yIE?authuser=0&hl=en&rclk=1
54.3471959,18.6550183,bar,Mała Sztuka Cocktail Bar - Gdańsk Śródmieście,https://www.google.com/maps/place/Ma%C5%82a+Sztuka+Cocktail+Bar+-+Gda%C5%84sk+%C5%9Ar%C3%B3dmie%C5%9Bcie/data=!4m7!3m6!1s0x46fd73a1a497c853:0xd389543b41eb56f8!8m2!3d54.3471959!4d18.6550183!16s%2Fg%2F11c2ntd7tx!19sChIJU8iXpKFz_UYR-FbrQTtUidM?authuser=0&hl=en&rclk=1
54.3478502,18.6550497,bar,Pijana Wiśnia,https://www.google.com/maps/place/Pijana+Wi%C5%9Bnia/data=!4m7!3m6!1s0x46fd73e5d6bc771b:0x683c837e79d15bd5!8m2!3d54.3478502!4d18.6550497!16s%2Fg%2F11sczr48h_!19sChIJG3e81uVz_UYR1VvReX6DPGg?authuser=0&hl=en&rclk=1
54.3485187,18.6540041,bar,Fahrenheit by Jack's | Best Restaurant in Gdansk,https://www.google.com/maps/place/Fahrenheit+by+Jack's+%7C+Best+Restaurant+in+Gdansk/data=!4m7!3m6!1s0x46fd73a1ccd069c3:0xd90989e06e90812!8m2!3d54.3485187!4d18.6540041!16s%2Fg%2F11byx7y1b9!19sChIJw2nQzKFz_UYREgjpBp6YkA0?authuser=0&hl=en&rclk=1
54.3478225,18.6568074,bar,Salty Bar,https://www.google.com/maps/place/Salty+Bar/data=!4m7!3m6!1s0x46fd7346ca9a586f:0x869e400dc3ac129!8m2!3d54.3478225!4d18.6568074!16s%2Fg%2F11j8kg8w4z!19sChIJb1iaykZz_UYRKcE63ADkaQg?authuser=0&hl=en&rclk=1
54.347595,18.6586738,bar,Ink Above,https://www.google.com/maps/place/Ink+Above/data=!4m7!3m6!1s0x46fd73c0dcb744e5:0xfe8a9451588e2438!8m2!3d54.347595!4d18.6586738!16s%2Fg%2F11gzny53k0!19sChIJ5US33MBz_UYROCSOWFGUiv4?authuser=0&hl=en&rclk=1
