lat,lon,type,title,link
54.485482,18.4279329,bar,Royal Bar,https://www.google.com/maps/place/Royal+Bar/data=!4m7!3m6!1s0x46fda3b215bef1fd:0xbd17b4fd4be9b917!8m2!3d54.485482!4d18.4279329!16s%2Fg%2F11llz_56xx!19sChIJ_fG-FbKj_UYRF7npS_20F70?authuser=0&hl=en&rclk=1
54.5119306,18.5405407,bar,Klubokawiarnia,https://www.google.com/maps/place/Klubokawiarnia/data=!4m7!3m6!1s0x46fda7319c5f023b:0x32b317f8f3869bd1!8m2!3d54.5119306!4d18.5405407!16s%2Fg%2F11c529tww9!19sChIJOwJfnDGn_UYR0ZuG8_gXszI?authuser=0&hl=en&rclk=1
54.5003105,18.5099617,bar,Vita Bar,https://www.google.com/maps/place/Vita+Bar/data=!4m7!3m6!1s0x46fda1281f78dc5f:0x541839cc479eb267!8m2!3d54.5003105!4d18.5099617!16s%2Fg%2F11bx7wr0hr!19sChIJX9x4Hyih_UYRZ7KeR8w5GFQ?authuser=0&hl=en&rclk=1
54.514425,18.540615,bar,Wym贸wka Cocktail Bar,https://www.google.com/maps/place/Wym%C3%B3wka+Cocktail+Bar/data=!4m7!3m6!1s0x46fda7b0f00c1a55:0x60ea0b524ad0ddf0!8m2!3d54.514425!4d18.540615!16s%2Fg%2F11fk1k838g!19sChIJVRoM8LCn_UYR8N3QSlIL6mA?authuser=0&hl=en&rclk=1
54.519075,18.539571,bar,barbatory,https://www.google.com/maps/place/barbatory/data=!4m7!3m6!1s0x46fda7a3f02c5f37:0xf8fb5a422aa5854d!8m2!3d54.519075!4d18.539571!16s%2Fg%2F11fm5fvzm_!19sChIJN18s8KOn_UYRTYWlKkJa-_g?authuser=0&hl=en&rclk=1
54.5019935,18.5361101,bar,Bar Piwny Sklep Spozywczy,https://www.google.com/maps/place/Bar+Piwny+Sklep+Spozywczy/data=!4m7!3m6!1s0x46fda0cc6a7f2dd9:0xdf9231d8c8ad6a2!8m2!3d54.5019935!4d18.5361101!16s%2Fg%2F11gnnm82h5!19sChIJ2S1_asyg_UYRotaKjB0j-Q0?authuser=0&hl=en&rclk=1
54.4431135,18.5603224,bar,No.5,https://www.google.com/maps/place/No.5/data=!4m7!3m6!1s0x46fd0baf14659a7b:0x75ae68550b24dfaf!8m2!3d54.4431135!4d18.5603224!16s%2Fg%2F11h5s42wlq!19sChIJe5plFK8L_UYRr98kC1VornU?authuser=0&hl=en&rclk=1
54.4523942,18.5656083,bar,Haffner Beach Bar,https://www.google.com/maps/place/Haffner+Beach+Bar/data=!4m7!3m6!1s0x46fd0bdf86f27e89:0xa3703f5b43e3333f!8m2!3d54.4523942!4d18.5656083!16s%2Fg%2F11rkp6n5f_!19sChIJiX7yht8L_UYRPzPjQ1s_cKM?authuser=0&hl=en&rclk=1
54.4476195,18.5681929,bar,Le bar,https://www.google.com/maps/place/Le+bar/data=!4m7!3m6!1s0x46fd0b31bab95611:0x7e1ed4df07624690!8m2!3d54.4476195!4d18.5681929!16s%2Fg%2F11jkp0n1xt!19sChIJEVa5ujEL_UYRkEZiB9_UHn4?authuser=0&hl=en&rclk=1
54.4750557,18.5523765,bar,Icedreams. Bar,https://www.google.com/maps/place/Icedreams.+Bar/data=!4m7!3m6!1s0x46fda09bd8538327:0xc3497fbb9629a9f0!8m2!3d54.4750557!4d18.5523765!16s%2Fg%2F1hc8423hx!19sChIJJ4NT2Jug_UYR8Kkplrt_ScM?authuser=0&hl=en&rclk=1
54.4448166,18.5695659,bar,Coctail Bar Max & Dom Whisky,https://www.google.com/maps/place/Coctail+Bar+Max+%26+Dom+Whisky/data=!4m7!3m6!1s0x46fd0a8dfbeac619:0x2c8f14bad90cf954!8m2!3d54.4448166!4d18.5695659!16s%2Fg%2F11h0qfs6c!19sChIJGcbq-40K_UYRVPkM2boUjyw?authuser=0&hl=en&rclk=1
54.443593,18.56467,bar,Jack's Bar Sopot,https://www.google.com/maps/place/Jack's+Bar+Sopot/data=!4m7!3m6!1s0x46fd0a91c8e48b25:0xea9ace1d9b53c3a5!8m2!3d54.443593!4d18.56467!16s%2Fg%2F11cs697cfc!19sChIJJYvkyJEK_UYRpcNTmx3Omuo?authuser=0&hl=en&rclk=1
54.481267,18.5644169,bar,Tawerna Orowska,https://www.google.com/maps/place/Tawerna+Or%C5%82owska/data=!4m7!3m6!1s0x46fda0a04971f15b:0xc0b79ccefab5a0b8!8m2!3d54.481267!4d18.5644169!16s%2Fg%2F1tmqkgvf!19sChIJW_FxSaCg_UYRuKC1-s6ct8A?authuser=0&hl=en&rclk=1
54.4440765,18.5671844,bar,Restauracja Koktajlbar Sopot Ferber | Cocktail Bar & Restaurant  Monte Cassino Monciak,https://www.google.com/maps/place/Restauracja+Koktajlbar+Sopot+Ferber+%7C+Cocktail+Bar+%26+Restaurant+%F0%9F%8D%B8+Monte+Cassino+Monciak/data=!4m7!3m6!1s0x46fd0a91e38aa803:0x932f414109aaf0c9!8m2!3d54.4440765!4d18.5671844!16s%2Fg%2F1tq4psqm!19sChIJA6iK45EK_UYRyfCqCUFBL5M?authuser=0&hl=en&rclk=1
54.4518588,18.5654757,bar,M15 Restaurant Bar & Sauny,https://www.google.com/maps/place/M15+Restaurant+Bar+%26+Sauny/data=!4m7!3m6!1s0x46fd0a889f95bceb:0xe244603d0dab1381!8m2!3d54.4518588!4d18.5654757!16s%2Fg%2F11dzvhvfyg!19sChIJ67yVn4gK_UYRgROrDT1gROI?authuser=0&hl=en&rclk=1
54.519787,18.5433516,bar,Pyra bar Gdynia,https://www.google.com/maps/place/Pyra+bar+Gdynia/data=!4m7!3m6!1s0x46fda73b25140805:0x438379938a80330a!8m2!3d54.519787!4d18.5433516!16s%2Fg%2F11by_lxtnm!19sChIJBQgUJTun_UYRCjOAipN5g0M?authuser=0&hl=en&rclk=1
54.5151605,18.5387038,bar,Bar Mleczny Soneczny,https://www.google.com/maps/place/Bar+Mleczny+S%C5%82oneczny/data=!4m7!3m6!1s0x46fda730272e334f:0x89f700424ea134f6!8m2!3d54.5151605!4d18.5387038!16s%2Fg%2F1tdrw01q!19sChIJTzMuJzCn_UYR9jShTkIA94k?authuser=0&hl=en&rclk=1
54.4941596,18.5337066,bar,Bistro Alicja,https://www.google.com/maps/place/Bistro+Alicja/data=!4m7!3m6!1s0x46fda0c60e22705b:0xd83f12557a3792c2!8m2!3d54.4941596!4d18.5337066!16s%2Fg%2F11b6r_wzhz!19sChIJW3AiDsag_UYRwpI3elUSP9g?authuser=0&hl=en&rclk=1
54.3472522,18.6589171,bar,Bar Mleczny Stgiewna,https://www.google.com/maps/place/Bar+Mleczny+St%C4%85giewna/data=!4m7!3m6!1s0x46fd73a124206e31:0xbf6e4a306b2e185c!8m2!3d54.3472522!4d18.6589171!16s%2Fg%2F11dd_mhr7d!19sChIJMW4gJKFz_UYRXBguazBKbr8?authuser=0&hl=en&rclk=1
54.3517903,18.6502848,bar,Bar Turystyczny,https://www.google.com/maps/place/Bar+Turystyczny/data=!4m7!3m6!1s0x46fd73757fe95afb:0xb968f3b5049e17d2!8m2!3d54.3517903!4d18.6502848!16s%2Fg%2F1tlwdbhj!19sChIJ-1rpf3Vz_UYR0heeBLXzaLk?authuser=0&hl=en&rclk=1
54.3489212,18.6480133,bar,Pyra Bar,https://www.google.com/maps/place/Pyra+Bar/data=!4m7!3m6!1s0x46fd739efd91d46f:0xa05d26e1f9edf8ee!8m2!3d54.3489212!4d18.6480133!16s%2Fg%2F1hhxmphfh!19sChIJb9SR_Z5z_UYR7vjt-eEmXaA?authuser=0&hl=en&rclk=1
54.3512016,18.5878241,bar,TOP GUN Grill Bar,https://www.google.com/maps/place/TOP+GUN+Grill+Bar/data=!4m7!3m6!1s0x46fd75ce8693c495:0x2e69c4082d872aeb!8m2!3d54.3512016!4d18.5878241!16s%2Fg%2F11j3x0f2qc!19sChIJlcSThs51_UYR6yqHLQjEaS4?authuser=0&hl=en&rclk=1
54.3500785,18.6513621,bar,LUMI SHOTBAR,https://www.google.com/maps/place/LUMI+SHOTBAR/data=!4m7!3m6!1s0x46fd739f93f59acf:0xd2fe24687f29ccde!8m2!3d54.3500785!4d18.6513621!16s%2Fg%2F11bv18stxn!19sChIJz5r1k59z_UYR3swpf2gk_tI?authuser=0&hl=en&rclk=1
54.431795,18.587554,bar,Bar rybny,https://www.google.com/maps/place/Bar+rybny/data=!4m7!3m6!1s0x46fd0ae7c3b8d665:0x8b04a2cbdcfd9ea0!8m2!3d54.431795!4d18.587554!16s%2Fg%2F11fx9ns2ws!19sChIJZda4w-cK_UYRoJ793MuiBIs?authuser=0&hl=en&rclk=1
54.347595,18.6586738,bar,Ink Above,https://www.google.com/maps/place/Ink+Above/data=!4m7!3m6!1s0x46fd73c0dcb744e5:0xfe8a9451588e2438!8m2!3d54.347595!4d18.6586738!16s%2Fg%2F11gzny53k0!19sChIJ5US33MBz_UYROCSOWFGUiv4?authuser=0&hl=en&rclk=1
54.3518181,18.6499666,bar,Lumi! Shot&Cocktail,https://www.google.com/maps/place/Lumi!+Shot%26Cocktail/data=!4m7!3m6!1s0x46fd73a886c32bfd:0x32a50ad8895ad57f!8m2!3d54.3518181!4d18.6499666!16s%2Fg%2F11q4t0ph6n!19sChIJ_SvDhqhz_UYRf9VaidgKpTI?authuser=0&hl=en&rclk=1
54.3429758,18.6624585,bar,Bar mleczny kasztan,https://www.google.com/maps/place/Bar+mleczny+kasztan/data=!4m7!3m6!1s0x46fd73a79a644f1f:0x8aefcf5c03cdf3a1!8m2!3d54.3429758!4d18.6624585!16s%2Fg%2F11qg3m4wdy!19sChIJH09kmqdz_UYRofPNA1zP74o?authuser=0&hl=en&rclk=1
54.4869789,18.3399496,bar,Bar Danuta,https://www.google.com/maps/place/Bar+Danuta/data=!4m7!3m6!1s0x46fda3661980ace7:0x85092a0cf8ac3a85!8m2!3d54.4869789!4d18.3399496!16s%2Fg%2F11s9gdm0yq!19sChIJ56yAGWaj_UYRhTqs-AwqCYU?authuser=0&hl=en&rclk=1
54.4572405,18.535329,bar,Restauracja Brodwinek,https://www.google.com/maps/place/Restauracja+Brodwinek/data=!4m7!3m6!1s0x46fda1f09df74c0d:0xed158a18c96ae5cc!8m2!3d54.4572405!4d18.535329!16s%2Fg%2F11fmr2p83m!19sChIJDUz3nfCh_UYRzOVqyRiKFe0?authuser=0&hl=en&rclk=1
54.4447456,18.5655013,bar,Smak. Bar,https://www.google.com/maps/place/Smak.+Bar/data=!4m7!3m6!1s0x46fd0a8e29cf6bdb:0x8587777bf1dab52a!8m2!3d54.4447456!4d18.5655013!16s%2Fg%2F11h1854jz!19sChIJ22vPKY4K_UYRKrXa8Xt3h4U?authuser=0&hl=en&rclk=1
54.4233259,18.6003682,bar,Bar Hawajski,https://www.google.com/maps/place/Bar+Hawajski/data=!4m7!3m6!1s0x46fd0b2095db62ab:0xea55c5b2fb46cc08!8m2!3d54.4233259!4d18.6003682!16s%2Fg%2F11c52s_s2g!19sChIJq2LblSAL_UYRCMxG-7LFVeo?authuser=0&hl=en&rclk=1
54.4445472,18.3880665,bar,"""Bar Przedmiecie"" (przy stacji paliw Moya)",https://www.google.com/maps/place/%22Bar+Przedmie%C5%9Bcie%22+(przy+stacji+paliw+Moya)/data=!4m7!3m6!1s0x46fda20420da3407:0x7f307d057924c59!8m2!3d54.4445472!4d18.3880665!16s%2Fg%2F11d_ynqynv!19sChIJBzTaIASi_UYRWUySV9AH8wc?authuser=0&hl=en&rclk=1
54.415625,18.597932,bar,Bar No Name,https://www.google.com/maps/place/Bar+No+Name/data=!4m7!3m6!1s0x46fd0b288b83bf37:0xf977eb040dc8cded!8m2!3d54.415625!4d18.597932!16s%2Fg%2F1tdcf1qk!19sChIJN7-DiygL_UYR7c3IDQTrd_k?authuser=0&hl=en&rclk=1
54.4468244,18.4243737,bar,Osaka Sushi,https://www.google.com/maps/place/Osaka+Sushi/data=!4m7!3m6!1s0x46fda19e108cf989:0x11a95d7876bdbb1a!8m2!3d54.4468244!4d18.4243737!16s%2Fg%2F11g0mz62b1!19sChIJifmMEJ6h_UYRGru9dnhdqRE?authuser=0&hl=en&rclk=1
54.520812,18.5377739,bar,Check-IN Pub&Restaurant,https://www.google.com/maps/place/Check-IN+Pub%26Restaurant/data=!4m7!3m6!1s0x46fda7cb76d98663:0x51713e7d91ee97f3!8m2!3d54.520812!4d18.5377739!16s%2Fg%2F11s3xsywtx!19sChIJY4bZdsun_UYR85fukX0-cVE?authuser=0&hl=en&rclk=1
54.4409484,18.4160511,bar,Pizzeria Mirena.,https://www.google.com/maps/place/Pizzeria+Mirena./data=!4m7!3m6!1s0x46fda1e4b09e1f2b:0xe360c94fd2f98a49!8m2!3d54.4409484!4d18.4160511!16s%2Fg%2F11c5_rsbjs!19sChIJKx-esOSh_UYRSYr50k_JYOM?authuser=0&hl=en&rclk=1
54.444677,18.557309,bar,Bar w Komendzie Policji,https://www.google.com/maps/place/Bar+w+Komendzie+Policji/data=!4m7!3m6!1s0x46fd0b29ed938483:0x58537defb0cc8728!8m2!3d54.444677!4d18.557309!16s%2Fg%2F11jsj79_tb!19sChIJg4ST7SkL_UYRKIfMsO99U1g?authuser=0&hl=en&rclk=1
54.4393387,18.5732307,bar,Bar Bursztyn w Sopocie,https://www.google.com/maps/place/Bar+Bursztyn+w+Sopocie/data=!4m7!3m6!1s0x46fd0a933638924f:0xd78ec93cb3a5bc82!8m2!3d54.4393387!4d18.5732307!16s%2Fg%2F1pxq859y9!19sChIJT5I4NpMK_UYRgrylszzJjtc?authuser=0&hl=en&rclk=1
54.4289617,18.5907172,bar,Beach Bar 78,https://www.google.com/maps/place/Beach+Bar+78/data=!4m7!3m6!1s0x46fd0b8393ae67a5:0x4bc2aeec9f34220b!8m2!3d54.4289617!4d18.5907172!16s%2Fg%2F11nxv54q_f!19sChIJpWeuk4ML_UYRCyI0n-yuwks?authuser=0&hl=en&rclk=1
54.4110319,18.6294101,bar,Bar LED,https://www.google.com/maps/place/Bar+LED/data=!4m7!3m6!1s0x46fd0b4864886333:0xc1f4cf2003739de4!8m2!3d54.4110319!4d18.6294101!16s%2Fg%2F11c4lp8wzv!19sChIJM2OIZEgL_UYR5J1zAyDP9ME?authuser=0&hl=en&rclk=1
54.4329361,18.4555491,bar,Abaker. Doradztwo biznesowe. Bar W.,https://www.google.com/maps/place/Abaker.+Doradztwo+biznesowe.+Bar+W./data=!4m7!3m6!1s0x46fda1e4e061f52b:0x3297923d02a88a65!8m2!3d54.4329361!4d18.4555491!16s%2Fg%2F1tdflzdf!19sChIJK_Vh4OSh_UYRZYqoAj2SlzI?authuser=0&hl=en&rclk=1
54.4093173,18.5666033,bar,Bar piwny,https://www.google.com/maps/place/Bar+piwny/data=!4m7!3m6!1s0x46fd7532de259251:0x680546ba41d1c79!8m2!3d54.4093173!4d18.5666033!16s%2Fg%2F1tdcknr2!19sChIJUZIl3jJ1_UYReRwdpGtUgAY?authuser=0&hl=en&rclk=1
54.4094335,18.5669921,bar,Bar bistro,https://www.google.com/maps/place/Bar+bistro/data=!4m7!3m6!1s0x46fd75fce2efb4ed:0xb8eb3b140e4bb9dd!8m2!3d54.4094335!4d18.5669921!16s%2Fg%2F11t47cz2_6!19sChIJ7bTv4vx1_UYR3blLDhQ767g?authuser=0&hl=en&rclk=1
54.4113655,18.5578998,bar,Bar Przy Potoku,https://www.google.com/maps/place/Bar+Przy+Potoku/data=!4m7!3m6!1s0x46fd75352e4936b3:0xabf9d96bb34c0771!8m2!3d54.4113655!4d18.5578998!16s%2Fg%2F11c50qhpdx!19sChIJszZJLjV1_UYRcQdMs2vZ-as?authuser=0&hl=en&rclk=1
54.4458708,18.5685527,bar,3 sisters. Club,https://www.google.com/maps/place/3+sisters.+Club/data=!4m7!3m6!1s0x46fd0a92fa13c71b:0xe4f9f1f96f192751!8m2!3d54.4458708!4d18.5685527!16s%2Fg%2F12hk3jyz3!19sChIJG8cT-pIK_UYRUScZb_nx-eQ?authuser=0&hl=en&rclk=1
54.4032954,18.6813597,bar,Bar 呕ywiec,https://www.google.com/maps/place/Bar+%C5%BBywiec/data=!4m7!3m6!1s0x46fd0cb0a93ba913:0xf79e62bc6ba7f7c1!8m2!3d54.4032954!4d18.6813597!16s%2Fg%2F11b_03p_b6!19sChIJE6k7qbAM_UYRwfena7xinvc?authuser=0&hl=en&rclk=1
54.4065377,18.639003,bar,"Gem. Bar, catering, special events","https://www.google.com/maps/place/Gem.+Bar,+catering,+special+events/data=!4m7!3m6!1s0x46fd0b4e3b3b36e7:0xe2854898925f1697!8m2!3d54.4065377!4d18.639003!16s%2Fg%2F1td5vvps!19sChIJ5zY7O04L_UYRlxZfkphIheI?authuser=0&hl=en&rclk=1"
54.4097801,18.6033605,bar,Akrim,https://www.google.com/maps/place/Akrim/data=!4m7!3m6!1s0x46fd0b2dd04afc7d:0x30eda672dc98dc00!8m2!3d54.4097801!4d18.6033605!16s%2Fg%2F11c6s1lhvd!19sChIJffxK0C0L_UYRANyY3HKm7TA?authuser=0&hl=en&rclk=1
54.4324789,18.4853941,bar,Bistro Barbik,https://www.google.com/maps/place/Bistro+Barbik/data=!4m7!3m6!1s0x46fda024f78090c5:0x3577c2e116c6a08b!8m2!3d54.4324789!4d18.4853941!16s%2Fg%2F1tdcq6k1!19sChIJxZCA9ySg_UYRi6DGFuHCdzU?authuser=0&hl=en&rclk=1
54.410593,18.534541,bar,Bar Przystanek Przekska,https://www.google.com/maps/place/Bar+Przystanek+Przek%C4%85ska/data=!4m7!3m6!1s0x46fd75458f5d1053:0xc403d074a3ee080c!8m2!3d54.410593!4d18.534541!16s%2Fg%2F11t9ll98p1!19sChIJUxBdj0V1_UYRDAjuo3TQA8Q?authuser=0&hl=en&rclk=1
54.4205807,18.5669217,bar,Grill Bar Merc. Bar,https://www.google.com/maps/place/Grill+Bar+Merc.+Bar/data=!4m7!3m6!1s0x46fd0ac892219777:0xfeb995811e57f523!8m2!3d54.4205807!4d18.5669217!16s%2Fg%2F1v1sjxtb!19sChIJd5chksgK_UYRI_VXHoGVuf4?authuser=0&hl=en&rclk=1
54.4339595,18.5635584,bar,Instytut Spraw Wszelakich,https://www.google.com/maps/place/Instytut+Spraw+Wszelakich/data=!4m7!3m6!1s0x46fd0a95f549ec63:0x2edd21f02e25aacc!8m2!3d54.4339595!4d18.5635584!16s%2Fg%2F11byx0sqrx!19sChIJY-xJ9ZUK_UYRzKolLvAh3S4?authuser=0&hl=en&rclk=1
54.4388344,18.5729912,bar,Library Cafe & Bar,https://www.google.com/maps/place/Library+Cafe+%26+Bar/data=!4m7!3m6!1s0x46fd0a934f3a4d9b:0x220195ec7f390dbf!8m2!3d54.4388344!4d18.5729912!16s%2Fg%2F11clvm3chm!19sChIJm006T5MK_UYRvw05f-yVASI?authuser=0&hl=en&rclk=1
54.4370967,18.5802059,bar,Bar Przysta,https://www.google.com/maps/place/Bar+Przysta%C5%84/data=!4m7!3m6!1s0x46fd0aec092ae00b:0xeb51e387335f28f5!8m2!3d54.4370967!4d18.5802059!16s%2Fg%2F1v_vrlyr!19sChIJC-AqCewK_UYR9ShfM4fjUes?authuser=0&hl=en&rclk=1
54.4239376,18.5997903,bar,Apartament Coctail Bar,https://www.google.com/maps/place/Apartament+Coctail+Bar/data=!4m7!3m6!1s0x46fd0be0b1b1da65:0xb4e2677c92a3cb1d!8m2!3d54.4239376!4d18.5997903!16s%2Fg%2F11sbzwbp3z!19sChIJZdqxseAL_UYRHcujknxn4rQ?authuser=0&hl=en&rclk=1
54.4230569,18.601376,bar,B13 Restaurant&Bar,https://www.google.com/maps/place/B13+Restaurant%26Bar/data=!4m7!3m6!1s0x46fd0bc67df4175f:0x42123d4699ecd030!8m2!3d54.4230569!4d18.601376!16s%2Fg%2F11lk13k127!19sChIJXxf0fcYL_UYRMNDsmUY9EkI?authuser=0&hl=en&rclk=1
54.418955,18.5816981,bar,Kmar Bar Mleczny,https://www.google.com/maps/place/Kmar+Bar+Mleczny/data=!4m7!3m6!1s0x46fd0ad07c429687:0xd02c901ad2ebbb18!8m2!3d54.418955!4d18.5816981!16s%2Fg%2F1v82_sx1!19sChIJh5ZCfNAK_UYRGLvr0hqQLNA?authuser=0&hl=en&rclk=1
54.4361672,18.5822933,bar,Bar 33,https://www.google.com/maps/place/Bar+33/data=!4m7!3m6!1s0x46fd0ae93712704b:0x5ac015f87e16114!8m2!3d54.4361672!4d18.5822933!16s%2Fg%2F119vw_zd1!19sChIJS3ASN-kK_UYRFGHhh18BrAU?authuser=0&hl=en&rclk=1
54.4218961,18.6023436,bar,Bar Pla偶a,https://www.google.com/maps/place/Bar+Pla%C5%BCa/data=!4m7!3m6!1s0x46fd0b1d1b47f327:0x5a7e8de86faa63c0!8m2!3d54.4218961!4d18.6023436!16s%2Fg%2F11f8hwckkd!19sChIJJ_NHGx0L_UYRwGOqb-iNflo?authuser=0&hl=en&rclk=1
54.4220441,18.6023977,bar,Fala. Bar. Dutkiewicz R.,https://www.google.com/maps/place/Fala.+Bar.+Dutkiewicz+R./data=!4m7!3m6!1s0x46fd0b212bb0c9f5:0xe14e1d500be5abe9!8m2!3d54.4220441!4d18.6023977!16s%2Fg%2F1v41z473!19sChIJ9cmwKyEL_UYR6avlC1AdTuE?authuser=0&hl=en&rclk=1
54.4104672,18.6292381,bar,Bar U Chiefa,https://www.google.com/maps/place/Bar+U+Chiefa/data=!4m7!3m6!1s0x46fd0b52fe9d9e85:0xae8cf28f0936ac3e!8m2!3d54.4104672!4d18.6292381!16s%2Fg%2F11s3cm6j0d!19sChIJhZ6d_lIL_UYRPqw2CY_yjK4?authuser=0&hl=en&rclk=1
54.390095,18.639225,bar,T29 Sports Pub,https://www.google.com/maps/place/T29+Sports+Pub/data=!4m7!3m6!1s0x46fd74a8dea19313:0x5082204ec5447a6f!8m2!3d54.390095!4d18.639225!16s%2Fg%2F1q62md029!19sChIJE5Oh3qh0_UYRb3pExU4gglA?authuser=0&hl=en&rclk=1
54.401912,18.6714409,bar,BarCocktail- Centrum Usug Barmaskich,https://www.google.com/maps/place/BarCocktail-+Centrum+Us%C5%82ug+Barma%C5%84skich/data=!4m7!3m6!1s0x46fd0ab5808d1c69:0xe84e1b9bd0e4b3c4!8m2!3d54.401912!4d18.6714409!16s%2Fg%2F11b6v64nws!19sChIJaRyNgLUK_UYRxLPk0JsbTug?authuser=0&hl=en&rclk=1
54.410045,18.6061457,bar,Whiskey On The Rocks,https://www.google.com/maps/place/Whiskey+On+The+Rocks/data=!4m7!3m6!1s0x46fd0a90e3470949:0x14206d58282aa8be!8m2!3d54.410045!4d18.6061457!16s%2Fg%2F11bzsf17_f!19sChIJSQlH45AK_UYRvqgqKFhtIBQ?authuser=0&hl=en&rclk=1
54.4108646,18.6294606,bar,Tapas Rybka,https://www.google.com/maps/place/Tapas+Rybka/data=!4m7!3m6!1s0x46fd0b4864771f85:0xa2709bd00029435a!8m2!3d54.4108646!4d18.6294606!16s%2Fg%2F1hm2664rk!19sChIJhR93ZEgL_UYRWkMpANCbcKI?authuser=0&hl=en&rclk=1
54.4045394,18.6270996,bar,Sto贸wka | Bar | Kuchnia tradycyjna,https://www.google.com/maps/place/Sto%C5%82%C3%B3wka+%7C+Bar+%7C+Kuchnia+tradycyjna/data=!4m7!3m6!1s0x46fd0b11ddca9669:0x575c6d3e622cf4cc!8m2!3d54.4045394!4d18.6270996!16s%2Fg%2F11gj56q9sl!19sChIJaZbK3REL_UYRzPQsYj5tXFc?authuser=0&hl=en&rclk=1
54.3485187,18.6540041,bar,Fahrenheit by Jack's | Best Restaurant in Gdansk,https://www.google.com/maps/place/Fahrenheit+by+Jack's+%7C+Best+Restaurant+in+Gdansk/data=!4m7!3m6!1s0x46fd73a1ccd069c3:0xd90989e06e90812!8m2!3d54.3485187!4d18.6540041!16s%2Fg%2F11byx7y1b9!19sChIJw2nQzKFz_UYREgjpBp6YkA0?authuser=0&hl=en&rclk=1
54.3478225,18.6568074,bar,Salty Bar,https://www.google.com/maps/place/Salty+Bar/data=!4m7!3m6!1s0x46fd7346ca9a586f:0x869e400dc3ac129!8m2!3d54.3478225!4d18.6568074!16s%2Fg%2F11j8kg8w4z!19sChIJb1iaykZz_UYRKcE63ADkaQg?authuser=0&hl=en&rclk=1
54.393893,18.5687389,bar,INDEX Klubokawiarnia & Whisky Lounge,https://www.google.com/maps/place/INDEX+Klubokawiarnia+%26+Whisky+Lounge/data=!4m7!3m6!1s0x46fd752a11f5c391:0x8538a55d6c668dd1!8m2!3d54.393893!4d18.5687389!16s%2Fg%2F11k04n6mpz!19sChIJkcP1ESp1_UYR0Y1mbF2lOIU?authuser=0&hl=en&rclk=1
54.4015072,18.5725126,bar,Ludovisko,https://www.google.com/maps/place/Ludovisko/data=!4m7!3m6!1s0x46fd73a04d30fcdf:0xf4a542deaa00341d!8m2!3d54.4015072!4d18.5725126!16s%2Fg%2F1tfphhmx!19sChIJ3_wwTaBz_UYRHTQAqt5CpfQ?authuser=0&hl=en&rclk=1
54.4124762,18.58537,bar,Kropka. Klub. Smtek M.,https://www.google.com/maps/place/Kropka.+Klub.+Sm%C4%99tek+M./data=!4m7!3m6!1s0x46fd0ad42ff8f8ff:0xad45adbc058a2153!8m2!3d54.4124762!4d18.58537!16s%2Fg%2F1v3hyp3n!19sChIJ__j4L9QK_UYRUyGKBbytRa0?authuser=0&hl=en&rclk=1
54.4130896,18.598444,bar,Bar Mleczny Jaros,https://www.google.com/maps/place/Bar+Mleczny+Jaros/data=!4m7!3m6!1s0x46fd0b293cd3c0db:0x4d91fe00f2dc3cfc!8m2!3d54.4130896!4d18.598444!16s%2Fg%2F11c0r5rcnq!19sChIJ28DTPCkL_UYR_Dzc8gD-kU0?authuser=0&hl=en&rclk=1
54.4072115,18.638575,bar,Bar Ptla,https://www.google.com/maps/place/Bar+P%C4%99tla/data=!4m7!3m6!1s0x46fd0be45331c5b5:0xdc3b24c9b798f545!8m2!3d54.4072115!4d18.638575!16s%2Fg%2F11q23jrx66!19sChIJtcUxU-QL_UYRRfWYt8kkO9w?authuser=0&hl=en&rclk=1
54.4028233,18.6813749,bar,Bar Przysta,https://www.google.com/maps/place/Bar+Przysta%C5%84/data=!4m7!3m6!1s0x46fd0dce7cce366d:0x1070cdd458e19cd8!8m2!3d54.4028233!4d18.6813749!16s%2Fg%2F11f7b5p50t!19sChIJbTbOfM4N_UYR2JzhWNTNcBA?authuser=0&hl=en&rclk=1
54.401912,18.6714409,bar,Kawiarnia BarCocktail,https://www.google.com/maps/place/Kawiarnia+BarCocktail/data=!4m7!3m6!1s0x46fd0dc998f3145f:0x213854ea41c672db!8m2!3d54.401912!4d18.6714409!16s%2Fg%2F11k60w1h7m!19sChIJXxTzmMkN_UYR23LGQepUOCE?authuser=0&hl=en&rclk=1
54.3777896,18.6503834,bar,Ruszt Bar,https://www.google.com/maps/place/Ruszt+Bar/data=!4m7!3m6!1s0x46fd735c46afa2eb:0x858feda6c7f16e5f!8m2!3d54.3777896!4d18.6503834!16s%2Fg%2F11b_2fz34l!19sChIJ66KvRlxz_UYRX27xx6btj4U?authuser=0&hl=en&rclk=1
54.3774944,18.658685,bar,Bar Talonik,https://www.google.com/maps/place/Bar+Talonik/data=!4m7!3m6!1s0x46fd7343728c251d:0x678ee5e875c7c54d!8m2!3d54.3774944!4d18.658685!16s%2Fg%2F11fxy13xzf!19sChIJHSWMckNz_UYRTcXHdejljmc?authuser=0&hl=en&rclk=1
54.3706877,18.6605627,bar,Ruszt Bar,https://www.google.com/maps/place/Ruszt+Bar/data=!4m7!3m6!1s0x46fd73df9931935d:0x1bb4e35059f6d7ab!8m2!3d54.3706877!4d18.6605627!16s%2Fg%2F11h_wxt6t9!19sChIJXZMxmd9z_UYRq9f2WVDjtBs?authuser=0&hl=en&rclk=1
54.35024,18.651048,bar,Craft Cocktails - Cocktail Bar,https://www.google.com/maps/place/Craft+Cocktails+-+Cocktail+Bar/data=!4m7!3m6!1s0x46fd73a007e95f35:0x8ae082032d6c514f!8m2!3d54.35024!4d18.651048!16s%2Fg%2F11c4760wrj!19sChIJNV_pB6Bz_UYRT1FsLQOC4Io?authuser=0&hl=en&rclk=1
54.3471959,18.6550183,bar,Maa Sztuka Cocktail Bar - Gdask r贸dmiecie,https://www.google.com/maps/place/Ma%C5%82a+Sztuka+Cocktail+Bar+-+Gda%C5%84sk+%C5%9Ar%C3%B3dmie%C5%9Bcie/data=!4m7!3m6!1s0x46fd73a1a497c853:0xd389543b41eb56f8!8m2!3d54.3471959!4d18.6550183!16s%2Fg%2F11c2ntd7tx!19sChIJU8iXpKFz_UYR-FbrQTtUidM?authuser=0&hl=en&rclk=1
54.3536354,18.6584046,bar,H5 Bar,https://www.google.com/maps/place/H5+Bar/data=!4m7!3m6!1s0x46fd731d9f838735:0x8f77d045bd54a845!8m2!3d54.3536354!4d18.6584046!16s%2Fg%2F11fl_xk1cm!19sChIJNYeDnx1z_UYRRahUvUXQd48?authuser=0&hl=en&rclk=1
54.3675842,18.7766659,bar,Tawerna Trafalgar AZS Galion,https://www.google.com/maps/place/Tawerna+Trafalgar+AZS+Galion/data=!4m7!3m6!1s0x46fd6d57c9e432af:0x53f39a12da8798d1!8m2!3d54.3675842!4d18.7766659!16s%2Fg%2F11bzywhjsd!19sChIJrzLkyVdt_UYR0ZiH2hKa81M?authuser=0&hl=en&rclk=1
54.351918,18.657729,bar,Cocktail Bar Pocig do... Gdask,https://www.google.com/maps/place/Cocktail+Bar+Poci%C4%85g+do...+Gda%C5%84sk/data=!4m7!3m6!1s0x46fd730a932aaf81:0x84aada3dc93cda7e!8m2!3d54.351918!4d18.657729!16s%2Fg%2F11dylvfrh2!19sChIJga8qkwpz_UYRfto8yT3aqoQ?authuser=0&hl=en&rclk=1
54.34822,18.6655669,bar,Bar Mleczny,https://www.google.com/maps/place/Bar+Mleczny/data=!4m7!3m6!1s0x46fd73f8782b03c5:0x3515edf76df36c8d!8m2!3d54.34822!4d18.6655669!16s%2Fg%2F11h7fyct63!19sChIJxQMrePhz_UYRjWzzbfftFTU?authuser=0&hl=en&rclk=1
54.4031081,18.5709748,bar,Tiki Bar,https://www.google.com/maps/place/Tiki+Bar/data=!4m7!3m6!1s0x46fd75809dc85f77:0xa24d267245f46a0e!8m2!3d54.4031081!4d18.5709748!16s%2Fg%2F11rjv7hhdr!19sChIJd1_InYB1_UYRDmr0RXImTaI?authuser=0&hl=en&rclk=1
54.4013307,18.5773623,bar,Rozii Night Club Gdask,https://www.google.com/maps/place/Rozii+Night+Club+Gda%C5%84sk/data=!4m7!3m6!1s0x46fd7529121598f3:0xeb3837ac17002cef!8m2!3d54.4013307!4d18.5773623!16s%2Fg%2F1tfx3lmn!19sChIJ85gVEil1_UYR7ywAF6w3OOs?authuser=0&hl=en&rclk=1
54.3854606,18.5927537,bar,Pub Sp贸dzielczy,https://www.google.com/maps/place/Pub+Sp%C3%B3%C5%82dzielczy/data=!4m7!3m6!1s0x46fd74c2ee0ba439:0x1a7905ff63cc936a!8m2!3d54.3854606!4d18.5927537!16s%2Fg%2F11bxb6m92f!19sChIJOaQL7sJ0_UYRapPMY_8FeRo?authuser=0&hl=en&rclk=1
54.3909886,18.6107438,bar,Bar Amnezja,https://www.google.com/maps/place/Bar+Amnezja/data=!4m7!3m6!1s0x46fd75dd18c9fbc3:0x3a5f1963dcebde66!8m2!3d54.3909886!4d18.6107438!16s%2Fg%2F11g18wvcsx!19sChIJw_vJGN11_UYRZt7r3GMZXzo?authuser=0&hl=en&rclk=1
54.3938685,18.5935626,bar,Screenpub,https://www.google.com/maps/place/Screenpub/data=!4m7!3m6!1s0x46fd74dabe88fbff:0xbf437deed6e85a21!8m2!3d54.3938685!4d18.5935626!16s%2Fg%2F11h1p7p1q!19sChIJ__uIvtp0_UYRIVro1u59Q78?authuser=0&hl=en&rclk=1
54.3928929,18.6055133,bar,Pub Fala,https://www.google.com/maps/place/Pub+Fala/data=!4m7!3m6!1s0x46fd752f99fb0185:0x112a45fe47e92acf!8m2!3d54.3928929!4d18.6055133!16s%2Fg%2F11p15r4810!19sChIJhQH7mS91_UYRzyrpR_5FKhE?authuser=0&hl=en&rclk=1
54.398454,18.610141,bar,Pizza Bar Oliwkowy Zaktek,https://www.google.com/maps/place/Pizza+Bar+Oliwkowy+Zak%C4%85tek/data=!4m7!3m6!1s0x46fd75a1674b752f:0xc6d49f2059a6d369!8m2!3d54.398454!4d18.610141!16s%2Fg%2F11sqhf29ql!19sChIJL3VLZ6F1_UYRadOmWSCf1MY?authuser=0&hl=en&rclk=1
54.3915306,18.6579755,bar,Bistro Smaczny Ro偶ek,https://www.google.com/maps/place/Bistro+Smaczny+Ro%C5%BCek/data=!4m7!3m6!1s0x46fd733219ba9a7b:0x2e861bbc75d47b71!8m2!3d54.3915306!4d18.6579755!16s%2Fg%2F11h3tj5tjt!19sChIJe5q6GTJz_UYRcXvUdbwbhi4?authuser=0&hl=en&rclk=1
54.3827289,18.6239312,bar,"Bar studencki ""YELLOWBAR""",https://www.google.com/maps/place/Bar+studencki+%22YELLOWBAR%22/data=!4m7!3m6!1s0x46fd759942c62d59:0xde0d6eb634164980!8m2!3d54.3827289!4d18.6239312!16s%2Fg%2F11s54mlpgc!19sChIJWS3GQpl1_UYRgEkWNLZuDd4?authuser=0&hl=en&rclk=1
54.3701009,18.6596753,bar,Bar Imbir,https://www.google.com/maps/place/Bar+Imbir/data=!4m7!3m6!1s0x46fd7399eb39023f:0x27da85631dea6de5!8m2!3d54.3701009!4d18.6596753!16s%2Fg%2F11fqc11b_k!19sChIJPwI565lz_UYR5W3qHWOF2ic?authuser=0&hl=en&rclk=1
54.3787656,18.5835776,bar,Bar czaru,https://www.google.com/maps/place/Bar+czaru%C5%9B/data=!4m7!3m6!1s0x46fd752ebfe07b63:0x37e99f74f9a5d34e!8m2!3d54.3787656!4d18.5835776!16s%2Fg%2F11t6xj619l!19sChIJY3vgvy51_UYRTtOl-XSf6Tc?authuser=0&hl=en&rclk=1
54.3836111,18.5888889,bar,ELIKSIR Restaurant & Cocktailbar,https://www.google.com/maps/place/ELIKSIR+Restaurant+%26+Cocktailbar/data=!4m7!3m6!1s0x46fd74e805fefcd1:0x3a9c6c0390ed886c!8m2!3d54.3836111!4d18.5888889!16s%2Fg%2F11bx0dhvs0!19sChIJ0fz-Beh0_UYRbIjtkANsnDo?authuser=0&hl=en&rclk=1
54.3789425,18.6167713,bar,Encyk Bar,https://www.google.com/maps/place/Encyk+Bar/data=!4m7!3m6!1s0x46fd74978baf31f3:0x1d54423dafb126c5!8m2!3d54.3789425!4d18.6167713!16s%2Fg%2F11c0vs4w23!19sChIJ8zGvi5d0_UYRxSaxrz1CVB0?authuser=0&hl=en&rclk=1
54.3767577,18.614744,bar,Sports Pub,https://www.google.com/maps/place/Sports+Pub/data=!4m7!3m6!1s0x46fd7496fe1de4f1:0xe72adcfef2ae1f30!8m2!3d54.3767577!4d18.614744!16s%2Fg%2F11g68x9htf!19sChIJ8eQd_pZ0_UYRMB-u8v7cKuc?authuser=0&hl=en&rclk=1
54.379153,18.6138761,bar,Bar Kufelek,https://www.google.com/maps/place/Bar+Kufelek/data=!4m7!3m6!1s0x46fd749615bfea01:0xa04efa3ae653b3a4!8m2!3d54.379153!4d18.6138761!16s%2Fg%2F11c0rtn1q_!19sChIJAeq_FZZ0_UYRpLNT5jr6TqA?authuser=0&hl=en&rclk=1
54.3774789,18.6501269,bar,Bar ALICJA,https://www.google.com/maps/place/Bar+ALICJA/data=!4m7!3m6!1s0x46fd735c536b121f:0x8fb4729c3011985e!8m2!3d54.3774789!4d18.6501269!16s%2Fg%2F11c5hj30_l!19sChIJHxJrU1xz_UYRXpgRMJxytI8?authuser=0&hl=en&rclk=1
54.3773896,18.6502895,bar,Bar z daniami,https://www.google.com/maps/place/Bar+z+daniami/data=!4m7!3m6!1s0x46fd734203c33bcd:0x91e851c4b5843fbd!8m2!3d54.3773896!4d18.6502895!16s%2Fg%2F11fn22c6yt!19sChIJzTvDA0Jz_UYRvT-EtcRR6JE?authuser=0&hl=en&rclk=1
54.3599514,18.7091993,bar,Bar Caira,https://www.google.com/maps/place/Bar+Caira/data=!4m7!3m6!1s0x46fd73e325913f89:0x68b757c9ebc49a7f!8m2!3d54.3599514!4d18.7091993!16s%2Fg%2F11gn26k6j8!19sChIJiT-RJeNz_UYRf5rE68lXt2g?authuser=0&hl=en&rclk=1
54.3511096,18.8337861,bar,Bar Lena Wyspa,https://www.google.com/maps/place/Bar+Le%C5%9Bna+Wyspa/data=!4m7!3m6!1s0x46fd6df1a4a1ff6b:0xd426cb4facca1bbc!8m2!3d54.3511096!4d18.8337861!16s%2Fg%2F11g0zxkgk3!19sChIJa_-hpPFt_UYRvBvKrE_LJtQ?authuser=0&hl=en&rclk=1
54.3519139,18.4991232,bar,Bar Robotnik z dostaw,https://www.google.com/maps/place/Bar+Robotnik+z+dostaw%C4%85/data=!4m7!3m6!1s0x46fd73015b0ae187:0x39273efd2d34d9e5!8m2!3d54.3519139!4d18.4991232!16s%2Fg%2F11fzd3bx73!19sChIJh-EKWwFz_UYR5dk0Lf0-Jzk?authuser=0&hl=en&rclk=1
54.3502089,18.5573802,bar,Myliwskie niebo,https://www.google.com/maps/place/My%C5%9Bliwskie+niebo/data=!4m7!3m6!1s0x46fd75d2902b7be9:0x323b971a7cd0fc28!8m2!3d54.3502089!4d18.5573802!16s%2Fg%2F11t6hgdq65!19sChIJ6XsrkNJ1_UYRKPzQfBqXOzI?authuser=0&hl=en&rclk=1
54.3795155,18.6070723,bar,Sloter house PUB,https://www.google.com/maps/place/Sloter+house+PUB/data=!4m7!3m6!1s0x46fd75fc30438925:0x481291d12f7414d2!8m2!3d54.3795155!4d18.6070723!16s%2Fg%2F11j7vmwm85!19sChIJJYlDMPx1_UYR0hR0L9GREkg?authuser=0&hl=en&rclk=1
54.383543,18.6073399,bar,Klimat lounge Gdansk,https://www.google.com/maps/place/Klimat+lounge+Gdansk/data=!4m7!3m6!1s0x46fd75899c982045:0xae3ef36097142ef8!8m2!3d54.383543!4d18.6073399!16s%2Fg%2F11t0w0_ldp!19sChIJRSCYnIl1_UYR-C4Ul2DzPq4?authuser=0&hl=en&rclk=1
54.3586865,18.6835402,bar,Bartenders for You,https://www.google.com/maps/place/Bartenders+for+You/data=!4m7!3m6!1s0x46fd0b4019d6029b:0x37e13f231b9f007a!8m2!3d54.3586865!4d18.6835402!16s%2Fg%2F11mw6_6jlc!19sChIJmwLWGUAL_UYRegCfGyM_4Tc?authuser=0&hl=en&rclk=1
54.369636,18.7294632,bar,Bar Muszelka,https://www.google.com/maps/place/Bar+Muszelka/data=!4m7!3m6!1s0x46fd73d84a834933:0xb740c027ee7472e9!8m2!3d54.369636!4d18.7294632!16s%2Fg%2F11nx24zxd2!19sChIJM0mDSthz_UYR6XJ07ifAQLc?authuser=0&hl=en&rclk=1
54.3476456,18.6655122,bar,The Mars Lounge Bar & Shisha,https://www.google.com/maps/place/The+Mars+Lounge+Bar+%26+Shisha/data=!4m7!3m6!1s0x46fd73efb7d6398d:0x7f7c6853df5327bf!8m2!3d54.3476456!4d18.6655122!16s%2Fg%2F11q2xjpn8c!19sChIJjTnWt-9z_UYRvydT31NofH8?authuser=0&hl=en&rclk=1
54.3439793,18.8279756,bar,MAMI Bar,https://www.google.com/maps/place/MAMI+Bar/data=!4m7!3m6!1s0x46fd6dd9cf6535a3:0xfc597bd3c380c6ac!8m2!3d54.3439793!4d18.8279756!16s%2Fg%2F11szftjn49!19sChIJozVlz9lt_UYRrMaAw9N7Wfw?authuser=0&hl=en&rclk=1
54.3457835,18.8748012,bar,Bar Lodziarnia,https://www.google.com/maps/place/Bar+Lodziarnia/data=!4m7!3m6!1s0x46fd6d0b92609641:0x928f1c957b129ae6!8m2!3d54.3457835!4d18.8748012!16s%2Fg%2F11fv5_7dwr!19sChIJQZZgkgtt_UYR5poSe5Ucj5I?authuser=0&hl=en&rclk=1
54.3373062,18.6024384,bar,GastroStaff Drink Bar,https://www.google.com/maps/place/GastroStaff+Drink+Bar/data=!4m7!3m6!1s0x46fd7585bf8fb50d:0x8959cf9b12e4f2cf!8m2!3d54.3373062!4d18.6024384!16s%2Fg%2F11tc480n7q!19sChIJDbWPv4V1_UYRz_LkEpvPWYk?authuser=0&hl=en&rclk=1
54.377968,18.6086348,bar,Maciu. Bar.,https://www.google.com/maps/place/Maciu%C5%9B.+Bar./data=!4m7!3m6!1s0x46fd7494252ed933:0x5bb57379522a4b0!8m2!3d54.377968!4d18.6086348!16s%2Fg%2F1vcjkyn0!19sChIJM9kuJZR0_UYRsKQilTdXuwU?authuser=0&hl=en&rclk=1
54.3599306,18.5904008,bar,Pub Torpeda,https://www.google.com/maps/place/Pub+Torpeda/data=!4m7!3m6!1s0x46fd74606d84ffff:0xcf7306af6483eb25!8m2!3d54.3599306!4d18.5904008!16s%2Fg%2F11g027j78q!19sChIJ__-EbWB0_UYRJeuDZK8Gc88?authuser=0&hl=en&rclk=1
54.3558319,18.5846023,bar,Stremel Rajmund. Bar gastronomiczny,https://www.google.com/maps/place/Stremel+Rajmund.+Bar+gastronomiczny/data=!4m7!3m6!1s0x46fd745de7ecc80d:0x4a1ef7ee097a660f!8m2!3d54.3558319!4d18.5846023!16s%2Fg%2F1hc10k756!19sChIJDcjs5110_UYRD2Z6Ce73Hko?authuser=0&hl=en&rclk=1
54.3699924,18.6108538,bar,KAROL,https://www.google.com/maps/place/KAROL/data=!4m7!3m6!1s0x46fd749025a286e3:0xb43e3849e7249956!8m2!3d54.3699924!4d18.6108538!16s%2Fg%2F12hrqy52g!19sChIJ44aiJZB0_UYRVpkk50k4PrQ?authuser=0&hl=en&rclk=1
54.369606,18.6102257,bar,Mechaniczna Pomaracza,https://www.google.com/maps/place/Mechaniczna+Pomara%C5%84cza/data=!4m7!3m6!1s0x46fd748fd6fdcf89:0xe241f1be4f708f1e!8m2!3d54.369606!4d18.6102257!16s%2Fg%2F1tj3jrxw!19sChIJic_91o90_UYRHo9wT77xQeI?authuser=0&hl=en&rclk=1
54.3716804,18.6193418,bar,Gastronomia i Serwis s.c. Bar studencki. Nowak I.W.,https://www.google.com/maps/place/Gastronomia+i+Serwis+s.c.+Bar+studencki.+Nowak+I.W./data=!4m7!3m6!1s0x46fd749a540db041:0x2feeab69fc101cb6!8m2!3d54.3716804!4d18.6193418!16s%2Fg%2F1tdb_bbg!19sChIJQbANVJp0_UYRthwQ_Gmr7i8?authuser=0&hl=en&rclk=1
54.3564489,18.6429612,bar,Ikarus. Bar. Sawrasewicz I.,https://www.google.com/maps/place/Ikarus.+Bar.+Sawrasewicz+I./data=!4m7!3m6!1s0x46fd7377b1f3cc8b:0xe4c09b0ca000a9b9!8m2!3d54.3564489!4d18.6429612!16s%2Fg%2F1tgx592q!19sChIJi8zzsXdz_UYRuakAoAybwOQ?authuser=0&hl=en&rclk=1
54.3508319,18.6399912,bar,BAR ZA BRAM,https://www.google.com/maps/place/BAR+ZA+BRAM%C4%84/data=!4m7!3m6!1s0x46fd73ef1b6a6d83:0x22dcad25284976b0!8m2!3d54.3508319!4d18.6399912!16s%2Fg%2F11r7v9bg_v!19sChIJg21qG-9z_UYRsHZJKCWt3CI?authuser=0&hl=en&rclk=1
54.3638025,18.6270806,bar,Bufet Studencki,https://www.google.com/maps/place/Bufet+Studencki/data=!4m7!3m6!1s0x46fd74827e7ce6b7:0xc54306cd4d73ba4a!8m2!3d54.3638025!4d18.6270806!16s%2Fg%2F11fy4vtqn2!19sChIJt-Z8foJ0_UYRSrpzTc0GQ8U?authuser=0&hl=en&rclk=1
54.3536354,18.6584046,bar,Bar F32,https://www.google.com/maps/place/Bar+F32/data=!4m7!3m6!1s0x46fd737411205fdb:0x6a60f0c2179dba25!8m2!3d54.3536354!4d18.6584046!16s%2Fg%2F11hyvmcvd8!19sChIJ218gEXRz_UYRJbqdF8LwYGo?authuser=0&hl=en&rclk=1
54.344923,18.7242621,bar,Cafe Bar Mon Balzac LOTOS,https://www.google.com/maps/place/Cafe+Bar+Mon+Balzac+LOTOS/data=!4m7!3m6!1s0x46fd735224d54adb:0xc26e0be159697997!8m2!3d54.344923!4d18.7242621!16s%2Fg%2F11hsgcsj1k!19sChIJ20rVJFJz_UYRl3lpWeELbsI?authuser=0&hl=en&rclk=1
54.3395972,18.8240999,bar,Sallieri's Bar,https://www.google.com/maps/place/Sallieri's+Bar/data=!4m7!3m6!1s0x46fd6d1bdc35c65d:0x6159f985cfdd32be!8m2!3d54.3395972!4d18.8240999!16s%2Fg%2F11sh4gnmkm!19sChIJXcY13Btt_UYRvjLdz4X5WWE?authuser=0&hl=en&rclk=1
54.3487344,18.6545971,bar,Flisak '76,https://www.google.com/maps/place/Flisak+'76/data=!4m7!3m6!1s0x46fd73a036391d81:0x3953c9de4dcd2b89!8m2!3d54.3487344!4d18.6545971!16s%2Fg%2F1tf19fyd!19sChIJgR05NqBz_UYRiSvNTd7JUzk?authuser=0&hl=en&rclk=1
54.335914,18.934199,bar,Dragon Bar,https://www.google.com/maps/place/Dragon+Bar/data=!4m7!3m6!1s0x46fd6b3922edbe69:0x8605e70584c0fa76!8m2!3d54.335914!4d18.934199!16s%2Fg%2F1td63_h8!19sChIJab7tIjlr_UYRdvrAhAXnBYY?authuser=0&hl=en&rclk=1
54.3197367,18.5008596,bar,Bar Otomin,https://www.google.com/maps/place/Bar+Otomin/data=!4m7!3m6!1s0x46fd777f104d2cff:0x27ff5361bc6f8193!8m2!3d54.3197367!4d18.5008596!16s%2Fg%2F11hdjc3n9h!19sChIJ_yxNEH93_UYRk4FvvGFT_yc?authuser=0&hl=en&rclk=1
54.3506132,18.5870893,bar,Wokbar - Asian Street Food,https://www.google.com/maps/place/Wokbar+-+Asian+Street+Food/data=!4m7!3m6!1s0x46fd750bef748b99:0xbd976000b2b4ce7d!8m2!3d54.3506132!4d18.5870893!16s%2Fg%2F11rrprv3f8!19sChIJmYt07wt1_UYRfc60sgBgl70?authuser=0&hl=en&rclk=1
54.3498833,18.6472472,bar,Bar Kapsel,https://www.google.com/maps/place/Bar+Kapsel/data=!4m7!3m6!1s0x46fd739e5cca5449:0x7ef5391be228ec59!8m2!3d54.3498833!4d18.6472472!16s%2Fg%2F11c7t398pm!19sChIJSVTKXJ5z_UYRWewo4hs59X4?authuser=0&hl=en&rclk=1
54.3504057,18.6474067,bar,Jimmy's PUB,https://www.google.com/maps/place/Jimmy's+PUB/data=!4m7!3m6!1s0x46fd739e6a234619:0xf6bfbeea9e88301d!8m2!3d54.3504057!4d18.6474067!16s%2Fg%2F11cncpfvrh!19sChIJGUYjap5z_UYRHTCInuq-v_Y?authuser=0&hl=en&rclk=1
54.3508752,18.6354317,bar,Bufecik,https://www.google.com/maps/place/Bufecik/data=!4m7!3m6!1s0x46fd7391f7635bbd:0x1895a246e20920f6!8m2!3d54.3508752!4d18.6354317!16s%2Fg%2F11gyklshvg!19sChIJvVtj95Fz_UYR9iAJ4kailRg?authuser=0&hl=en&rclk=1
54.3480053,18.6708797,bar,501. PHU. Bar gastronomiczny. Tychonowska E.,https://www.google.com/maps/place/501.+PHU.+Bar+gastronomiczny.+Tychonowska+E./data=!4m7!3m6!1s0x46fd73a81aea4949:0x1c3afb4771cfba2a!8m2!3d54.3480053!4d18.6708797!16s%2Fg%2F1hc290dj9!19sChIJSUnqGqhz_UYRKrrPcUf7Ohw?authuser=0&hl=en&rclk=1
54.3495,18.795738,bar,Biegus. Bar gastronomiczny. Pozdrowska .,https://www.google.com/maps/place/Biegus.+Bar+gastronomiczny.+Pozdrowska+%C5%81./data=!4m7!3m6!1s0x46fd6d15350f954f:0x77762bed94047f91!8m2!3d54.3495!4d18.795738!16s%2Fg%2F1hc2_r0gr!19sChIJT5UPNRVt_UYRkX8ElO0rdnc?authuser=0&hl=en&rclk=1
54.334235,18.9596851,bar,BAR,https://www.google.com/maps/place/BAR/data=!4m7!3m6!1s0x46fd6b27b4692e43:0x2abe9a256405f22f!8m2!3d54.334235!4d18.9596851!16s%2Fg%2F11g9ghgn8b!19sChIJQy5ptCdr_UYRL_IFZCWavio?authuser=0&hl=en&rclk=1
54.3368966,18.6375343,bar,Grill Bar Gdask,https://www.google.com/maps/place/Grill+Bar+Gda%C5%84sk/data=!4m7!3m6!1s0x46fd7394200a2ebf:0x7f8e7784100ec58c!8m2!3d54.3368966!4d18.6375343!16s%2Fg%2F11qnk7ymkw!19sChIJvy4KIJRz_UYRjMUOEIR3jn8?authuser=0&hl=en&rclk=1
54.3486169,18.6552621,bar,Pub pod Chmurk,https://www.google.com/maps/place/Pub+pod+Chmurk%C4%85/data=!4m7!3m6!1s0x46fd7327c3a971e3:0x4fa9e4a58a4f9762!8m2!3d54.3486169!4d18.6552621!16s%2Fg%2F11h6l39vp0!19sChIJ43Gpwydz_UYRYpdPiqXkqU8?authuser=0&hl=en&rclk=1
54.3320178,18.6340314,bar,Nesca. Bar,https://www.google.com/maps/place/Nesca.+Bar/data=!4m7!3m6!1s0x46fd7394b5622607:0xf827fb55b6307e7f!8m2!3d54.3320178!4d18.6340314!16s%2Fg%2F1t_kf6bl!19sChIJByZitZRz_UYRf34wtlX7J_g?authuser=0&hl=en&rclk=1
54.3413052,18.6611742,bar,ka Bar,https://www.google.com/maps/place/%C5%81%C4%85ka+Bar/data=!4m7!3m6!1s0x46fd73261c7c8331:0x7fc8cbc9b698be3!8m2!3d54.3413052!4d18.6611742!16s%2Fg%2F11h6g45pql!19sChIJMYN8HCZz_UYR44tpm7yM_Ac?authuser=0&hl=en&rclk=1
54.325601,18.7459829,bar,KURCZAK Z RO呕NA,https://www.google.com/maps/place/KURCZAK+Z+RO%C5%BBNA/data=!4m7!3m6!1s0x46fd6d3d0c9f3371:0x902d1ab6c727d4fe!8m2!3d54.325601!4d18.7459829!16s%2Fg%2F11q2q1hdy7!19sChIJcTOfDD1t_UYR_tQnx7YaLZA?authuser=0&hl=en&rclk=1
54.3110993,18.5674068,bar,Snack Bar Burger,https://www.google.com/maps/place/Snack+Bar+Burger/data=!4m7!3m6!1s0x46fd777cde0c5a53:0xda0111e1db1879c6!8m2!3d54.3110993!4d18.5674068!16s%2Fg%2F1hhl84247!19sChIJU1oM3nx3_UYRxnkY2-ERAdo?authuser=0&hl=en&rclk=1
54.3203524,18.5514108,bar,Beijing Bar,https://www.google.com/maps/place/Beijing+Bar/data=!4m7!3m6!1s0x46fd778f33b8d18b:0x3a8bff95f519a7e!8m2!3d54.3203524!4d18.5514108!16s%2Fg%2F11hh7lds2y!19sChIJi9G4M493_UYRfppRX_m_qAM?authuser=0&hl=en&rclk=1
54.3445495,18.7247667,bar,Bar Bistro PIT STOP,https://www.google.com/maps/place/Bar+Bistro+PIT+STOP/data=!4m7!3m6!1s0x46fd728b73b09509:0xde2e6098324f0c90!8m2!3d54.3445495!4d18.7247667!16s%2Fg%2F11ggzc3cpj!19sChIJCZWwc4ty_UYRkAxPMphgLt4?authuser=0&hl=en&rclk=1
54.3509524,18.6505388,bar,J盲gspot,https://www.google.com/maps/place/J%C3%A4gspot/data=!4m7!3m6!1s0x46fd739af9c4c9b3:0x9ffd14a6283db3b7!8m2!3d54.3509524!4d18.6505388!16s%2Fg%2F11fm5vjhyw!19sChIJs8nE-Zpz_UYRt7M9KKYU_Z8?authuser=0&hl=en&rclk=1
54.3471353,18.658264,bar,Pub Pixel,https://www.google.com/maps/place/Pub+Pixel/data=!4m7!3m6!1s0x46fd73a122ede6f9:0x771ae9857b835875!8m2!3d54.3471353!4d18.658264!16s%2Fg%2F11bc712kf4!19sChIJ-ebtIqFz_UYRdViDe4XpGnc?authuser=0&hl=en&rclk=1
54.2877788,18.5059533,bar,Panda Sushi,https://www.google.com/maps/place/Panda+Sushi/data=!4m7!3m6!1s0x46fd77b11450608f:0x1fe9d5975a2b6c6e!8m2!3d54.2877788!4d18.5059533!16s%2Fg%2F11p4_kpls3!19sChIJj2BQFLF3_UYRbmwrWpfV6R8?authuser=0&hl=en&rclk=1
54.2921043,18.5308153,bar,Jastny Dw贸r,https://www.google.com/maps/place/Jastny+Dw%C3%B3r/data=!4m7!3m6!1s0x46fd7791ef727a81:0x2493b4781518b314!8m2!3d54.2921043!4d18.5308153!16s%2Fg%2F11gh9p08kg!19sChIJgXpy75F3_UYRFLMYFXi0kyQ?authuser=0&hl=en&rclk=1
54.2678455,18.5666686,bar,Marilyn BAR,https://www.google.com/maps/place/Marilyn+BAR/data=!4m7!3m6!1s0x46fd71287c42e455:0x4035cbee44cb2d58!8m2!3d54.2678455!4d18.5666686!16s%2Fg%2F1td9zcpc!19sChIJVeRCfChx_UYRWC3LRO7LNUA?authuser=0&hl=en&rclk=1
54.261755,18.6345873,bar,Bar & Restauracja FRYTAS,https://www.google.com/maps/place/Bar+%26+Restauracja+FRYTAS/data=!4m7!3m6!1s0x46fd7053f54f4757:0xe4b6d87e65001311!8m2!3d54.261755!4d18.6345873!16s%2Fg%2F1tf_g2w3!19sChIJV0dP9VNw_UYRERMAZX7YtuQ?authuser=0&hl=en&rclk=1
54.259909,18.64867,bar,Bar Zacisze,https://www.google.com/maps/place/Bar+Zacisze/data=!4m7!3m6!1s0x46fd7034444a0c7f:0x2cb1f54fe776d100!8m2!3d54.259909!4d18.64867!16s%2Fg%2F1tt89z16!19sChIJfwxKRDRw_UYRANF250_1sSw?authuser=0&hl=en&rclk=1
54.2568335,18.6415663,bar,Four Winds. Bar. Urbanowicz K.,https://www.google.com/maps/place/Four+Winds.+Bar.+Urbanowicz+K./data=!4m7!3m6!1s0x46fd704dfcc76287:0x319da134787f00c8!8m2!3d54.2568335!4d18.6415663!16s%2Fg%2F1tgg8np4!19sChIJh2LH_E1w_UYRyAB_eDShnTE?authuser=0&hl=en&rclk=1
54.247892,18.6375718,bar,Bar 3 x TAK,https://www.google.com/maps/place/Bar+3+x+TAK/data=!4m7!3m6!1s0x46fd71baa27a0287:0xae8a1e2d01f9fc71!8m2!3d54.247892!4d18.6375718!16s%2Fg%2F11flvdd85m!19sChIJhwJ6orpx_UYRcfz5AS0eiq4?authuser=0&hl=en&rclk=1
54.2596734,18.6389427,bar,Bistro Stodoa,https://www.google.com/maps/place/Bistro+Stodo%C5%82a/data=!4m7!3m6!1s0x46fd70525066e7ef:0x6760edb44677e2e0!8m2!3d54.2596734!4d18.6389427!16s%2Fg%2F11f15lynb2!19sChIJ7-dmUFJw_UYR4OJ3RrTtYGc?authuser=0&hl=en&rclk=1
54.2582407,18.648056,bar,"BAR ""SMACZEK"" ZAPIEKANKI HAMBURGERY OBIADY",https://www.google.com/maps/place/BAR+%22SMACZEK%22+ZAPIEKANKI+HAMBURGERY+OBIADY/data=!4m7!3m6!1s0x46fd7048a2d9f117:0xc52e66f4cc7a4683!8m2!3d54.2582407!4d18.648056!16s%2Fg%2F11xh73tpw!19sChIJF_HZokhw_UYRg0Z6zPRmLsU?authuser=0&hl=en&rclk=1
54.2707405,18.5895023,bar,Mona,https://www.google.com/maps/place/Mona/data=!4m7!3m6!1s0x46fd70df59bcb3f5:0x128ce9568ce13ab9!8m2!3d54.2707405!4d18.5895023!16s%2Fg%2F11g_rfrfd!19sChIJ9bO8Wd9w_UYRuTrhjFbpjBI?authuser=0&hl=en&rclk=1
54.2247008,18.6443901,bar,Bar u Oli,https://www.google.com/maps/place/Bar+u+Oli/data=!4m7!3m6!1s0x46fd71bd6532b1ad:0xfd6f861204301a90!8m2!3d54.2247008!4d18.6443901!16s%2Fg%2F11h77l_0ks!19sChIJrbEyZb1x_UYRkBowBBKGb_0?authuser=0&hl=en&rclk=1
54.4777478,18.5536658,hotel,Hotel Kuracyjny,https://www.google.com/maps/place/Hotel+Kuracyjny/data=!4m10!3m9!1s0x46fda098fb0b8421:0xe44a7ec729a06beb!5m2!4m1!1i2!8m2!3d54.4777478!4d18.5536658!16s%2Fg%2F1vpq5krk!19sChIJIYQL-5ig_UYR62ugKcd-SuQ?authuser=0&hl=en&rclk=1
54.5254384,18.4921096,hotel,Green Loft Gdynia,https://www.google.com/maps/place/Green+Loft+Gdynia/data=!4m10!3m9!1s0x46fda75f9fdd1fdd:0x9cc748d51e89d1de!5m2!4m1!1i2!8m2!3d54.5254384!4d18.4921096!16s%2Fg%2F11f7bk4q1z!19sChIJ3R_dn1-n_UYR3tGJHtVIx5w?authuser=0&hl=en&rclk=1
54.4708959,18.4630722,hotel,Pro-Hotel Sp. z o.o.,https://www.google.com/maps/place/Pro-Hotel+Sp.+z+o.o./data=!4m7!3m6!1s0x46fda1a74a6ea601:0xe3de4cbd85cfeb4b!8m2!3d54.4708959!4d18.4630722!16s%2Fg%2F1tmqdxkv!19sChIJAaZuSqeh_UYRS-vPhb1M3uM?authuser=0&hl=en&rclk=1
54.5007629,18.4649848,hotel,Hotel Morski w Gdyni,https://www.google.com/maps/place/Hotel+Morski+w+Gdyni/data=!4m10!3m9!1s0x46fda144058725d5:0xd07bfd5d628d887e!5m2!4m1!1i2!8m2!3d54.5007629!4d18.4649848!16s%2Fg%2F1tkrkh9b!19sChIJ1SWHBUSh_UYRfoiNYl39e9A?authuser=0&hl=en&rclk=1
54.469151,18.501534,hotel,Starodworcowa Gdynia,https://www.google.com/maps/place/Starodworcowa+Gdynia/data=!4m7!3m6!1s0x46fda0f9005c45d1:0x753f91581eee0c8d!8m2!3d54.469151!4d18.501534!16s%2Fg%2F11cr_r49_g!19sChIJ0UVcAPmg_UYRjQzuHliRP3U?authuser=0&hl=en&rclk=1
54.4691698,18.5015555,hotel,Baltic Hotel,https://www.google.com/maps/place/Baltic+Hotel/data=!4m10!3m9!1s0x46fda0f9005c45d1:0x9bce928abb5829b1!5m2!4m1!1i2!8m2!3d54.4691698!4d18.5015555!16s%2Fg%2F11b6xys5vz!19sChIJ0UVcAPmg_UYRsSlYu4qSzps?authuser=0&hl=en&rclk=1
54.473319,18.4705179,hotel,Happy Floryda,https://www.google.com/maps/place/Happy+Floryda/data=!4m7!3m6!1s0x46fda1085afd2b3f:0x4bf295853b12083b!8m2!3d54.473319!4d18.4705179!16s%2Fg%2F1tg4vjs4!19sChIJPyv9Wgih_UYROwgSO4WV8ks?authuser=0&hl=en&rclk=1
54.467967,18.4865739,hotel,Dom Matlista,https://www.google.com/maps/place/Dom+Matlista/data=!4m7!3m6!1s0x46fda10101275c0b:0x24d1a7e8b6d2b097!8m2!3d54.467967!4d18.4865739!16s%2Fg%2F11p9n8n8p2!19sChIJC1wnAQGh_UYRl7DStuin0SQ?authuser=0&hl=en&rclk=1
54.4810754,18.5398212,hotel,Hotel Quadrille Relais & Ch芒teaux,https://www.google.com/maps/place/Hotel+Quadrille+Relais+%26+Ch%C3%A2teaux/data=!4m10!3m9!1s0x46fda095c3e7ed9b:0x8f6e15df90aa9395!5m2!4m1!1i2!8m2!3d54.4810754!4d18.5398212!16s%2Fg%2F1tt89z2n!19sChIJm-3nw5Wg_UYRlZOqkN8Vbo8?authuser=0&hl=en&rclk=1
54.4506981,18.5609722,hotel,Hotel Haffner,https://www.google.com/maps/place/Hotel+Haffner/data=!4m10!3m9!1s0x46fd0a85d736da9d:0x1893a74c7f4b4b7f!5m2!4m1!1i2!8m2!3d54.4506981!4d18.5609722!16s%2Fg%2F120vz_0y!19sChIJndo214UK_UYRf0tLf0ynkxg?authuser=0&hl=en&rclk=1
54.505185,18.553716,hotel,Hotel Nadmorski,https://www.google.com/maps/place/Hotel+Nadmorski/data=!4m10!3m9!1s0x46fda74ae3ae7aeb:0x5bf9d2c943f30c35!5m2!4m1!1i2!8m2!3d54.505185!4d18.553716!16s%2Fg%2F1tgj7j58!19sChIJ63qu40qn_UYRNQzzQ8nS-Vs?authuser=0&hl=en&rclk=1
54.496532,18.510447,hotel,Long No.4 Villa Bed & Breakfast,https://www.google.com/maps/place/Long+No.4+Villa+Bed+%26+Breakfast/data=!4m10!3m9!1s0x46fda0d85c9c8953:0x6a87a56d126bbd8a!5m2!4m1!1i2!8m2!3d54.496532!4d18.510447!16s%2Fg%2F11b67dgchp!19sChIJU4mcXNig_UYRir1rEm2lh2o?authuser=0&hl=en&rclk=1
54.4788788,18.5523163,hotel,Guest House Orowo,https://www.google.com/maps/place/Guest+House+Or%C5%82owo/data=!4m10!3m9!1s0x46fda0985b3ee1fd:0x2438597fcacd50d0!5m2!4m1!1i2!8m2!3d54.4788788!4d18.5523163!16s%2Fg%2F11g8bww19w!19sChIJ_eE-W5ig_UYR0FDNyn9ZOCQ?authuser=0&hl=en&rclk=1
54.477748,18.553666,hotel,Hotel Kuracyjny,https://www.google.com/maps/place/Hotel+Kuracyjny/data=!4m10!3m9!1s0x46fda0991d5f6db7:0xe44a7ec729a06beb!5m2!4m1!1i2!8m2!3d54.477748!4d18.553666!16s%2Fg%2F1vpq5krk!19sChIJt21fHZmg_UYR62ugKcd-SuQ?authuser=0&hl=en&rclk=1
54.479642,18.555692,hotel,Hotel Willa Lubicz,https://www.google.com/maps/place/Hotel+Willa+Lubicz/data=!4m10!3m9!1s0x46fda09899c9f20d:0xa7342cc92df36f9f!5m2!4m1!1i2!8m2!3d54.479642!4d18.555692!16s%2Fg%2F1tdzvdpg!19sChIJDfLJmZig_UYRn2_zLcksNKc?authuser=0&hl=en&rclk=1
54.477912,18.55521,hotel,Kwatery Noclegi,https://www.google.com/maps/place/Kwatery+Noclegi/data=!4m7!3m6!1s0x46fda098dc17bff1:0xacf5eb1ddcf6d8d5!8m2!3d54.477912!4d18.55521!16s%2Fg%2F11c0wc9hqg!19sChIJ8b8X3Jig_UYR1dj23B3r9aw?authuser=0&hl=en&rclk=1
54.479642,18.555692,hotel,Hotel Willa Lubicz,https://www.google.com/maps/place/Hotel+Willa+Lubicz/data=!4m10!3m9!1s0x46fda09899c98bb7:0xa7342cc92df36f9f!5m2!4m1!1i2!8m2!3d54.479642!4d18.555692!16s%2Fg%2F1tdzvdpg!19sChIJt4vJmZig_UYRn2_zLcksNKc?authuser=0&hl=en&rclk=1
54.4552586,18.5600806,hotel,Hotel Sopot,https://www.google.com/maps/place/Hotel+Sopot/data=!4m10!3m9!1s0x46fd0b68b0c3fe8f:0xb62d86507deca528!5m2!4m1!1i2!8m2!3d54.4552586!4d18.5600806!16s%2Fg%2F11h18kx0d0!19sChIJj_7DsGgL_UYRKKXsfVCGLbY?authuser=0&hl=en&rclk=1
54.520783,18.549372,hotel,Courtyard by Marriott Gdynia Waterfront,https://www.google.com/maps/place/Courtyard+by+Marriott+Gdynia+Waterfront/data=!4m10!3m9!1s0x46fda73b8b267e7b:0xbf262e6031c7597e!5m2!4m1!1i2!8m2!3d54.520783!4d18.549372!16s%2Fg%2F11b6xhwg8h!19sChIJe34mizun_UYRflnHMWAuJr8?authuser=0&hl=en&rclk=1
54.5051851,18.5537157,hotel,Hotel Nadmorski,https://www.google.com/maps/place/Hotel+Nadmorski/data=!4m10!3m9!1s0x46fda74b05b02c37:0x5bf9d2c943f30c35!5m2!4m1!1i2!8m2!3d54.5051851!4d18.5537157!16s%2Fg%2F1tgj7j58!19sChIJNyywBUun_UYRNQzzQ8nS-Vs?authuser=0&hl=en&rclk=1
54.5086026,18.552191,hotel,Hotel R贸偶any Gaj,https://www.google.com/maps/place/Hotel+R%C3%B3%C5%BCany+Gaj/data=!4m10!3m9!1s0x46fda735f87c2f01:0x3f9ef3cc41ea01e2!5m2!4m1!1i2!8m2!3d54.5086026!4d18.552191!16s%2Fg%2F1tjhwc0s!19sChIJAS98-DWn_UYR4gHqQczznj8?authuser=0&hl=en&rclk=1
54.602615,18.807793,hotel,Hotel Hel,https://www.google.com/maps/place/Hotel+Hel/data=!4m10!3m9!1s0x46fd042c77e93823:0xbfc4567d3a52a4b1!5m2!4m1!1i2!8m2!3d54.602615!4d18.807793!16s%2Fg%2F11f77r8zcw!19sChIJIzjpdywE_UYRsaRSOn1WxL8?authuser=0&hl=en&rclk=1
54.347966,18.654096,hotel,IBB Hotel Gdask,https://www.google.com/maps/place/IBB+Hotel+Gda%C5%84sk/data=!4m10!3m9!1s0x46fd73a1c9eb10fb:0x36694306a8071c43!5m2!4m1!1i2!8m2!3d54.347966!4d18.654096!16s%2Fg%2F11f3x92sgh!19sChIJ-xDryaFz_UYRQxwHqAZDaTY?authuser=0&hl=en&rclk=1
54.4360355,18.5805268,hotel,Hotel Bursztyn,https://www.google.com/maps/place/Hotel+Bursztyn/data=!4m10!3m9!1s0x46fd0aebfce5b557:0xea8310a93821579a!5m2!4m1!1i2!8m2!3d54.4360355!4d18.5805268!16s%2Fg%2F1tks5049!19sChIJV7Xl_OsK_UYRmlchOKkQg-o?authuser=0&hl=en&rclk=1
54.4062526,18.5763462,hotel,Hotel Arkon Park Business & Sport,https://www.google.com/maps/place/Hotel+Arkon+Park+Business+%26+Sport/data=!4m10!3m9!1s0x46fd752b1271a38b:0x26b43a18b7dfefeb!5m2!4m1!1i2!8m2!3d54.4062526!4d18.5763462!16s%2Fg%2F1tk89tnq!19sChIJi6NxEit1_UYR6-_ftxg6tCY?authuser=0&hl=en&rclk=1
54.383548,18.604564,hotel,Focus Hotel Premium Gdask,https://www.google.com/maps/place/Focus+Hotel+Premium+Gda%C5%84sk/data=!4m10!3m9!1s0x46fd74c06c29159d:0xf249873b374e3df0!5m2!4m1!1i2!8m2!3d54.383548!4d18.604564!16s%2Fg%2F11cncnddcb!19sChIJnRUpbMB0_UYR8D1ONzuHSfI?authuser=0&hl=en&rclk=1
54.3512767,18.6494195,hotel,Hotel Wolne Miasto,https://www.google.com/maps/place/Hotel+Wolne+Miasto/data=!4m10!3m9!1s0x46fd739e2d9d3a67:0x79c7e2b56961a7f9!5m2!4m1!1i2!8m2!3d54.3512767!4d18.6494195!16s%2Fg%2F11b88kpspy!19sChIJZzqdLZ5z_UYR-adhabXix3k?authuser=0&hl=en&rclk=1
54.3436117,18.6553233,hotel,Hotel nr 1,https://www.google.com/maps/place/Hotel+nr+1/data=!4m7!3m6!1s0x46fd73dc4fb00b3f:0x4eaf7bfd2ca70c49!8m2!3d54.3436117!4d18.6553233!16s%2Fg%2F11h5mcfbhc!19sChIJPwuwT9xz_UYRSQynLP17r04?authuser=0&hl=en&rclk=1
54.3817305,18.595169,hotel,Smart Hotel,https://www.google.com/maps/place/Smart+Hotel/data=!4m10!3m9!1s0x46fd74e98c857f5d:0x133918e56ebd6948!5m2!4m1!1i2!8m2!3d54.3817305!4d18.595169!16s%2Fg%2F11bws7nlf0!19sChIJXX-FjOl0_UYRSGm9buUYORM?authuser=0&hl=en&rclk=1
54.3491037,18.6606589,hotel,Hotel Gdask Boutique,https://www.google.com/maps/place/Hotel+Gda%C5%84sk+Boutique/data=!4m10!3m9!1s0x46fd73a0bbe780c7:0x55b036465e9c7dcc!5m2!4m1!1i2!8m2!3d54.3491037!4d18.6606589!16s%2Fg%2F11c5szcx3b!19sChIJx4Dnu6Bz_UYRzH2cXkY2sFU?authuser=0&hl=en&rclk=1
54.356323,18.646624,hotel,Scandic,https://www.google.com/maps/place/Scandic/data=!4m10!3m9!1s0x46fd7376eb623879:0x7b38711ca28b10e0!5m2!4m1!1i2!8m2!3d54.356323!4d18.646624!16s%2Fg%2F1220fqcj!19sChIJeThi63Zz_UYR4BCLohxxOHs?authuser=0&hl=en&rclk=1
54.3520451,18.6508454,hotel,V氓rt hotel i gdansk,https://www.google.com/maps/place/V%C3%A5rt+hotel+i+gdansk/data=!4m7!3m6!1s0x46fd73d39dcd61f9:0xb3f5c512659b0c62!8m2!3d54.3520451!4d18.6508454!16s%2Fg%2F11h1rj9q26!19sChIJ-WHNndNz_UYRYgybZRLF9bM?authuser=0&hl=en&rclk=1
54.454757,18.5496497,hotel,Hotel Sopot Sp贸ka Z Ograniczon Odpowiedzialnoci Sp贸ka Komandytowa,https://www.google.com/maps/place/Hotel+Sopot+Sp%C3%B3%C5%82ka+Z+Ograniczon%C4%85+Odpowiedzialno%C5%9Bci%C4%85+Sp%C3%B3%C5%82ka+Komandytowa/data=!4m7!3m6!1s0x46fd0a81c55f19a9:0x6f0c75b3b0c315b1!8m2!3d54.454757!4d18.5496497!16s%2Fg%2F11hzwb7vhd!19sChIJqRlfxYEK_UYRsRXDsLN1DG8?authuser=0&hl=en&rclk=1
54.458076,18.5514319,hotel,Sopot Holiday Rooms,https://www.google.com/maps/place/Sopot+Holiday+Rooms/data=!4m10!3m9!1s0x46fda07ffe8a5ef7:0xe14d6a6c29f484b8!5m2!4m1!1i2!8m2!3d54.458076!4d18.5514319!16s%2Fg%2F11flvw4x2h!19sChIJ916K_n-g_UYRuIT0KWxqTeE?authuser=0&hl=en&rclk=1
54.460527,18.5561033,hotel,Hotel Miramar,https://www.google.com/maps/place/Hotel+Miramar/data=!4m10!3m9!1s0x46fd0a7f752196e3:0x976f97646354a355!5m2!4m1!1i2!8m2!3d54.460527!4d18.5561033!16s%2Fg%2F1tqf_08m!19sChIJ45YhdX8K_UYRVaNUY2SXb5c?authuser=0&hl=en&rclk=1
54.4591234,18.5562138,hotel,Hotel Aqua Sopot Family & Friends,https://www.google.com/maps/place/Hotel+Aqua+Sopot+Family+%26+Friends/data=!4m10!3m9!1s0x46fd0a7fb6528bc3:0x61b870f0075b0f92!5m2!4m1!1i2!8m2!3d54.4591234!4d18.5562138!16s%2Fg%2F12mjygwlq!19sChIJw4tStn8K_UYRkg9bB_BwuGE?authuser=0&hl=en&rclk=1
54.4473794,18.5681926,hotel,Sofitel Grand Sopot,https://www.google.com/maps/place/Sofitel+Grand+Sopot/data=!4m10!3m9!1s0x46fd0a8ef15d22cd:0x96eb528bc5f1e9b7!5m2!4m1!1i2!8m2!3d54.4473794!4d18.5681926!16s%2Fm%2F02x4j83!19sChIJzSJd8Y4K_UYRt-nxxYtS65Y?authuser=0&hl=en&rclk=1
54.3437927,18.8316123,hotel,Hotel Bartan Gdask Seaside,https://www.google.com/maps/place/Hotel+Bartan+Gda%C5%84sk+Seaside/data=!4m10!3m9!1s0x46fd6ce05c442185:0x18f5d40bd326e76d!5m2!4m1!1i2!8m2!3d54.3437927!4d18.8316123!16s%2Fg%2F12cpb6xkx!19sChIJhSFEXOBs_UYRbecm0wvU9Rg?authuser=0&hl=en&rclk=1
54.4436674,18.4430878,hotel,Pokoje Gocinne,https://www.google.com/maps/place/Pokoje+Go%C5%9Bcinne/data=!4m7!3m6!1s0x46fda1c37ba3f78f:0x5bf9c5d36185fc93!8m2!3d54.4436674!4d18.4430878!16s%2Fg%2F11fxf0m3zk!19sChIJj_eje8Oh_UYRk_yFYdPF-Vs?authuser=0&hl=en&rclk=1
54.4408527,18.4564671,hotel,Pokoje Noclegi,https://www.google.com/maps/place/Pokoje+Noclegi/data=!4m7!3m6!1s0x46fda1ce47427605:0xe2ac8f48a0e79520!8m2!3d54.4408527!4d18.4564671!16s%2Fg%2F11q84pwxx5!19sChIJBXZCR86h_UYRIJXnoEiPrOI?authuser=0&hl=en&rclk=1
54.3898144,18.4740083,hotel,Hi Hotel,https://www.google.com/maps/place/Hi+Hotel/data=!4m10!3m9!1s0x46fd9f72d6f69657:0x10fa9cbcd84347f7!5m2!4m1!1i2!8m2!3d54.3898144!4d18.4740083!16s%2Fg%2F11j5fztm8q!19sChIJV5b21nKf_UYR90dD2Lyc-hA?authuser=0&hl=en&rclk=1
54.440804,18.5595429,hotel,Villa Ozone,https://www.google.com/maps/place/Villa+Ozone/data=!4m10!3m9!1s0x46fd0b1c66bd92f3:0x7c0a667e28a72406!5m2!4m1!1i2!8m2!3d54.440804!4d18.5595429!16s%2Fg%2F11g0jc0kq_!19sChIJ85K9ZhwL_UYRBiSnKH5mCnw?authuser=0&hl=en&rclk=1
54.46917,18.501556,hotel,Baltic Hotel,https://www.google.com/maps/place/Baltic+Hotel/data=!4m10!3m9!1s0x46fda0f9005fa377:0x9bce928abb5829b1!5m2!4m1!1i2!8m2!3d54.46917!4d18.501556!16s%2Fg%2F11b6xys5vz!19sChIJd6NfAPmg_UYRsSlYu4qSzps?authuser=0&hl=en&rclk=1
54.4439582,18.5473752,hotel,Hotel Opera,https://www.google.com/maps/place/Hotel+Opera/data=!4m10!3m9!1s0x46fd0a9c4f88ccdd:0x7f93a4d42ca82673!5m2!4m1!1i2!8m2!3d54.4439582!4d18.5473752!16s%2Fg%2F1tg804t0!19sChIJ3cyIT5wK_UYRcyaoLNSkk38?authuser=0&hl=en&rclk=1
54.44287,18.572462,hotel,Hotel Eden w Sopocie,https://www.google.com/maps/place/Hotel+Eden+w+Sopocie/data=!4m10!3m9!1s0x46fd0a92880aab29:0x1170e549c8fcded5!5m2!4m1!1i2!8m2!3d54.44287!4d18.572462!16s%2Fg%2F11h1ssyvk!19sChIJKasKiJIK_UYR1d78yEnlcBE?authuser=0&hl=en&rclk=1
54.443034,18.569923,hotel,Dom & House - Apartments Zacisze,https://www.google.com/maps/place/Dom+%26+House+-+Apartments+Zacisze/data=!4m10!3m9!1s0x46fd0a9213a74507:0x6ec04c138c38f56f!5m2!4m1!1i2!8m2!3d54.443034!4d18.569923!16s%2Fg%2F11s_ytk_dw!19sChIJB0WnE5IK_UYRb_U4jBNMwG4?authuser=0&hl=en&rclk=1
54.4456222,18.5681389,hotel,Bayjonn Hotel Sopot,https://www.google.com/maps/place/Bayjonn+Hotel+Sopot/data=!4m10!3m9!1s0x46fd0a8e14bce26f:0x9da1b47b5d485504!5m2!4m1!1i2!8m2!3d54.4456222!4d18.5681389!16s%2Fg%2F1tgdgpd7!19sChIJb-K8FI4K_UYRBFVIXXu0oZ0?authuser=0&hl=en&rclk=1
54.4433333,18.5733333,hotel,"Zhong Hua, Hotel Chiski","https://www.google.com/maps/place/Zhong+Hua,+Hotel+Chi%C5%84ski/data=!4m10!3m9!1s0x46fd0a928192670d:0x3f859708b61f71c4!5m2!4m1!1i2!8m2!3d54.4433333!4d18.5733333!16s%2Fg%2F1thkqcxj!19sChIJDWeSgZIK_UYRxHEftgiXhT8?authuser=0&hl=en&rclk=1"
54.4334073,18.579679,hotel,"Radisson Blu Hotel, Sopot","https://www.google.com/maps/place/Radisson+Blu+Hotel,+Sopot/data=!4m10!3m9!1s0x46fd0b16f6185511:0x57deefc336378255!5m2!4m1!1i2!8m2!3d54.4334073!4d18.579679!16s%2Fg%2F11j7z13jm7!19sChIJEVUY9hYL_UYRVYI3NsPv3lc?authuser=0&hl=en&rclk=1"
54.4336634,18.5835636,hotel,Sopot Marriott Resort & Spa,https://www.google.com/maps/place/Sopot+Marriott+Resort+%26+Spa/data=!4m10!3m9!1s0x46fd0ae8fcf642c7:0x6b6eb8303e1c8da9!5m2!4m1!1i2!8m2!3d54.4336634!4d18.5835636!16s%2Fg%2F1xgz9h1t!19sChIJx0L2_OgK_UYRqY0cPjC4bms?authuser=0&hl=en&rclk=1
54.4287746,18.5902129,hotel,Novotel Gdansk Marina,https://www.google.com/maps/place/Novotel+Gdansk+Marina/data=!4m10!3m9!1s0x46fd0add8ff9f85f:0xeaa9f6b7e06f7f8d!5m2!4m1!1i2!8m2!3d54.4287746!4d18.5902129!16s%2Fg%2F1wyc306_!19sChIJX_j5j90K_UYRjX9v4Lf2qeo?authuser=0&hl=en&rclk=1
54.41,18.6338889,hotel,Hotel Lival,https://www.google.com/maps/place/Hotel+Lival/data=!4m10!3m9!1s0x46fd0b4f4b2c93f3:0xc9144a08f9be2cb8!5m2!4m1!1i2!8m2!3d54.41!4d18.6338889!16s%2Fg%2F1vxvgkcg!19sChIJ85MsS08L_UYRuCy--QhKFMk?authuser=0&hl=en&rclk=1
54.4186722,18.5839576,hotel,hotel,https://www.google.com/maps/place/hotel/data=!4m7!3m6!1s0x46fd0b29a1a14b9f:0x723990dce8c0c12c!8m2!3d54.4186722!4d18.5839576!16s%2Fg%2F11t7cm9388!19sChIJn0uhoSkL_UYRLMHA6NyQOXI?authuser=0&hl=en&rclk=1
54.4079691,18.6378157,hotel,Hotel Dom Zdrojowy,https://www.google.com/maps/place/Hotel+Dom+Zdrojowy/data=!4m10!3m9!1s0x46fd0b17c9e02697:0x52da87f49524c3cc!5m2!4m1!1i2!8m2!3d54.4079691!4d18.6378157!16s%2Fg%2F11rn7h14s2!19sChIJlybgyRcL_UYRzMMklfSH2lI?authuser=0&hl=en&rclk=1
54.3930182,18.4740939,hotel,Sleep Inn Noclegi -Rooms-K芯屑薪邪,https://www.google.com/maps/place/Sleep+Inn+Noclegi+-Rooms-K%D0%BE%D0%BC%D0%BD%D0%B0%D1%82%D1%8B/data=!4m10!3m9!1s0x46fd9fc7dd44808d:0x1ad279a6e7fd335b!5m2!4m1!1i2!8m2!3d54.3930182!4d18.4740939!16s%2Fg%2F11bzs08l45!19sChIJjYBE3cef_UYRWzP956Z50ho?authuser=0&hl=en&rclk=1
54.437118,18.46477,hotel,Malinowe Wzg贸rze Gdask,https://www.google.com/maps/place/Malinowe+Wzg%C3%B3rze+Gda%C5%84sk/data=!4m10!3m9!1s0x46fda1e0c358d2a9:0x767c38e3c92e581f!5m2!4m1!1i2!8m2!3d54.437118!4d18.46477!16s%2Fg%2F11s3zpcrvc!19sChIJqdJYw-Ch_UYRH1guyeM4fHY?authuser=0&hl=en&rclk=1
54.4367438,18.5519462,hotel,Hotel LENE IGLO,https://www.google.com/maps/place/Hotel+LE%C5%9ANE+IGLO/data=!4m7!3m6!1s0x46fd0bc43c5098fb:0x71e6f7c0f3e99011!8m2!3d54.4367438!4d18.5519462!16s%2Fg%2F11jmxy8xqc!19sChIJ-5hQPMQL_UYREZDp88D35nE?authuser=0&hl=en&rclk=1
54.4426382,18.5620582,hotel,Hotel Molo,https://www.google.com/maps/place/Hotel+Molo/data=!4m10!3m9!1s0x46fd0a90f15275a7:0x25520cff5f173303!5m2!4m1!1i2!8m2!3d54.4426382!4d18.5620582!16s%2Fg%2F11cn9lqmps!19sChIJp3VS8ZAK_UYRAzMXX_8MUiU?authuser=0&hl=en&rclk=1
54.436035,18.580527,hotel,Hotel Bursztyn,https://www.google.com/maps/place/Hotel+Bursztyn/data=!4m10!3m9!1s0x46fd0aebfce43539:0xea8310a93821579a!5m2!4m1!1i2!8m2!3d54.436035!4d18.580527!16s%2Fg%2F1tks5049!19sChIJOTXk_OsK_UYRmlchOKkQg-o?authuser=0&hl=en&rclk=1
54.410164,18.549655,hotel,Dom Oliwski,https://www.google.com/maps/place/Dom+Oliwski/data=!4m10!3m9!1s0x46fd754a542a2da3:0x47c50ea1119cb1cf!5m2!4m1!1i2!8m2!3d54.410164!4d18.549655!16s%2Fg%2F1tdpdwxn!19sChIJoy0qVEp1_UYRz7GcEaEOxUc?authuser=0&hl=en&rclk=1
54.4226964,18.5972053,hotel,Hotel Mercure Gdansk Posejdon,https://www.google.com/maps/place/Hotel+Mercure+Gdansk+Posejdon/data=!4m10!3m9!1s0x46fd0adf4d14ce9d:0x9479dbdce0b31639!5m2!4m1!1i2!8m2!3d54.4226964!4d18.5972053!16s%2Fg%2F1tj29q0s!19sChIJnc4UTd8K_UYRORaz4NzbeZQ?authuser=0&hl=en&rclk=1
54.443005,18.557474,hotel,Focus Hotel Premium,https://www.google.com/maps/place/Focus+Hotel+Premium/data=!4m10!3m9!1s0x46fd0a9a623907ab:0x27929d01c90e8eb9!5m2!4m1!1i2!8m2!3d54.443005!4d18.557474!16s%2Fg%2F11gh6btd3s!19sChIJqwc5YpoK_UYRuY4OyQGdkic?authuser=0&hl=en&rclk=1
54.434166,18.560104,hotel,B&B Molo,https://www.google.com/maps/place/B%26B+Molo/data=!4m10!3m9!1s0x46fd0abdf61a1509:0x6f4248d5c55b88d1!5m2!4m1!1i2!8m2!3d54.434166!4d18.560104!16s%2Fg%2F11g6qsb7b0!19sChIJCRUa9r0K_UYR0YhbxdVIQm8?authuser=0&hl=en&rclk=1
54.438318,18.575331,hotel,Dom & House - Apartamenty Sunrise,https://www.google.com/maps/place/Dom+%26+House+-+Apartamenty+Sunrise/data=!4m10!3m9!1s0x46fd0aecbc895541:0xaf679747161165a3!5m2!4m1!1i2!8m2!3d54.438318!4d18.575331!16s%2Fg%2F12hvfw4f1!19sChIJQVWJvOwK_UYRo2URFkeXZ68?authuser=0&hl=en&rclk=1
54.432571,18.585501,hotel,Yacht Club Residence Sopot,https://www.google.com/maps/place/Yacht+Club+Residence+Sopot/data=!4m10!3m9!1s0x46fd0ae866c0f4d1:0x9901c86904edb344!5m2!4m1!1i2!8m2!3d54.432571!4d18.585501!16s%2Fg%2F11g8bwn_1q!19sChIJ0fTAZugK_UYRRLPtBGnIAZk?authuser=0&hl=en&rclk=1
54.420911,18.6017279,hotel,Prawdzic Resort & Conference,https://www.google.com/maps/place/Prawdzic+Resort+%26+Conference/data=!4m10!3m9!1s0x46fd0b26ded63d87:0xd0d872cb43ce4ee0!5m2!4m1!1i2!8m2!3d54.420911!4d18.6017279!16s%2Fg%2F1tj6sj9c!19sChIJhz3W3iYL_UYR4E7OQ8ty2NA?authuser=0&hl=en&rclk=1
54.4200775,18.6005977,hotel,Golden Tulip Gdask Residence,https://www.google.com/maps/place/Golden+Tulip+Gda%C5%84sk+Residence/data=!4m7!3m6!1s0x46fd0b24376fffff:0x297df13f3c5edf77!8m2!3d54.4200775!4d18.6005977!16s%2Fg%2F11b5qsxy21!19sChIJ__9vNyQL_UYRd99ePD_xfSk?authuser=0&hl=en&rclk=1
54.406253,18.576346,hotel,Hotel Arkon Park Business & Sport,https://www.google.com/maps/place/Hotel+Arkon+Park+Business+%26+Sport/data=!4m10!3m9!1s0x46fd752c8865821b:0x26b43a18b7dfefeb!5m2!4m1!1i2!8m2!3d54.406253!4d18.576346!16s%2Fg%2F1tk89tnq!19sChIJG4JliCx1_UYR6-_ftxg6tCY?authuser=0&hl=en&rclk=1
54.3676591,18.7766983,hotel,Centrum Galion,https://www.google.com/maps/place/Centrum+Galion/data=!4m10!3m9!1s0x46fd6d57983a2ba5:0x51f0e02962ae3b42!5m2!4m1!1i2!8m2!3d54.3676591!4d18.7766983!16s%2Fg%2F1tdw24yj!19sChIJpSs6mFdt_UYRQjuuYing8FE?authuser=0&hl=en&rclk=1
54.3828716,18.469102,hotel,Hampton by Hilton Gdansk Airport,https://www.google.com/maps/place/Hampton+by+Hilton+Gdansk+Airport/data=!4m10!3m9!1s0x46fd9fcd17b71d81:0xe34dc11c0ab92283!5m2!4m1!1i2!8m2!3d54.3828716!4d18.469102!16s%2Fg%2F12m9h4ckb!19sChIJgR23F82f_UYRgyK5ChzBTeM?authuser=0&hl=en&rclk=1
54.3666532,18.4890243,hotel,SleepPort,https://www.google.com/maps/place/SleepPort/data=!4m7!3m6!1s0x46fd756d45fc9567:0xcd7fd9b0054fe887!8m2!3d54.3666532!4d18.4890243!16s%2Fg%2F11g2_dfv1p!19sChIJZ5X8RW11_UYRh-hPBbDZf80?authuser=0&hl=en&rclk=1
54.4114865,18.5675638,hotel,Hotel Oliwski w Gdasku,https://www.google.com/maps/place/Hotel+Oliwski+w+Gda%C5%84sku/data=!4m10!3m9!1s0x46fd0accde8b5d13:0x256f91055a08186f!5m2!4m1!1i2!8m2!3d54.4114865!4d18.5675638!16s%2Fg%2F1thnmgp_!19sChIJE12L3swK_UYRbxgIWgWRbyU?authuser=0&hl=en&rclk=1
54.4096803,18.5682596,hotel,Hampton by Hilton Gdansk Oliwa,https://www.google.com/maps/place/Hampton+by+Hilton+Gdansk+Oliwa/data=!4m10!3m9!1s0x46fd7532c8c71c95:0x44658f92a7829929!5m2!4m1!1i2!8m2!3d54.4096803!4d18.5682596!16s%2Fg%2F11f03y0z7h!19sChIJlRzHyDJ1_UYRKZmCp5KPZUQ?authuser=0&hl=en&rclk=1
54.412663,18.5853499,hotel,Hostel PrzyMorze,https://www.google.com/maps/place/Hostel+PrzyMorze/data=!4m10!3m9!1s0x470289f215d80745:0x9aa0b64add02b3af!5m2!4m1!1i2!8m2!3d54.412663!4d18.5853499!16s%2Fg%2F11gj7gcqwp!19sChIJRQfYFfKJAkcRr7MC3Uq2oJo?authuser=0&hl=en&rclk=1
54.420911,18.601728,hotel,Prawdzic Resort & Conference,https://www.google.com/maps/place/Prawdzic+Resort+%26+Conference/data=!4m10!3m9!1s0x46fd0b26d93bcffd:0xd0d872cb43ce4ee0!5m2!4m1!1i2!8m2!3d54.420911!4d18.601728!16s%2Fg%2F1tj6sj9c!19sChIJ_c872SYL_UYR4E7OQ8ty2NA?authuser=0&hl=en&rclk=1
54.408372,18.631514,hotel,Villa Ramzes,https://www.google.com/maps/place/Villa+Ramzes/data=!4m10!3m9!1s0x46fd0b4928a418d3:0x41fd9aba3b25b67!5m2!4m1!1i2!8m2!3d54.408372!4d18.631514!16s%2Fg%2F1wn_4t3g!19sChIJ0xikKEkL_UYRZ1uyo6vZHwQ?authuser=0&hl=en&rclk=1
54.4083214,18.6363002,hotel,Amber House,https://www.google.com/maps/place/Amber+House/data=!4m10!3m9!1s0x46fd0b4f01295dcf:0xc88b689882b70a83!5m2!4m1!1i2!8m2!3d54.4083214!4d18.6363002!16s%2Fg%2F11y3sp20g!19sChIJz10pAU8L_UYRgwq3gphoi8g?authuser=0&hl=en&rclk=1
54.3795753,18.4857263,hotel,Hotel Faros,https://www.google.com/maps/place/Hotel+Faros/data=!4m10!3m9!1s0x46fd9fd36a22373b:0xa32efdf038885229!5m2!4m1!1i2!8m2!3d54.3795753!4d18.4857263!16s%2Fg%2F11cjrf4f05!19sChIJOzciatOf_UYRKVKIOPD9LqM?authuser=0&hl=en&rclk=1
54.3611803,18.388874,hotel,Galeria Ppowo,https://www.google.com/maps/place/Galeria+P%C4%99powo/data=!4m10!3m9!1s0x46fd9e9edff1f873:0xfc3f11a0931011c1!5m2!4m1!1i2!8m2!3d54.3611803!4d18.388874!16s%2Fg%2F1tj2gl3k!19sChIJc_jx356e_UYRwREQk6ARP_w?authuser=0&hl=en&rclk=1
54.391298,18.4838197,hotel,Villa Mile Gdask lotnisko,https://www.google.com/maps/place/Villa+Mile+Gda%C5%84sk+lotnisko/data=!4m10!3m9!1s0x46fd9ff4a27d7bdf:0x833440c2e777f0b1!5m2!4m1!1i2!8m2!3d54.391298!4d18.4838197!16s%2Fg%2F11k2y185k0!19sChIJ33t9ovSf_UYRsfB358JANIM?authuser=0&hl=en&rclk=1
54.3941176,18.5694242,hotel,majutus,https://www.google.com/maps/place/majutus/data=!4m7!3m6!1s0x46fd7526a163f535:0x8af85900433b51f7!8m2!3d54.3941176!4d18.5694242!16s%2Fg%2F11fy4m9sv4!19sChIJNfVjoSZ1_UYR91E7QwBZ-Io?authuser=0&hl=en&rclk=1
54.4007848,18.5714934,hotel,Hotel Olivia,https://www.google.com/maps/place/Hotel+Olivia/data=!4m10!3m9!1s0x46fd752e7edd1f35:0x8b582e1b50a83c10!5m2!4m1!1i2!8m2!3d54.4007848!4d18.5714934!16s%2Fg%2F1tdd3zb2!19sChIJNR_dfi51_UYREDyoUBsuWIs?authuser=0&hl=en&rclk=1
54.400785,18.571493,hotel,Hotel Olivia,https://www.google.com/maps/place/Hotel+Olivia/data=!4m10!3m9!1s0x46fd752f220d24b9:0x8b582e1b50a83c10!5m2!4m1!1i2!8m2!3d54.400785!4d18.571493!16s%2Fg%2F1tdd3zb2!19sChIJuSQNIi91_UYREDyoUBsuWIs?authuser=0&hl=en&rclk=1
54.379231,18.603801,hotel,Hotel Szydowski,https://www.google.com/maps/place/Hotel+Szyd%C5%82owski/data=!4m10!3m9!1s0x46fd74952853de9f:0x3b9ae18e68bbc0a6!5m2!4m1!1i2!8m2!3d54.379231!4d18.603801!16s%2Fg%2F1vl5fgqy!19sChIJn95TKJV0_UYRpsC7aI7hmjs?authuser=0&hl=en&rclk=1
54.4005314,18.6031064,hotel,Hostel Rakieta,https://www.google.com/maps/place/Hostel+Rakieta/data=!4m10!3m9!1s0x46fd74cdb8c7f4ef:0xc32ddb9a6ba8d8b4!5m2!4m1!1i2!8m2!3d54.4005314!4d18.6031064!16s%2Fg%2F11b6j7qfpf!19sChIJ7_THuM10_UYRtNioa5rbLcM?authuser=0&hl=en&rclk=1
54.409468,18.635237,hotel,Lido Beach House,https://www.google.com/maps/place/Lido+Beach+House/data=!4m10!3m9!1s0x46fd0b4f3f638499:0xf9619aa77db6cc9f!5m2!4m1!1i2!8m2!3d54.409468!4d18.635237!16s%2Fg%2F1tg33xpr!19sChIJmYRjP08L_UYRn8y2faeaYfk?authuser=0&hl=en&rclk=1
54.3652239,18.6323354,hotel,Hotel Impresja,https://www.google.com/maps/place/Hotel+Impresja/data=!4m10!3m9!1s0x46fd737d24288139:0x82386cf9ca68ee08!5m2!4m1!1i2!8m2!3d54.3652239!4d18.6323354!16s%2Fg%2F1td4htll!19sChIJOYEoJH1z_UYRCO5oyvlsOII?authuser=0&hl=en&rclk=1
54.3459556,18.8748138,hotel,Hotel Orle Centrum Konferencyjne,https://www.google.com/maps/place/Hotel+Orle+Centrum+Konferencyjne/data=!4m10!3m9!1s0x46fd6cbb6897f9b1:0x308253d154944cdb!5m2!4m1!1i2!8m2!3d54.3459556!4d18.8748138!16s%2Fg%2F1tnpd3lv!19sChIJsfmXaLts_UYR20yUVNFTgjA?authuser=0&hl=en&rclk=1
54.3474492,18.8140367,hotel,Hotel Renusz,https://www.google.com/maps/place/Hotel+Renusz/data=!4m10!3m9!1s0x46fd6d180dffefe3:0x40512457234b002b!5m2!4m1!1i2!8m2!3d54.3474492!4d18.8140367!16s%2Fg%2F1tfl8brf!19sChIJ4-__DRht_UYRKwBLI1ckUUA?authuser=0&hl=en&rclk=1
54.411486,18.567564,hotel,Hotel Oliwski w Gdasku,https://www.google.com/maps/place/Hotel+Oliwski+w+Gda%C5%84sku/data=!4m10!3m9!1s0x46fd0accdedc378d:0x256f91055a08186f!5m2!4m1!1i2!8m2!3d54.411486!4d18.567564!16s%2Fg%2F1thnmgp_!19sChIJjTfc3swK_UYRbxgIWgWRbyU?authuser=0&hl=en&rclk=1
54.3883209,18.5740681,hotel,Gdaska Szkoa Floretu,https://www.google.com/maps/place/Gda%C5%84ska+Szko%C5%82a+Floretu/data=!4m10!3m9!1s0x46fd74dfe8a33bf7:0x685f01f9b44bf6e6!5m2!4m1!1i2!8m2!3d54.3883209!4d18.5740681!16s%2Fg%2F113gnny43!19sChIJ9zuj6N90_UYR5vZLtPkBX2g?authuser=0&hl=en&rclk=1
54.365224,18.632335,hotel,Hotel Impresja,https://www.google.com/maps/place/Hotel+Impresja/data=!4m10!3m9!1s0x46fd737d25bcfc0d:0x82386cf9ca68ee08!5m2!4m1!1i2!8m2!3d54.365224!4d18.632335!16s%2Fg%2F1td4htll!19sChIJDfy8JX1z_UYRCO5oyvlsOII?authuser=0&hl=en&rclk=1
54.4015783,18.5935852,hotel,Noclegi,https://www.google.com/maps/place/Noclegi/data=!4m7!3m6!1s0x46fd74d3ee98db37:0x9b0ab0ab1c4b752c!8m2!3d54.4015783!4d18.5935852!16s%2Fg%2F11c6qbrylh!19sChIJN9uY7tN0_UYRLHVLHKuwCps?authuser=0&hl=en&rclk=1
54.3844246,18.614198,hotel,Hotel - Dom Tancerza w Gdasku,https://www.google.com/maps/place/Hotel+-+Dom+Tancerza+w+Gda%C5%84sku/data=!4m10!3m9!1s0x46fd74be97ca3d8d:0x8231171314b4a505!5m2!4m1!1i2!8m2!3d54.3844246!4d18.614198!16s%2Fg%2F1td0lq8y!19sChIJjT3Kl750_UYRBaW0FBMXMYI?authuser=0&hl=en&rclk=1
54.3859316,18.6468941,hotel,Hotel Arena Expo,https://www.google.com/maps/place/Hotel+Arena+Expo/data=!4m10!3m9!1s0x46fd73583c12ef63:0x64fc95da33fc4274!5m2!4m1!1i2!8m2!3d54.3859316!4d18.6468941!16s%2Fg%2F119wx2xdy!19sChIJY-8SPFhz_UYRdEL8M9qV_GQ?authuser=0&hl=en&rclk=1
54.382872,18.469102,hotel,Hampton by Hilton Gdansk Airport,https://www.google.com/maps/place/Hampton+by+Hilton+Gdansk+Airport/data=!4m10!3m9!1s0x46fd9fcb0e73f0bf:0xe34dc11c0ab92283!5m2!4m1!1i2!8m2!3d54.382872!4d18.469102!16s%2Fg%2F12m9h4ckb!19sChIJv_BzDsuf_UYRgyK5ChzBTeM?authuser=0&hl=en&rclk=1
54.353626,18.495107,hotel,Walewscy Dworek i Restauracja,https://www.google.com/maps/place/Walewscy+Dworek+i+Restauracja/data=!4m10!3m9!1s0x46fd75f2ac6db18f:0xf9b8b0ad5d2f9d01!5m2!4m1!1i2!8m2!3d54.353626!4d18.495107!16s%2Fg%2F1tcwk7ww!19sChIJj7FtrPJ1_UYRAZ0vXa2wuPk?authuser=0&hl=en&rclk=1
54.37956,18.5059762,hotel,HOSTEL LOTNISKOWY 2,https://www.google.com/maps/place/HOSTEL+LOTNISKOWY+2/data=!4m10!3m9!1s0x46fd75eb819c1acf:0x85a83f909a66a894!5m2!4m1!1i2!8m2!3d54.37956!4d18.5059762!16s%2Fg%2F11h_kgb36h!19sChIJzxqcget1_UYRlKhmmpA_qIU?authuser=0&hl=en&rclk=1
54.3912589,18.5698011,hotel,Brak,https://www.google.com/maps/place/Brak/data=!4m10!3m9!1s0x46fd752115b51d2f:0x2fb57afe2469c12b!5m2!4m1!1i2!8m2!3d54.3912589!4d18.5698011!16s%2Fg%2F1tfjjty_!19sChIJLx21FSF1_UYRK8FpJP56tS8?authuser=0&hl=en&rclk=1
54.3808734,18.5959297,hotel,B&B Tomula,https://www.google.com/maps/place/B%26B+Tomula/data=!4m10!3m9!1s0x46fd74ea30255557:0xbd529447c864f261!5m2!4m1!1i2!8m2!3d54.3808734!4d18.5959297!16s%2Fg%2F11dxqjy7_f!19sChIJV1UlMOp0_UYRYfJkyEeUUr0?authuser=0&hl=en&rclk=1
54.380472,18.585536,hotel,Apartament przy Starym Mane偶u,https://www.google.com/maps/place/Apartament+przy+Starym+Mane%C5%BCu/data=!4m7!3m6!1s0x46fd74e61f3eceb9:0x412c8401bdcad140!8m2!3d54.380472!4d18.585536!16s%2Fg%2F11g8bwn5zj!19sChIJuc4-H-Z0_UYRQNHKvQGELEE?authuser=0&hl=en&rclk=1
54.374869,18.60447,hotel,Events & Hotel,https://www.google.com/maps/place/Events+%26+Hotel/data=!4m7!3m6!1s0x46fd74939fb0dc47:0xce26be64d65b5c1c!8m2!3d54.374869!4d18.60447!16s%2Fg%2F11h7zf3kr6!19sChIJR9ywn5N0_UYRHFxb1mS-Js4?authuser=0&hl=en&rclk=1
54.379231,18.6038009,hotel,Hotel Szydowski,https://www.google.com/maps/place/Hotel+Szyd%C5%82owski/data=!4m10!3m9!1s0x46fd70539143bd0d:0x3b9ae18e68bbc0a6!5m2!4m1!1i2!8m2!3d54.379231!4d18.6038009!16s%2Fg%2F1vl5fgqy!19sChIJDb1DkVNw_UYRpsC7aI7hmjs?authuser=0&hl=en&rclk=1
54.3770017,18.6119292,hotel,Hotel Martex,https://www.google.com/maps/place/Hotel+Martex/data=!4m7!3m6!1s0x46fd749691f59d0f:0x993ede766a799807!8m2!3d54.3770017!4d18.6119292!16s%2Fg%2F11fp1t2lmk!19sChIJD531kZZ0_UYRB5h5anbePpk?authuser=0&hl=en&rclk=1
54.356097,18.617762,hotel,Hotel Beethoven,https://www.google.com/maps/place/Hotel+Beethoven/data=!4m10!3m9!1s0x46fd747fccd983bf:0x7e012bd48acd178b!5m2!4m1!1i2!8m2!3d54.356097!4d18.617762!16s%2Fg%2F1td_9cld!19sChIJv4PZzH90_UYRixfNitQrAX4?authuser=0&hl=en&rclk=1
54.3753,18.61945,hotel,Hotel Spa Faltom,https://www.google.com/maps/place/Hotel+Spa+Faltom/data=!4m7!3m6!1s0x46fd7499c2459c3f:0xfcb3f05725fb9ccb!8m2!3d54.3753!4d18.61945!16s%2Fg%2F11h0vqc3vy!19sChIJP5xFwpl0_UYRy5z7JVfws_w?authuser=0&hl=en&rclk=1
54.3760583,18.6269664,hotel,Nadmorskie Noclegi,https://www.google.com/maps/place/Nadmorskie+Noclegi/data=!4m10!3m9!1s0x46fd7498d20e6cf1:0x33798f9eba97d6e3!5m2!4m1!1i2!8m2!3d54.3760583!4d18.6269664!16s%2Fg%2F11fy574lq4!19sChIJ8WwO0ph0_UYR49aXup6PeTM?authuser=0&hl=en&rclk=1
54.3786409,18.6352914,hotel,Hostel pracowniczy,https://www.google.com/maps/place/Hostel+pracowniczy/data=!4m7!3m6!1s0x46fd751879b48a7f:0x5af7170bce64664a!8m2!3d54.3786409!4d18.6352914!16s%2Fg%2F11k1n9_02x!19sChIJf4q0eRh1_UYRSmZkzgsX91o?authuser=0&hl=en&rclk=1
54.3716803,18.5261283,hotel,Apartament Iwo,https://www.google.com/maps/place/Apartament+Iwo/data=!4m7!3m6!1s0x46fd753959ecf253:0x95aa96a88496d2f3!8m2!3d54.3716803!4d18.5261283!16s%2Fg%2F11f9xdr1cr!19sChIJU_LsWTl1_UYR89KWhKiWqpU?authuser=0&hl=en&rclk=1
54.341414,18.5468691,hotel,Hotel Urbi,https://www.google.com/maps/place/Hotel+Urbi/data=!4m10!3m9!1s0x46fd7466aeffffff:0x3c3136c37d548d5a!5m2!4m1!1i2!8m2!3d54.341414!4d18.5468691!16s%2Fg%2F11ggw02b7v!19sChIJ____rmZ0_UYRWo1UfcM2MTw?authuser=0&hl=en&rclk=1
54.3588154,18.6018398,hotel,"Pomorskie Centrum Noclegowe, hotel pracowniczy,","https://www.google.com/maps/place/Pomorskie+Centrum+Noclegowe,+hotel+pracowniczy,/data=!4m7!3m6!1s0x46fd7595a0f2500f:0x637c30aafaeb441d!8m2!3d54.3588154!4d18.6018398!16s%2Fg%2F11j7dnd40_!19sChIJD1DyoJV1_UYRHUTr-qowfGM?authuser=0&hl=en&rclk=1"
54.364714,18.560287,hotel,Villa Gdask,https://www.google.com/maps/place/Villa+Gda%C5%84sk/data=!4m10!3m9!1s0x46fd7455125efc13:0x6e2698d572ee6c02!5m2!4m1!1i2!8m2!3d54.364714!4d18.560287!16s%2Fg%2F1tg9ltyv!19sChIJE_xeElV0_UYRAmzuctWYJm4?authuser=0&hl=en&rclk=1
54.3679474,18.5983414,hotel,Hevelius Residence,https://www.google.com/maps/place/Hevelius+Residence/data=!4m10!3m9!1s0x46fd748cfaa348d7:0xaebb9fe3a17b8352!5m2!4m1!1i2!8m2!3d54.3679474!4d18.5983414!16s%2Fg%2F11b73qhxq2!19sChIJ10ij-ox0_UYRUoN7oeOfu64?authuser=0&hl=en&rclk=1
54.3709269,18.597688,hotel,Villa Dworek Jakowy,https://www.google.com/maps/place/Villa+Dworek+Ja%C5%9Bkowy/data=!4m10!3m9!1s0x46fd748d4e3a3089:0xe08378f47124a73c!5m2!4m1!1i2!8m2!3d54.3709269!4d18.597688!16s%2Fg%2F1tcv4_t2!19sChIJiTA6To10_UYRPKckcfR4g-A?authuser=0&hl=en&rclk=1
54.376894,18.617562,hotel,Hotel Logos Gdask,https://www.google.com/maps/place/Hotel+Logos+Gda%C5%84sk/data=!4m10!3m9!1s0x46fd74979df54065:0x6172be13c5f139dc!5m2!4m1!1i2!8m2!3d54.376894!4d18.617562!16s%2Fg%2F1vppr6p8!19sChIJZUD1nZd0_UYR3DnxxRO-cmE?authuser=0&hl=en&rclk=1
54.3651512,18.632317,hotel,Hotel Imperial,https://www.google.com/maps/place/Hotel+Imperial/data=!4m7!3m6!1s0x46fd73311e0b0d3b:0x3fa8756a9e249c73!8m2!3d54.3651512!4d18.632317!16s%2Fg%2F11fb2h49nr!19sChIJOw0LHjFz_UYRc5wknmp1qD8?authuser=0&hl=en&rclk=1
54.3652386,18.6323575,hotel,谐芯械谢,https://www.google.com/maps/place/%D0%B3%D0%BE%D1%82%D0%B5%D0%BB%D1%8C/data=!4m7!3m6!1s0x46fd7317f03dcf5b:0xe1956e0ca6299c0a!8m2!3d54.3652386!4d18.6323575!16s%2Fg%2F11f5tbqktz!19sChIJW8898Bdz_UYRCpwppgxuleE?authuser=0&hl=en&rclk=1
54.3667925,18.6276243,hotel,Hotel Vesper House,https://www.google.com/maps/place/Hotel+Vesper+House/data=!4m10!3m9!1s0x46fd7520eeba8ef9:0xb23ed2b7a085e662!5m2!4m1!1i2!8m2!3d54.3667925!4d18.6276243!16s%2Fg%2F11mwkcy6r9!19sChIJ-Y667iB1_UYRYuaFoLfSPrI?authuser=0&hl=en&rclk=1
54.376433,18.61161,hotel,Termal,https://www.google.com/maps/place/Termal/data=!4m7!3m6!1s0x46fd7496be3bc645:0xf054d327e3d327f6!8m2!3d54.376433!4d18.61161!16s%2Fg%2F1tmz5mw6!19sChIJRcY7vpZ0_UYR9ifT4yfTVPA?authuser=0&hl=en&rclk=1
54.3768942,18.6175617,hotel,Hotel Logos Gdask,https://www.google.com/maps/place/Hotel+Logos+Gda%C5%84sk/data=!4m10!3m9!1s0x46fd74979df5400b:0x6172be13c5f139dc!5m2!4m1!1i2!8m2!3d54.3768942!4d18.6175617!16s%2Fg%2F1vppr6p8!19sChIJC0D1nZd0_UYR3DnxxRO-cmE?authuser=0&hl=en&rclk=1
54.37675,18.6106999,hotel,Hotel G贸rski,https://www.google.com/maps/place/Hotel+G%C3%B3rski/data=!4m7!3m6!1s0x46fd749699284131:0x5868122bebb68db9!8m2!3d54.37675!4d18.6106999!16s%2Fg%2F11h53vx_j1!19sChIJMUEomZZ0_UYRuY226ysSaFg?authuser=0&hl=en&rclk=1
54.3538035,18.7222653,hotel,Hotel Kaper,https://www.google.com/maps/place/Hotel+Kaper/data=!4m10!3m9!1s0x46fd72ee3370283d:0xab43af248fece61f!5m2!4m1!1i2!8m2!3d54.3538035!4d18.7222653!16s%2Fg%2F11cmzkpgs7!19sChIJPShwM-5y_UYRH-bsjySvQ6s?authuser=0&hl=en&rclk=1
54.343793,18.831612,hotel,Hotel Bartan Gdask Seaside,https://www.google.com/maps/place/Hotel+Bartan+Gda%C5%84sk+Seaside/data=!4m10!3m9!1s0x46fd6ce05e5c20e5:0x18f5d40bd326e76d!5m2!4m1!1i2!8m2!3d54.343793!4d18.831612!16s%2Fg%2F12cpb6xkx!19sChIJ5SBcXuBs_UYRbecm0wvU9Rg?authuser=0&hl=en&rclk=1
54.349504,18.680695,hotel,Focus Hotel Gdask,https://www.google.com/maps/place/Focus+Hotel+Gda%C5%84sk/data=!4m10!3m9!1s0x46fd7300d7265553:0xb40cf90def6c69e1!5m2!4m1!1i2!8m2!3d54.349504!4d18.680695!16s%2Fg%2F1tr7h1yd!19sChIJU1Um1wBz_UYR4Wls7w35DLQ?authuser=0&hl=en&rclk=1
54.323716,18.746861,hotel,HOTEL GNIECKI,https://www.google.com/maps/place/HOTEL+GNIECKI/data=!4m10!3m9!1s0x46fd6d87dccb7a33:0x6a5e6ecdf3e60bb0!5m2!4m1!1i2!8m2!3d54.323716!4d18.746861!16s%2Fg%2F1tzlxnd5!19sChIJM3rL3Idt_UYRsAvm881uXmo?authuser=0&hl=en&rclk=1
54.367659,18.776698,hotel,Centrum Galion,https://www.google.com/maps/place/Centrum+Galion/data=!4m10!3m9!1s0x46fd6d57a566d591:0x51f0e02962ae3b42!5m2!4m1!1i2!8m2!3d54.367659!4d18.776698!16s%2Fg%2F1tdw24yj!19sChIJkdVmpVdt_UYRQjuuYing8FE?authuser=0&hl=en&rclk=1
54.344344,18.586323,hotel,Willa Bliska,https://www.google.com/maps/place/Willa+Bliska/data=!4m10!3m9!1s0x46fd746bfa7606a7:0xf48bfb0458cf9f21!5m2!4m1!1i2!8m2!3d54.344344!4d18.586323!16s%2Fg%2F1hc0rjvlc!19sChIJpwZ2-mt0_UYRIZ_PWAT7i_Q?authuser=0&hl=en&rclk=1
54.356683,18.598569,hotel,Villa Pallas,https://www.google.com/maps/place/Villa+Pallas/data=!4m10!3m9!1s0x46fd7463b72dfe53:0x40affceccd1b7916!5m2!4m1!1i2!8m2!3d54.356683!4d18.598569!16s%2Fg%2F1ts1qy67!19sChIJU_4tt2N0_UYRFnkbzez8r0A?authuser=0&hl=en&rclk=1
54.358044,18.621447,hotel,Amber Hotel Gdask,https://www.google.com/maps/place/Amber+Hotel+Gda%C5%84sk/data=!4m10!3m9!1s0x46fd74803f0a5605:0xb251269d0802dc7e!5m2!4m1!1i2!8m2!3d54.358044!4d18.621447!16s%2Fg%2F1tcv4_t1!19sChIJBVYKP4B0_UYRftwCCJ0mUbI?authuser=0&hl=en&rclk=1
54.3580441,18.6214472,hotel,Amber Hotel Gdask,https://www.google.com/maps/place/Amber+Hotel+Gda%C5%84sk/data=!4m10!3m9!1s0x46fd748015600959:0xb251269d0802dc7e!5m2!4m1!1i2!8m2!3d54.3580441!4d18.6214472!16s%2Fg%2F1tcv4_t1!19sChIJWQlgFYB0_UYRftwCCJ0mUbI?authuser=0&hl=en&rclk=1
54.354324,18.644712,hotel,Craft Beer Central Hotel,https://www.google.com/maps/place/Craft+Beer+Central+Hotel/data=!4m10!3m9!1s0x46fd737646df6a75:0x1139520eddb570a0!5m2!4m1!1i2!8m2!3d54.354324!4d18.644712!16s%2Fg%2F11g6bkp_nf!19sChIJdWrfRnZz_UYRoHC13Q5SORE?authuser=0&hl=en&rclk=1
54.3560525,18.6514179,hotel,Hotel Mercure Gdansk Stare Miasto,https://www.google.com/maps/place/Hotel+Mercure+Gdansk+Stare+Miasto/data=!4m10!3m9!1s0x46fd7309d29867e9:0xf1a994dc5ea00271!5m2!4m1!1i2!8m2!3d54.3560525!4d18.6514179!16s%2Fg%2F121j20kz!19sChIJ6WeY0glz_UYRcQKgXtyUqfE?authuser=0&hl=en&rclk=1
54.3528373,18.656553,hotel,Hotel Admira Sp. z o.o.,https://www.google.com/maps/place/Hotel+Admira%C5%82+Sp.+z+o.o./data=!4m10!3m9!1s0x46fd730ad294855d:0x6b7b8d63aed82f4e!5m2!4m1!1i2!8m2!3d54.3528373!4d18.656553!16s%2Fg%2F1hc25hh89!19sChIJXYWU0gpz_UYRTi_YrmONe2s?authuser=0&hl=en&rclk=1
54.356323,18.646624,hotel,Scandic,https://www.google.com/maps/place/Scandic/data=!4m10!3m9!1s0x46fd7376eb623841:0x7b38711ca28b10e0!5m2!4m1!1i2!8m2!3d54.356323!4d18.646624!16s%2Fg%2F1220fqcj!19sChIJQThi63Zz_UYR4BCLohxxOHs?authuser=0&hl=en&rclk=1
54.3528165,18.7071958,hotel,Noclegi Apro,https://www.google.com/maps/place/Noclegi+Apro/data=!4m10!3m9!1s0x46fd72fab984d78f:0x39feed4b810f2e33!5m2!4m1!1i2!8m2!3d54.3528165!4d18.7071958!16s%2Fg%2F113gv97jn!19sChIJj9eEufpy_UYRMy4PgUvt_jk?authuser=0&hl=en&rclk=1
54.359419,18.719155,hotel,Pok贸j U Lucyny,https://www.google.com/maps/place/Pok%C3%B3j+U+Lucyny/data=!4m10!3m9!1s0x46fd72e919c97d21:0x448f9c770a75b235!5m2!4m1!1i2!8m2!3d54.359419!4d18.719155!16s%2Fg%2F11j08b0yzt!19sChIJIX3JGely_UYRNbJ1Cnecj0Q?authuser=0&hl=en&rclk=1
54.323716,18.746861,hotel,HOTEL GNIECKI,https://www.google.com/maps/place/HOTEL+GNIECKI/data=!4m10!3m9!1s0x46fd6d888ceb8f77:0x6a5e6ecdf3e60bb0!5m2!4m1!1i2!8m2!3d54.323716!4d18.746861!16s%2Fg%2F1tzlxnd5!19sChIJd4_rjIht_UYRsAvm881uXmo?authuser=0&hl=en&rclk=1
54.3192978,18.5010013,hotel,Hotel OTOMIN,https://www.google.com/maps/place/Hotel+OTOMIN/data=!4m10!3m9!1s0x46fd7671d9420739:0x3381a33aaedaf718!5m2!4m1!1i2!8m2!3d54.3192978!4d18.5010013!16s%2Fg%2F1tdqg4wn!19sChIJOQdC2XF2_UYRGPfarjqjgTM?authuser=0&hl=en&rclk=1
54.3388113,18.5617166,hotel,Volter Gdask,https://www.google.com/maps/place/Volter+Gda%C5%84sk/data=!4m10!3m9!1s0x46fd7439720c5c25:0x5f51de97d7f84ae8!5m2!4m1!1i2!8m2!3d54.3388113!4d18.5617166!16s%2Fg%2F11b6hqmsds!19sChIJJVwMcjl0_UYR6Er415feUV8?authuser=0&hl=en&rclk=1
54.343941,18.601528,hotel,Hotel pracowniczy,https://www.google.com/maps/place/Hotel+pracowniczy/data=!4m7!3m6!1s0x46fd74716d219327:0xe8073895bc3a98e0!8m2!3d54.343941!4d18.601528!16s%2Fg%2F1td2flpb!19sChIJJ5MhbXF0_UYR4Jg6vJU4B-g?authuser=0&hl=en&rclk=1
54.350652,18.633977,hotel,So Stay Hotel,https://www.google.com/maps/place/So+Stay+Hotel/data=!4m10!3m9!1s0x46fd73833d95b5f5:0xabbb3f33c5aa063a!5m2!4m1!1i2!8m2!3d54.350652!4d18.633977!16s%2Fg%2F11bychzsm9!19sChIJ9bWVPYNz_UYROgaqxTM_u6s?authuser=0&hl=en&rclk=1
54.3506525,18.6339769,hotel,So Stay Hotel,https://www.google.com/maps/place/So+Stay+Hotel/data=!4m10!3m9!1s0x46fd73833d95fee1:0xabbb3f33c5aa063a!5m2!4m1!1i2!8m2!3d54.3506525!4d18.6339769!16s%2Fg%2F11bychzsm9!19sChIJ4f6VPYNz_UYROgaqxTM_u6s?authuser=0&hl=en&rclk=1
54.349326,18.7057691,hotel,Gdaski Dom Turystyczny,https://www.google.com/maps/place/Gda%C5%84ski+Dom+Turystyczny/data=!4m10!3m9!1s0x46fd72fa0f636b6f:0x51d8c8720fc79337!5m2!4m1!1i2!8m2!3d54.349326!4d18.7057691!16s%2Fg%2F1td290b2!19sChIJb2tjD_py_UYRN5PHD3LI2FE?authuser=0&hl=en&rclk=1
54.3495039,18.6806951,hotel,Focus Hotel Gdask,https://www.google.com/maps/place/Focus+Hotel+Gda%C5%84sk/data=!4m10!3m9!1s0x46fd7300d6ff6919:0xb40cf90def6c69e1!5m2!4m1!1i2!8m2!3d54.3495039!4d18.6806951!16s%2Fg%2F1tr7h1yd!19sChIJGWn_1gBz_UYR4Wls7w35DLQ?authuser=0&hl=en&rclk=1
54.3483662,18.801478,hotel,Kurort Stara Wdzarnia,https://www.google.com/maps/place/Kurort+Stara+W%C4%99dzarnia/data=!4m10!3m9!1s0x46fd6d15ba8daf1b:0x1abf0767f01488f0!5m2!4m1!1i2!8m2!3d54.3483662!4d18.801478!16s%2Fg%2F1td6f4x9!19sChIJG6-NuhVt_UYR8IgU8GcHvxo?authuser=0&hl=en&rclk=1
54.347953,18.8119866,hotel,Villa Dzika Pla偶a,https://www.google.com/maps/place/Villa+Dzika+Pla%C5%BCa/data=!4m10!3m9!1s0x46fd6d17f0e4e7ed:0x314f590236b88395!5m2!4m1!1i2!8m2!3d54.347953!4d18.8119866!16s%2Fg%2F11dfgsxqym!19sChIJ7efk8Bdt_UYRlYO4NgJZTzE?authuser=0&hl=en&rclk=1
54.3447208,18.8340493,hotel,Pensjonat FALA na WYSPIE,https://www.google.com/maps/place/Pensjonat+FALA+na+WYSPIE/data=!4m10!3m9!1s0x46fd6ce09cf44625:0x4f86dd6ec79b1a46!5m2!4m1!1i2!8m2!3d54.3447208!4d18.8340493!16s%2Fg%2F11gg9btr_1!19sChIJJUb0nOBs_UYRRhqbx27dhk8?authuser=0&hl=en&rclk=1
54.3418098,18.8575843,hotel,Forsycja,https://www.google.com/maps/place/Forsycja/data=!4m10!3m9!1s0x46fd6cc02d7b9ab5:0x9d87d39a9a3e7fd7!5m2!4m1!1i2!8m2!3d54.3418098!4d18.8575843!16s%2Fg%2F11f4wssxtp!19sChIJtZp7LcBs_UYR138-mprTh50?authuser=0&hl=en&rclk=1
54.3090903,18.5601395,hotel,Hotel Cztery Brzozy,https://www.google.com/maps/place/Hotel+Cztery+Brzozy/data=!4m10!3m9!1s0x46fd76bcb77517ab:0x84feb7bc6d23b1f4!5m2!4m1!1i2!8m2!3d54.3090903!4d18.5601395!16s%2Fg%2F1hhhtp2nf!19sChIJqxd1t7x2_UYR9LEjbby3_oQ?authuser=0&hl=en&rclk=1
54.30909,18.56014,hotel,Hotel Cztery Brzozy,https://www.google.com/maps/place/Hotel+Cztery+Brzozy/data=!4m10!3m9!1s0x46fd76bcb6fbd74f:0x84feb7bc6d23b1f4!5m2!4m1!1i2!8m2!3d54.30909!4d18.56014!16s%2Fg%2F1hhhtp2nf!19sChIJT9f7trx2_UYR9LEjbby3_oQ?authuser=0&hl=en&rclk=1
54.34651,18.62246,hotel,Royal Residence,https://www.google.com/maps/place/Royal+Residence/data=!4m10!3m9!1s0x46fd73861355db93:0x1a6e9ed362bd3fb!5m2!4m1!1i2!8m2!3d54.34651!4d18.62246!16s%2Fg%2F12hnkx3zc!19sChIJk9tVE4Zz_UYR-9MrNu3ppgE?authuser=0&hl=en&rclk=1
54.348848,18.6233955,hotel,Hotel Na Zboczu,https://www.google.com/maps/place/Hotel+Na+Zboczu/data=!4m7!3m6!1s0x46fd7385c9a40a3d:0xb26963ec0ad967fe!8m2!3d54.348848!4d18.6233955!16s%2Fg%2F11cs3z6yb6!19sChIJPQqkyYVz_UYR_mfZCuxjabI?authuser=0&hl=en&rclk=1
54.3459801,18.6206606,hotel,Villa Aida Pokoje Gocinne,https://www.google.com/maps/place/Villa+Aida+Pokoje+Go%C5%9Bcinne/data=!4m10!3m9!1s0x46fd73863ab80c35:0xc5aa760673a2382b!5m2!4m1!1i2!8m2!3d54.3459801!4d18.6206606!16s%2Fg%2F11b73ls90_!19sChIJNQy4OoZz_UYRKziicwZ2qsU?authuser=0&hl=en&rclk=1
54.3437159,18.656846,hotel,Hotel Number One,https://www.google.com/maps/place/Hotel+Number+One/data=!4m10!3m9!1s0x46fd73a391dbfd7b:0x6b4e8f4d0517e26e!5m2!4m1!1i2!8m2!3d54.3437159!4d18.656846!16s%2Fg%2F11bvcvsz6s!19sChIJe_3bkaNz_UYRbuIXBU2PTms?authuser=0&hl=en&rclk=1
54.3488544,18.6577496,hotel,"Radisson Hotel & Suites, Gdansk","https://www.google.com/maps/place/Radisson+Hotel+%26+Suites,+Gdansk/data=!4m10!3m9!1s0x46fd730f3707bf4b:0xdba2deee9bf2a3e9!5m2!4m1!1i2!8m2!3d54.3488544!4d18.6577496!16s%2Fg%2F11gxf7ggx0!19sChIJS78HNw9z_UYR6aPym-7eots?authuser=0&hl=en&rclk=1"
54.3491678,18.6588063,hotel,"Holiday Inn Gdansk - City Centre, an IHG Hotel","https://www.google.com/maps/place/Holiday+Inn+Gdansk+-+City+Centre,+an+IHG+Hotel/data=!4m10!3m9!1s0x46fd73a0ed173cc5:0xe7baf80b401f4e5c!5m2!4m1!1i2!8m2!3d54.3491678!4d18.6588063!16s%2Fg%2F11h5rg58kk!19sChIJxTwX7aBz_UYRXE4fQAv4uuc?authuser=0&hl=en&rclk=1"
54.325974,18.744538,hotel,Czarna Perla,https://www.google.com/maps/place/Czarna+Perla/data=!4m10!3m9!1s0x46fd6d87e50c4c41:0xcb102fb5445e0c9b!5m2!4m1!1i2!8m2!3d54.325974!4d18.744538!16s%2Fg%2F1tfbrl0y!19sChIJQUwM5Ydt_UYRmwxeRLUvEMs?authuser=0&hl=en&rclk=1
54.348904,18.799708,hotel,Pensjonat Rezerwat85 Gdask Sobieszewo,https://www.google.com/maps/place/Pensjonat+Rezerwat85+Gda%C5%84sk+Sobieszewo/data=!4m10!3m9!1s0x46fd6d150a571bcf:0xdeebb27e063e0de4!5m2!4m1!1i2!8m2!3d54.348904!4d18.799708!16s%2Fg%2F11b7lmxrnf!19sChIJzxtXChVt_UYR5A0-Bn6y694?authuser=0&hl=en&rclk=1
54.2697205,18.4684689,hotel,Hotel,https://www.google.com/maps/place/Hotel/data=!4m7!3m6!1s0x46fd77531288419f:0xa597b5692a2b38c7!8m2!3d54.2697205!4d18.4684689!16s%2Fg%2F11nx1n_c6w!19sChIJn0GIElN3_UYRxzgrKmm1l6U?authuser=0&hl=en&rclk=1
54.3230653,18.4670178,hotel,Psi hotel- Profesjonalny hotel dla ps贸w__,https://www.google.com/maps/place/Psi+hotel-+Profesjonalny+hotel+dla+ps%C3%B3w__/data=!4m7!3m6!1s0x46fd77d9b5b71c2b:0x6cb6d5f7447bb5ee!8m2!3d54.3230653!4d18.4670178!16s%2Fg%2F11t27s_j9f!19sChIJKxy3tdl3_UYR7rV7RPfVtmw?authuser=0&hl=en&rclk=1
54.303484,18.542804,hotel,Kowalscy,https://www.google.com/maps/place/Kowalscy/data=!4m7!3m6!1s0x46fd77f712e9a78b:0x41e74dffb5ada8e7!8m2!3d54.303484!4d18.542804!16s%2Fg%2F11jq0b8jzw!19sChIJi6fpEvd3_UYR56ittf9N50E?authuser=0&hl=en&rclk=1
54.299374,18.60442,hotel,Zoty Staw,https://www.google.com/maps/place/Z%C5%82oty+Staw/data=!4m10!3m9!1s0x46fd714454774ac1:0x87210d620d9da254!5m2!4m1!1i2!8m2!3d54.299374!4d18.60442!16s%2Fg%2F113k877sq!19sChIJwUp3VERx_UYRVKKdDWINIYc?authuser=0&hl=en&rclk=1
54.3096148,18.5987717,hotel,Hotel Platan***,https://www.google.com/maps/place/Hotel+Platan***/data=!4m10!3m9!1s0x46fd7183ddb32873:0x88a008382b5436b2!5m2!4m1!1i2!8m2!3d54.3096148!4d18.5987717!16s%2Fg%2F11fk7yqhww!19sChIJcyiz3YNx_UYRsjZUKzgIoIg?authuser=0&hl=en&rclk=1
54.3213889,18.6313889,hotel,Hotel Zatoka,https://www.google.com/maps/place/Hotel+Zatoka/data=!4m10!3m9!1s0x46fd73e80c149789:0xef4bd56cc06a9136!5m2!4m1!1i2!8m2!3d54.3213889!4d18.6313889!16s%2Fg%2F11bwd__5b6!19sChIJiZcUDOhz_UYRNpFqwGzVS-8?authuser=0&hl=en&rclk=1
54.334964,18.652368,hotel,Noclegi,https://www.google.com/maps/place/Noclegi/data=!4m7!3m6!1s0x46fd73bbfc4c837d:0x990cd34df77b226a!8m2!3d54.334964!4d18.652368!16s%2Fg%2F1hc7s4nj1!19sChIJfYNM_Ltz_UYRaiJ7903TDJk?authuser=0&hl=en&rclk=1
54.3115158,18.5600796,hotel,Apartamenty Coffee Inn - Gdask Kowale,https://www.google.com/maps/place/Apartamenty+Coffee+Inn+-+Gda%C5%84sk+Kowale/data=!4m10!3m9!1s0x46fd77da77237097:0xc5e2264da54444f3!5m2!4m1!1i2!8m2!3d54.3115158!4d18.5600796!16s%2Fg%2F11h3qdd010!19sChIJl3Ajd9p3_UYR80REpU0m4sU?authuser=0&hl=en&rclk=1
54.3097201,18.5599584,hotel,Stone Villa,https://www.google.com/maps/place/Stone+Villa/data=!4m10!3m9!1s0x46fd76a34d5f4a95:0x6cfddd3246292200!5m2!4m1!1i2!8m2!3d54.3097201!4d18.5599584!16s%2Fg%2F11b7q7r0_6!19sChIJlUpfTaN2_UYRACIpRjLd_Ww?authuser=0&hl=en&rclk=1
54.321389,18.631389,hotel,Hotel Zatoka,https://www.google.com/maps/place/Hotel+Zatoka/data=!4m10!3m9!1s0x46fd73e80c2a156b:0xef4bd56cc06a9136!5m2!4m1!1i2!8m2!3d54.321389!4d18.631389!16s%2Fg%2F11bwd__5b6!19sChIJaxUqDOhz_UYRNpFqwGzVS-8?authuser=0&hl=en&rclk=1
54.348765,18.660796,hotel,Marina Club Hotel,https://www.google.com/maps/place/Marina+Club+Hotel/data=!4m10!3m9!1s0x46fd73a0b618c4ad:0xd82f74ee1ac6ed9d!5m2!4m1!1i2!8m2!3d54.348765!4d18.660796!16s%2Fg%2F11lg83cnhq!19sChIJrcQYtqBz_UYRne3GGu50L9g?authuser=0&hl=en&rclk=1
54.3052107,18.6304327,hotel,Lipce Zajazd,https://www.google.com/maps/place/Lipce+Zajazd/data=!4m10!3m9!1s0x46fd7163e1942b4b:0xf69d307d2192d7b2!5m2!4m1!1i2!8m2!3d54.3052107!4d18.6304327!16s%2Fg%2F1tjymdnx!19sChIJSyuU4WNx_UYRsteSIX0wnfY?authuser=0&hl=en&rclk=1
54.2784432,18.4219214,hotel,Hotel Venus,https://www.google.com/maps/place/Hotel+Venus/data=!4m10!3m9!1s0x46fd9d7da859ef55:0x37de1c3c0d4bfefd!5m2!4m1!1i2!8m2!3d54.2784432!4d18.4219214!16s%2Fg%2F1tczj4_r!19sChIJVe9ZqH2d_UYR_f5LDTwc3jc?authuser=0&hl=en&rclk=1
54.2770855,18.5508834,hotel,4 Pory Roku Restauracja i Nocleg,https://www.google.com/maps/place/4+Pory+Roku+Restauracja+i+Nocleg/data=!4m10!3m9!1s0x46fd77fa2cead2ed:0xebce47598dc62237!5m2!4m1!1i2!8m2!3d54.2770855!4d18.5508834!16s%2Fg%2F11jtfbg87l!19sChIJ7dLqLPp3_UYRNyLGjVlHzus?authuser=0&hl=en&rclk=1
54.305531,18.63541,hotel,Kwatera Prywatna,https://www.google.com/maps/place/Kwatera+Prywatna/data=!4m7!3m6!1s0x46fd716307ab4909:0x3282cee9f51166be!8m2!3d54.305531!4d18.63541!16s%2Fg%2F11c2jgy492!19sChIJCUmrB2Nx_UYRvmYR9enOgjI?authuser=0&hl=en&rclk=1
54.3044173,18.7601595,hotel,Ober偶a Pod Lipami,https://www.google.com/maps/place/Ober%C5%BCa+Pod+Lipami/data=!4m10!3m9!1s0x46fd6debff6cd02d:0xcd2b9a8879932c75!5m2!4m1!1i2!8m2!3d54.3044173!4d18.7601595!16s%2Fg%2F1tgn3f6w!19sChIJLdBs_-tt_UYRdSyTeYiaK80?authuser=0&hl=en&rclk=1
54.343803,18.650086,hotel,Hotel Almond Business & SPA Gdask,https://www.google.com/maps/place/Hotel+Almond+Business+%26+SPA+Gda%C5%84sk/data=!4m10!3m9!1s0x46fd73a27b485785:0x6145fdd31b19a087!5m2!4m1!1i2!8m2!3d54.343803!4d18.650086!16s%2Fg%2F11cllg9fhm!19sChIJhVdIe6Jz_UYRh6AZG9P9RWE?authuser=0&hl=en&rclk=1
54.2993745,18.6044201,hotel,Zoty Staw,https://www.google.com/maps/place/Z%C5%82oty+Staw/data=!4m10!3m9!1s0x46fd7493c5b13cfd:0x87210d620d9da254!5m2!4m1!1i2!8m2!3d54.2993745!4d18.6044201!16s%2Fg%2F113k877sq!19sChIJ_TyxxZN0_UYRVKKdDWINIYc?authuser=0&hl=en&rclk=1
54.339485,18.208524,hotel,"Hotel Miosz Restauracja, Basen dla dzieci, Sala Zabaw, Siownia","https://www.google.com/maps/place/Hotel+Mi%C5%82osz+Restauracja,+Basen+dla+dzieci,+Sala+Zabaw,+Si%C5%82ownia/data=!4m10!3m9!1s0x46fd9a644ab5a031:0xdef874cd5b7f0e37!5m2!4m1!1i2!8m2!3d54.339485!4d18.208524!16s%2Fg%2F11xkjbz5d!19sChIJMaC1SmSa_UYRNw5_W810-N4?authuser=0&hl=en&rclk=1"
54.2742061,18.4754551,hotel,"Gabinet Odnowy Biologicznej ""Krystyna""",https://www.google.com/maps/place/Gabinet+Odnowy+Biologicznej+%22Krystyna%22/data=!4m7!3m6!1s0x46fd77a4d5aacbeb:0x4f302b733d4167bc!8m2!3d54.2742061!4d18.4754551!16s%2Fg%2F1hc0t74z5!19sChIJ68uq1aR3_UYRvGdBPXMrME8?authuser=0&hl=en&rclk=1
54.28356,18.59635,hotel,"La Room. Zakwaterowanie, noclegi","https://www.google.com/maps/place/La+Room.+Zakwaterowanie,+noclegi/data=!4m7!3m6!1s0x46fd713b7a46dc93:0x996987cd255e7758!8m2!3d54.28356!4d18.59635!16s%2Fg%2F1hc18h45y!19sChIJk9xGejtx_UYRWHdeJc2HaZk?authuser=0&hl=en&rclk=1"
54.2573788,18.6502237,hotel,Hotel garnizonowy Lotnik,https://www.google.com/maps/place/Hotel+garnizonowy+Lotnik/data=!4m7!3m6!1s0x46fd704b895f7361:0xc21f1380f55761fa!8m2!3d54.2573788!4d18.6502237!16s%2Fg%2F11cn9f53sz!19sChIJYXNfiUtw_UYR-mFX9YATH8I?authuser=0&hl=en&rclk=1
54.2897629,18.9196335,hotel,Houseboat,https://www.google.com/maps/place/Houseboat/data=!4m10!3m9!1s0x46fd6bb6f27b31c9:0xad4ee0a063d428f3!5m2!4m1!1i2!8m2!3d54.2897629!4d18.9196335!16s%2Fg%2F11fy53tz1g!19sChIJyTF78rZr_UYR8yjUY6DgTq0?authuser=0&hl=en&rclk=1
54.2208711,18.3759053,hotel,Hotel Kozi Gr贸d,https://www.google.com/maps/place/Hotel+Kozi+Gr%C3%B3d/data=!4m10!3m9!1s0x46fd828260a3a1cb:0x805b9815e4f739!5m2!4m1!1i2!8m2!3d54.2208711!4d18.3759053!16s%2Fg%2F1tjz21n8!19sChIJy6GjYIKC_UYROffkFZhbgAA?authuser=0&hl=en&rclk=1
54.27013,18.611997,hotel,Villa Terra,https://www.google.com/maps/place/Villa+Terra/data=!4m10!3m9!1s0x46fd711d1fc6f51b:0x697373964c927e5a!5m2!4m1!1i2!8m2!3d54.27013!4d18.611997!16s%2Fg%2F11fx8_gvc4!19sChIJG_XGHx1x_UYRWn6STJZzc2k?authuser=0&hl=en&rclk=1
54.265714,18.6374169,hotel,Rooms for Rent,https://www.google.com/maps/place/Rooms+for+Rent/data=!4m10!3m9!1s0x46fd71ab7c0b89e5:0x9dda670f3844f13d!5m2!4m1!1i2!8m2!3d54.265714!4d18.6374169!16s%2Fg%2F11h4trrnr5!19sChIJ5YkLfKtx_UYRPfFEOA9n2p0?authuser=0&hl=en&rclk=1
54.2613331,18.641055,hotel,Apart Chopin,https://www.google.com/maps/place/Apart+Chopin/data=!4m10!3m9!1s0x46fd730a58481707:0xad956b906b21dec3!5m2!4m1!1i2!8m2!3d54.2613331!4d18.641055!16s%2Fg%2F1tgx0qfd!19sChIJBxdIWApz_UYRw94ha5Brla0?authuser=0&hl=en&rclk=1
54.2411052,18.629382,hotel,Hotel G贸rski,https://www.google.com/maps/place/Hotel+G%C3%B3rski/data=!4m10!3m9!1s0x46fd7053ebe8d7ed:0xb5f70c2697fe397!5m2!4m1!1i2!8m2!3d54.2411052!4d18.629382!16s%2Fg%2F1tghbv55!19sChIJ7dfo61Nw_UYRl-N_acJwXws?authuser=0&hl=en&rclk=1
54.2526118,18.9657128,hotel,Hotel Drywa Wolne pokoje Nocleg,https://www.google.com/maps/place/Hotel+Drywa+Wolne+pokoje+Nocleg/data=!4m7!3m6!1s0x46fd6aab7e233301:0xc577568a42de38de!8m2!3d54.2526118!4d18.9657128!16s%2Fg%2F1tdrd1nf!19sChIJATMjfqtq_UYR3jjeQopWd8U?authuser=0&hl=en&rclk=1
54.2514203,18.844768,hotel,Cedrowy Dworek,https://www.google.com/maps/place/Cedrowy+Dworek/data=!4m10!3m9!1s0x46fd693655014e27:0xeeb0422ffb851482!5m2!4m1!1i2!8m2!3d54.2514203!4d18.844768!16s%2Fg%2F11y2h96v6!19sChIJJ04BVTZp_UYRghSF-y9CsO4?authuser=0&hl=en&rclk=1
54.4683394,18.4630778,restaurant,Dos Amigos Gdynia,https://www.google.com/maps/place/Dos+Amigos+Gdynia/data=!4m7!3m6!1s0x46fda11584f3ccb9:0xe6012f0c48bebc7b!8m2!3d54.4683394!4d18.4630778!16s%2Fg%2F11pzt09rw9!19sChIJuczzhBWh_UYRe7y-SAwvAeY?authuser=0&hl=en&rclk=1
54.4722607,18.4610292,restaurant,Pizzeria Czarna Pera,https://www.google.com/maps/place/Pizzeria+Czarna+Per%C5%82a/data=!4m7!3m6!1s0x46fda16579fdcb63:0x9830c42586cb7ea2!8m2!3d54.4722607!4d18.4610292!16s%2Fg%2F11jzntyzd9!19sChIJY8v9eWWh_UYRon7LhiXEMJg?authuser=0&hl=en&rclk=1
54.4746613,18.4639819,restaurant,SurfBurger Dbrowa,https://www.google.com/maps/place/SurfBurger+D%C4%85browa/data=!4m7!3m6!1s0x46fda18a2172aabb:0x12e91d857b4ded25!8m2!3d54.4746613!4d18.4639819!16s%2Fg%2F11rcgw63zj!19sChIJu6pyIYqh_UYRJe1Ne4Ud6RI?authuser=0&hl=en&rclk=1
54.4743033,18.4650517,restaurant,wie偶o Sushi,https://www.google.com/maps/place/%C5%9Awie%C5%BCo+Sushi/data=!4m7!3m6!1s0x46fda12bb81798c5:0xc728f24e569eb15e!8m2!3d54.4743033!4d18.4650517!16s%2Fg%2F11rnhvvy7t!19sChIJxZgXuCuh_UYRXrGeVk7yKMc?authuser=0&hl=en&rclk=1
54.4746873,18.4705083,restaurant,Da Grasso,https://www.google.com/maps/place/Da+Grasso/data=!4m7!3m6!1s0x46fda108e459f6d3:0xbe5c253804798dde!8m2!3d54.4746873!4d18.4705083!16s%2Fg%2F1tp25zqh!19sChIJ0_ZZ5Aih_UYR3o15BDglXL4?authuser=0&hl=en&rclk=1
54.4679984,18.4865275,restaurant,Las Palmas Restaurant,https://www.google.com/maps/place/Las+Palmas+Restaurant/data=!4m7!3m6!1s0x46fda1aaaa69cd1b:0x67b85ce267cb2021!8m2!3d54.4679984!4d18.4865275!16s%2Fg%2F1tfxwqkb!19sChIJG81pqqqh_UYRISDLZ-JcuGc?authuser=0&hl=en&rclk=1
54.4738355,18.4746581,restaurant,Imbis. Szulc J.,https://www.google.com/maps/place/Imbis.+Szulc+J./data=!4m7!3m6!1s0x46fda1062c450f9f:0xc83d17b5f5f1743a!8m2!3d54.4738355!4d18.4746581!16s%2Fg%2F1hc6wyb7y!19sChIJnw9FLAah_UYROnTx9bUXPcg?authuser=0&hl=en&rclk=1
54.464766,18.458234,restaurant,呕abka,https://www.google.com/maps/place/%C5%BBabka/data=!4m7!3m6!1s0x46fda152a4e54e83:0x97ea3a6e471fca18!8m2!3d54.464766!4d18.458234!16s%2Fg%2F11mw0n3gtq!19sChIJg07lpFKh_UYRGMofR2466pc?authuser=0&hl=en&rclk=1
54.4679395,18.4645555,restaurant,Angry Mike Burgers,https://www.google.com/maps/place/Angry+Mike+Burgers/data=!4m7!3m6!1s0x46fda193b1b3957b:0x91b93d6a8e38cd48!8m2!3d54.4679395!4d18.4645555!16s%2Fg%2F11q8y5rqj8!19sChIJe5WzsZOh_UYRSM04jmo9uZE?authuser=0&hl=en&rclk=1
54.4691455,18.501589,restaurant,Osteria Fino Gdynia,https://www.google.com/maps/place/Osteria+Fino+Gdynia/data=!4m7!3m6!1s0x46fda7501a92a487:0x1a7ab336c82cb20f!8m2!3d54.4691455!4d18.501589!16s%2Fg%2F11fjmtks54!19sChIJh6SSGlCn_UYRD7IsyDazeho?authuser=0&hl=en&rclk=1
54.4705454,18.5067616,restaurant,Tapas Andalucia,https://www.google.com/maps/place/Tapas+Andalucia/data=!4m7!3m6!1s0x46fda1690b967ce3:0x7ca8f2d025a21a6!8m2!3d54.4705454!4d18.5067616!16s%2Fg%2F11s12gwfdy!19sChIJ43yWC2mh_UYRpiFaAi2Pygc?authuser=0&hl=en&rclk=1
54.4750789,18.5042873,restaurant,Agato Sushi,https://www.google.com/maps/place/Agato+Sushi/data=!4m7!3m6!1s0x46fda1a6157f0051:0x6324887b9815419!8m2!3d54.4750789!4d18.5042873!16s%2Fg%2F11mw7vwp3w!19sChIJUQB_Faah_UYRGVSBuYdIMgY?authuser=0&hl=en&rclk=1
54.473631,18.517229,restaurant,Sto贸wka szkolna,https://www.google.com/maps/place/Sto%C5%82%C3%B3wka+szkolna/data=!4m7!3m6!1s0x46fda0f1f2b17715:0xcbad4054e44633cb!8m2!3d54.473631!4d18.517229!16s%2Fg%2F11hyxml8v4!19sChIJFXex8vGg_UYRyzNG5FRArcs?authuser=0&hl=en&rclk=1
54.4723203,18.5145911,restaurant,Shimayo Sushi,https://www.google.com/maps/place/Shimayo+Sushi/data=!4m7!3m6!1s0x46fda1a0f92ca1c7:0x802880dd47ba5e41!8m2!3d54.4723203!4d18.5145911!16s%2Fg%2F11lfgnpgry!19sChIJx6Es-aCh_UYRQV66R92AKIA?authuser=0&hl=en&rclk=1
54.4803594,18.5526339,restaurant,Restauracja Serwus,https://www.google.com/maps/place/Restauracja+Serwus/data=!4m7!3m6!1s0x46fda10ee8527f93:0x7d161f72dc5a781e!8m2!3d54.4803594!4d18.5526339!16s%2Fg%2F11d_8mdkcd!19sChIJk39S6A6h_UYRHnha3HIfFn0?authuser=0&hl=en&rclk=1
54.480886,18.5521604,restaurant,Przystanek Orowo,https://www.google.com/maps/place/Przystanek+Or%C5%82owo/data=!4m7!3m6!1s0x46fda0980acf6937:0x79d6648bda6f140a!8m2!3d54.480886!4d18.5521604!16s%2Fg%2F11bxfkx7k7!19sChIJN2nPCpig_UYRChRv2otk1nk?authuser=0&hl=en&rclk=1
54.4718933,18.5508052,restaurant,Tusta Kaczka,https://www.google.com/maps/place/T%C5%82usta+Kaczka/data=!4m7!3m6!1s0x46fda09b5d50672b:0x85601b3734e4ef43!8m2!3d54.4718933!4d18.5508052!16s%2Fg%2F113fcs2ms!19sChIJK2dQXZug_UYRQ-_kNDcbYIU?authuser=0&hl=en&rclk=1
54.480008,18.552768,restaurant,PESCADO Restaurant,https://www.google.com/maps/place/PESCADO+Restaurant/data=!4m7!3m6!1s0x46fda0986fde456f:0xd9b77ca85ab5e780!8m2!3d54.480008!4d18.552768!16s%2Fg%2F11dzw9r5dc!19sChIJb0Xeb5ig_UYRgOe1Wqh8t9k?authuser=0&hl=en&rclk=1
54.4764953,18.5514645,restaurant,Hashi Sushi Gdynia,https://www.google.com/maps/place/Hashi+Sushi+Gdynia/data=!4m7!3m6!1s0x46fda09975f6e571:0x7c11580f0e79f411!8m2!3d54.4764953!4d18.5514645!16s%2Fg%2F1tmxv8sb!19sChIJceX2dZmg_UYREfR5Dg9YEXw?authuser=0&hl=en&rclk=1
54.4721295,18.5537902,restaurant,Casa Cubeddu By Domenico,https://www.google.com/maps/place/Casa+Cubeddu+By+Domenico/data=!4m7!3m6!1s0x46fda09c878fa637:0xf7d5964ef7316d88!8m2!3d54.4721295!4d18.5537902!16s%2Fg%2F12hrqxw76!19sChIJN6aPh5yg_UYRiG0x906W1fc?authuser=0&hl=en&rclk=1
54.4811111,18.54,restaurant,Biay Kr贸lik,https://www.google.com/maps/place/Bia%C5%82y+Kr%C3%B3lik/data=!4m7!3m6!1s0x46fda095c2fd4149:0x510cc1dd2ab15468!8m2!3d54.4811111!4d18.54!16s%2Fg%2F11c3l5tntc!19sChIJSUH9wpWg_UYRaFSxKt3BDFE?authuser=0&hl=en&rclk=1
54.481267,18.5644169,restaurant,Tawerna Orowska,https://www.google.com/maps/place/Tawerna+Or%C5%82owska/data=!4m7!3m6!1s0x46fda0a04971f15b:0xc0b79ccefab5a0b8!8m2!3d54.481267!4d18.5644169!16s%2Fg%2F1tmqkgvf!19sChIJW_FxSaCg_UYRuKC1-s6ct8A?authuser=0&hl=en&rclk=1
54.4816838,18.5639025,restaurant,Ch毛cz Orowska,https://www.google.com/maps/place/Ch%C3%ABcz+Or%C5%82owska/data=!4m7!3m6!1s0x46fda0a1006ffe05:0x6a743bd5722e78f0!8m2!3d54.4816838!4d18.5639025!16s%2Fg%2F11cly4kxrn!19sChIJBf5vAKGg_UYR8HguctU7dGo?authuser=0&hl=en&rclk=1
54.4453459,18.5696193,restaurant,Billy's American Restaurant,https://www.google.com/maps/place/Billy's+American+Restaurant/data=!4m7!3m6!1s0x46fd0a8de020c169:0x8d8812aa116a21b2!8m2!3d54.4453459!4d18.5696193!16s%2Fg%2F11byxg4g39!19sChIJacEg4I0K_UYRsiFqEaoSiI0?authuser=0&hl=en&rclk=1
54.4394133,18.5762227,restaurant,Sona Woda,https://www.google.com/maps/place/S%C5%82ona+Woda/data=!4m7!3m6!1s0x46fd0bbe7505e81f:0x529c1e817f941fc8!8m2!3d54.4394133!4d18.5762227!16s%2Fg%2F11f775rfk7!19sChIJH-gFdb4L_UYRyB-Uf4EenFI?authuser=0&hl=en&rclk=1
54.445282,18.570287,restaurant,Tawerna Rybacka,https://www.google.com/maps/place/Tawerna+Rybacka/data=!4m7!3m6!1s0x46fd0b523bd03445:0xfadca05785f80e81!8m2!3d54.445282!4d18.570287!16s%2Fg%2F11qnbpm9m3!19sChIJRTTQO1IL_UYRgQ74hVeg3Po?authuser=0&hl=en&rclk=1
54.4518588,18.5654757,restaurant,M15 Restaurant Bar & Sauny,https://www.google.com/maps/place/M15+Restaurant+Bar+%26+Sauny/data=!4m7!3m6!1s0x46fd0a889f95bceb:0xe244603d0dab1381!8m2!3d54.4518588!4d18.5654757!16s%2Fg%2F11dzvhvfyg!19sChIJ67yVn4gK_UYRgROrDT1gROI?authuser=0&hl=en&rclk=1
54.347892,18.650776,restaurant,Canis Restaurant,https://www.google.com/maps/place/Canis+Restaurant/data=!4m7!3m6!1s0x46fd739f6f5815d7:0x5c577a5817db446c!8m2!3d54.347892!4d18.650776!16s%2Fg%2F11gf8hvf2c!19sChIJ1xVYb59z_UYRbETbF1h6V1w?authuser=0&hl=en&rclk=1
54.3483253,18.6547116,restaurant,Restauracja Latajcy Holender,https://www.google.com/maps/place/Restauracja+Lataj%C4%85cy+Holender/data=!4m7!3m6!1s0x46fd73a04ada8531:0x5bf1cac69475b129!8m2!3d54.3483253!4d18.6547116!16s%2Fg%2F1tj3jrxm!19sChIJMYXaSqBz_UYRKbF1lMbK8Vs?authuser=0&hl=en&rclk=1
54.3492099,18.6551616,restaurant,Fino,https://www.google.com/maps/place/Fino/data=!4m7!3m6!1s0x46fd73a96e5f5bf9:0x8463c227b57d3a59!8m2!3d54.3492099!4d18.6551616!16s%2Fg%2F11g22z9878!19sChIJ-Vtfbqlz_UYRWTp9tSfCY4Q?authuser=0&hl=en&rclk=1
54.3486327,18.6490283,restaurant,Pomelo Bistro Bar,https://www.google.com/maps/place/Pomelo+Bistro+Bar/data=!4m7!3m6!1s0x46fd739f0ff072e9:0xe6917ebf73d7b3d1!8m2!3d54.3486327!4d18.6490283!16s%2Fg%2F11f3t0dbk4!19sChIJ6XLwD59z_UYR0bPXc79-keY?authuser=0&hl=en&rclk=1
54.348706,18.6532875,restaurant,Piwnica Rajc贸w,https://www.google.com/maps/place/Piwnica+Rajc%C3%B3w/data=!4m7!3m6!1s0x46fd73a1d2ca5bb3:0x9c10a6da8735a439!8m2!3d54.348706!4d18.6532875!16s%2Fg%2F1td_3wh9!19sChIJs1vK0qFz_UYROaQ1h9qmEJw?authuser=0&hl=en&rclk=1
54.3516945,18.6577532,restaurant,Billys American Restaurant.,https://www.google.com/maps/place/Billy%E2%80%99s+American+Restaurant./data=!4m7!3m6!1s0x46fd730a9174af1d:0x5c1ebf0d7bb9aca8!8m2!3d54.3516945!4d18.6577532!16s%2Fg%2F11b807wv2m!19sChIJHa90kQpz_UYRqKy5ew2_Hlw?authuser=0&hl=en&rclk=1
54.4704335,18.4968941,restaurant,Pizza Tino Gdynia Karwiny,https://www.google.com/maps/place/Pizza+Tino+Gdynia+Karwiny/data=!4m7!3m6!1s0x46fda0f924eb380b:0x245439048a67a963!8m2!3d54.4704335!4d18.4968941!16s%2Fg%2F1t_hxpc0!19sChIJCzjrJPmg_UYRY6lnigQ5VCQ?authuser=0&hl=en&rclk=1
