lat,lon,type,title,link
54.485482,18.4279329,bar,Royal Bar,https://www.google.com/maps/place/Royal+Bar/data=!4m7!3m6!1s0x46fda3b215bef1fd:0xbd17b4fd4be9b917!8m2!3d54.485482!4d18.4279329!16s%2Fg%2F11llz_56xx!19sChIJ_fG-FbKj_UYRF7npS_20F70?authuser=0&hl=en&rclk=1
54.5119306,18.5405407,bar,Klubokawiarnia,https://www.google.com/maps/place/Klubokawiarnia/data=!4m7!3m6!1s0x46fda7319c5f023b:0x32b317f8f3869bd1!8m2!3d54.5119306!4d18.5405407!16s%2Fg%2F11c529tww9!19sChIJOwJfnDGn_UYR0ZuG8_gXszI?authuser=0&hl=en&rclk=1
54.5003105,18.5099617,bar,Vita Bar,https://www.google.com/maps/place/Vita+Bar/data=!4m7!3m6!1s0x46fda1281f78dc5f:0x541839cc479eb267!8m2!3d54.5003105!4d18.5099617!16s%2Fg%2F11bx7wr0hr!19sChIJX9x4Hyih_UYRZ7KeR8w5GFQ?authuser=0&hl=en&rclk=1
54.514425,18.540615,bar,Wym贸wka Cocktail Bar,https://www.google.com/maps/place/Wym%C3%B3wka+Cocktail+Bar/data=!4m7!3m6!1s0x46fda7b0f00c1a55:0x60ea0b524ad0ddf0!8m2!3d54.514425!4d18.540615!16s%2Fg%2F11fk1k838g!19sChIJVRoM8LCn_UYR8N3QSlIL6mA?authuser=0&hl=en&rclk=1
54.519075,18.539571,bar,barbatory,https://www.google.com/maps/place/barbatory/data=!4m7!3m6!1s0x46fda7a3f02c5f37:0xf8fb5a422aa5854d!8m2!3d54.519075!4d18.539571!16s%2Fg%2F11fm5fvzm_!19sChIJN18s8KOn_UYRTYWlKkJa-_g?authuser=0&hl=en&rclk=1
54.5019935,18.5361101,bar,Bar Piwny Sklep Spozywczy,https://www.google.com/maps/place/Bar+Piwny+Sklep+Spozywczy/data=!4m7!3m6!1s0x46fda0cc6a7f2dd9:0xdf9231d8c8ad6a2!8m2!3d54.5019935!4d18.5361101!16s%2Fg%2F11gnnm82h5!19sChIJ2S1_asyg_UYRotaKjB0j-Q0?authuser=0&hl=en&rclk=1
54.4431135,18.5603224,bar,No.5,https://www.google.com/maps/place/No.5/data=!4m7!3m6!1s0x46fd0baf14659a7b:0x75ae68550b24dfaf!8m2!3d54.4431135!4d18.5603224!16s%2Fg%2F11h5s42wlq!19sChIJe5plFK8L_UYRr98kC1VornU?authuser=0&hl=en&rclk=1
54.4523942,18.5656083,bar,Haffner Beach Bar,https://www.google.com/maps/place/Haffner+Beach+Bar/data=!4m7!3m6!1s0x46fd0bdf86f27e89:0xa3703f5b43e3333f!8m2!3d54.4523942!4d18.5656083!16s%2Fg%2F11rkp6n5f_!19sChIJiX7yht8L_UYRPzPjQ1s_cKM?authuser=0&hl=en&rclk=1
54.4476195,18.5681929,bar,Le bar,https://www.google.com/maps/place/Le+bar/data=!4m7!3m6!1s0x46fd0b31bab95611:0x7e1ed4df07624690!8m2!3d54.4476195!4d18.5681929!16s%2Fg%2F11jkp0n1xt!19sChIJEVa5ujEL_UYRkEZiB9_UHn4?authuser=0&hl=en&rclk=1
54.4750557,18.5523765,bar,Icedreams. Bar,https://www.google.com/maps/place/Icedreams.+Bar/data=!4m7!3m6!1s0x46fda09bd8538327:0xc3497fbb9629a9f0!8m2!3d54.4750557!4d18.5523765!16s%2Fg%2F1hc8423hx!19sChIJJ4NT2Jug_UYR8Kkplrt_ScM?authuser=0&hl=en&rclk=1
54.4448166,18.5695659,bar,Coctail Bar Max & Dom Whisky,https://www.google.com/maps/place/Coctail+Bar+Max+%26+Dom+Whisky/data=!4m7!3m6!1s0x46fd0a8dfbeac619:0x2c8f14bad90cf954!8m2!3d54.4448166!4d18.5695659!16s%2Fg%2F11h0qfs6c!19sChIJGcbq-40K_UYRVPkM2boUjyw?authuser=0&hl=en&rclk=1
54.443593,18.56467,bar,Jack's Bar Sopot,https://www.google.com/maps/place/Jack's+Bar+Sopot/data=!4m7!3m6!1s0x46fd0a91c8e48b25:0xea9ace1d9b53c3a5!8m2!3d54.443593!4d18.56467!16s%2Fg%2F11cs697cfc!19sChIJJYvkyJEK_UYRpcNTmx3Omuo?authuser=0&hl=en&rclk=1
54.481267,18.5644169,bar,Tawerna Orowska,https://www.google.com/maps/place/Tawerna+Or%C5%82owska/data=!4m7!3m6!1s0x46fda0a04971f15b:0xc0b79ccefab5a0b8!8m2!3d54.481267!4d18.5644169!16s%2Fg%2F1tmqkgvf!19sChIJW_FxSaCg_UYRuKC1-s6ct8A?authuser=0&hl=en&rclk=1
54.4440765,18.5671844,bar,Restauracja Koktajlbar Sopot Ferber | Cocktail Bar & Restaurant  Monte Cassino Monciak,https://www.google.com/maps/place/Restauracja+Koktajlbar+Sopot+Ferber+%7C+Cocktail+Bar+%26+Restaurant+%F0%9F%8D%B8+Monte+Cassino+Monciak/data=!4m7!3m6!1s0x46fd0a91e38aa803:0x932f414109aaf0c9!8m2!3d54.4440765!4d18.5671844!16s%2Fg%2F1tq4psqm!19sChIJA6iK45EK_UYRyfCqCUFBL5M?authuser=0&hl=en&rclk=1
54.4518588,18.5654757,bar,M15 Restaurant Bar & Sauny,https://www.google.com/maps/place/M15+Restaurant+Bar+%26+Sauny/data=!4m7!3m6!1s0x46fd0a889f95bceb:0xe244603d0dab1381!8m2!3d54.4518588!4d18.5654757!16s%2Fg%2F11dzvhvfyg!19sChIJ67yVn4gK_UYRgROrDT1gROI?authuser=0&hl=en&rclk=1
54.519787,18.5433516,bar,Pyra bar Gdynia,https://www.google.com/maps/place/Pyra+bar+Gdynia/data=!4m7!3m6!1s0x46fda73b25140805:0x438379938a80330a!8m2!3d54.519787!4d18.5433516!16s%2Fg%2F11by_lxtnm!19sChIJBQgUJTun_UYRCjOAipN5g0M?authuser=0&hl=en&rclk=1
54.5151605,18.5387038,bar,Bar Mleczny Soneczny,https://www.google.com/maps/place/Bar+Mleczny+S%C5%82oneczny/data=!4m7!3m6!1s0x46fda730272e334f:0x89f700424ea134f6!8m2!3d54.5151605!4d18.5387038!16s%2Fg%2F1tdrw01q!19sChIJTzMuJzCn_UYR9jShTkIA94k?authuser=0&hl=en&rclk=1
54.4941596,18.5337066,bar,Bistro Alicja,https://www.google.com/maps/place/Bistro+Alicja/data=!4m7!3m6!1s0x46fda0c60e22705b:0xd83f12557a3792c2!8m2!3d54.4941596!4d18.5337066!16s%2Fg%2F11b6r_wzhz!19sChIJW3AiDsag_UYRwpI3elUSP9g?authuser=0&hl=en&rclk=1
54.3472522,18.6589171,bar,Bar Mleczny Stgiewna,https://www.google.com/maps/place/Bar+Mleczny+St%C4%85giewna/data=!4m7!3m6!1s0x46fd73a124206e31:0xbf6e4a306b2e185c!8m2!3d54.3472522!4d18.6589171!16s%2Fg%2F11dd_mhr7d!19sChIJMW4gJKFz_UYRXBguazBKbr8?authuser=0&hl=en&rclk=1
54.3517903,18.6502848,bar,Bar Turystyczny,https://www.google.com/maps/place/Bar+Turystyczny/data=!4m7!3m6!1s0x46fd73757fe95afb:0xb968f3b5049e17d2!8m2!3d54.3517903!4d18.6502848!16s%2Fg%2F1tlwdbhj!19sChIJ-1rpf3Vz_UYR0heeBLXzaLk?authuser=0&hl=en&rclk=1
54.3489212,18.6480133,bar,Pyra Bar,https://www.google.com/maps/place/Pyra+Bar/data=!4m7!3m6!1s0x46fd739efd91d46f:0xa05d26e1f9edf8ee!8m2!3d54.3489212!4d18.6480133!16s%2Fg%2F1hhxmphfh!19sChIJb9SR_Z5z_UYR7vjt-eEmXaA?authuser=0&hl=en&rclk=1
54.3512016,18.5878241,bar,TOP GUN Grill Bar,https://www.google.com/maps/place/TOP+GUN+Grill+Bar/data=!4m7!3m6!1s0x46fd75ce8693c495:0x2e69c4082d872aeb!8m2!3d54.3512016!4d18.5878241!16s%2Fg%2F11j3x0f2qc!19sChIJlcSThs51_UYR6yqHLQjEaS4?authuser=0&hl=en&rclk=1
54.3500785,18.6513621,bar,LUMI SHOTBAR,https://www.google.com/maps/place/LUMI+SHOTBAR/data=!4m7!3m6!1s0x46fd739f93f59acf:0xd2fe24687f29ccde!8m2!3d54.3500785!4d18.6513621!16s%2Fg%2F11bv18stxn!19sChIJz5r1k59z_UYR3swpf2gk_tI?authuser=0&hl=en&rclk=1
54.431795,18.587554,bar,Bar rybny,https://www.google.com/maps/place/Bar+rybny/data=!4m7!3m6!1s0x46fd0ae7c3b8d665:0x8b04a2cbdcfd9ea0!8m2!3d54.431795!4d18.587554!16s%2Fg%2F11fx9ns2ws!19sChIJZda4w-cK_UYRoJ793MuiBIs?authuser=0&hl=en&rclk=1
54.347595,18.6586738,bar,Ink Above,https://www.google.com/maps/place/Ink+Above/data=!4m7!3m6!1s0x46fd73c0dcb744e5:0xfe8a9451588e2438!8m2!3d54.347595!4d18.6586738!16s%2Fg%2F11gzny53k0!19sChIJ5US33MBz_UYROCSOWFGUiv4?authuser=0&hl=en&rclk=1
54.3518181,18.6499666,bar,Lumi! Shot&Cocktail,https://www.google.com/maps/place/Lumi!+Shot%26Cocktail/data=!4m7!3m6!1s0x46fd73a886c32bfd:0x32a50ad8895ad57f!8m2!3d54.3518181!4d18.6499666!16s%2Fg%2F11q4t0ph6n!19sChIJ_SvDhqhz_UYRf9VaidgKpTI?authuser=0&hl=en&rclk=1
54.3429758,18.6624585,bar,Bar mleczny kasztan,https://www.google.com/maps/place/Bar+mleczny+kasztan/data=!4m7!3m6!1s0x46fd73a79a644f1f:0x8aefcf5c03cdf3a1!8m2!3d54.3429758!4d18.6624585!16s%2Fg%2F11qg3m4wdy!19sChIJH09kmqdz_UYRofPNA1zP74o?authuser=0&hl=en&rclk=1
54.4869789,18.3399496,bar,Bar Danuta,https://www.google.com/maps/place/Bar+Danuta/data=!4m7!3m6!1s0x46fda3661980ace7:0x85092a0cf8ac3a85!8m2!3d54.4869789!4d18.3399496!16s%2Fg%2F11s9gdm0yq!19sChIJ56yAGWaj_UYRhTqs-AwqCYU?authuser=0&hl=en&rclk=1
54.4572405,18.535329,bar,Restauracja Brodwinek,https://www.google.com/maps/place/Restauracja+Brodwinek/data=!4m7!3m6!1s0x46fda1f09df74c0d:0xed158a18c96ae5cc!8m2!3d54.4572405!4d18.535329!16s%2Fg%2F11fmr2p83m!19sChIJDUz3nfCh_UYRzOVqyRiKFe0?authuser=0&hl=en&rclk=1
54.4447456,18.5655013,bar,Smak. Bar,https://www.google.com/maps/place/Smak.+Bar/data=!4m7!3m6!1s0x46fd0a8e29cf6bdb:0x8587777bf1dab52a!8m2!3d54.4447456!4d18.5655013!16s%2Fg%2F11h1854jz!19sChIJ22vPKY4K_UYRKrXa8Xt3h4U?authuser=0&hl=en&rclk=1
54.4233259,18.6003682,bar,Bar Hawajski,https://www.google.com/maps/place/Bar+Hawajski/data=!4m7!3m6!1s0x46fd0b2095db62ab:0xea55c5b2fb46cc08!8m2!3d54.4233259!4d18.6003682!16s%2Fg%2F11c52s_s2g!19sChIJq2LblSAL_UYRCMxG-7LFVeo?authuser=0&hl=en&rclk=1
54.4445472,18.3880665,bar,"""Bar Przedmiecie"" (przy stacji paliw Moya)",https://www.google.com/maps/place/%22Bar+Przedmie%C5%9Bcie%22+(przy+stacji+paliw+Moya)/data=!4m7!3m6!1s0x46fda20420da3407:0x7f307d057924c59!8m2!3d54.4445472!4d18.3880665!16s%2Fg%2F11d_ynqynv!19sChIJBzTaIASi_UYRWUySV9AH8wc?authuser=0&hl=en&rclk=1
54.415625,18.597932,bar,Bar No Name,https://www.google.com/maps/place/Bar+No+Name/data=!4m7!3m6!1s0x46fd0b288b83bf37:0xf977eb040dc8cded!8m2!3d54.415625!4d18.597932!16s%2Fg%2F1tdcf1qk!19sChIJN7-DiygL_UYR7c3IDQTrd_k?authuser=0&hl=en&rclk=1
54.4468244,18.4243737,bar,Osaka Sushi,https://www.google.com/maps/place/Osaka+Sushi/data=!4m7!3m6!1s0x46fda19e108cf989:0x11a95d7876bdbb1a!8m2!3d54.4468244!4d18.4243737!16s%2Fg%2F11g0mz62b1!19sChIJifmMEJ6h_UYRGru9dnhdqRE?authuser=0&hl=en&rclk=1
54.520812,18.5377739,bar,Check-IN Pub&Restaurant,https://www.google.com/maps/place/Check-IN+Pub%26Restaurant/data=!4m7!3m6!1s0x46fda7cb76d98663:0x51713e7d91ee97f3!8m2!3d54.520812!4d18.5377739!16s%2Fg%2F11s3xsywtx!19sChIJY4bZdsun_UYR85fukX0-cVE?authuser=0&hl=en&rclk=1
54.4409484,18.4160511,bar,Pizzeria Mirena.,https://www.google.com/maps/place/Pizzeria+Mirena./data=!4m7!3m6!1s0x46fda1e4b09e1f2b:0xe360c94fd2f98a49!8m2!3d54.4409484!4d18.4160511!16s%2Fg%2F11c5_rsbjs!19sChIJKx-esOSh_UYRSYr50k_JYOM?authuser=0&hl=en&rclk=1
54.444677,18.557309,bar,Bar w Komendzie Policji,https://www.google.com/maps/place/Bar+w+Komendzie+Policji/data=!4m7!3m6!1s0x46fd0b29ed938483:0x58537defb0cc8728!8m2!3d54.444677!4d18.557309!16s%2Fg%2F11jsj79_tb!19sChIJg4ST7SkL_UYRKIfMsO99U1g?authuser=0&hl=en&rclk=1
54.4393387,18.5732307,bar,Bar Bursztyn w Sopocie,https://www.google.com/maps/place/Bar+Bursztyn+w+Sopocie/data=!4m7!3m6!1s0x46fd0a933638924f:0xd78ec93cb3a5bc82!8m2!3d54.4393387!4d18.5732307!16s%2Fg%2F1pxq859y9!19sChIJT5I4NpMK_UYRgrylszzJjtc?authuser=0&hl=en&rclk=1
54.4289617,18.5907172,bar,Beach Bar 78,https://www.google.com/maps/place/Beach+Bar+78/data=!4m7!3m6!1s0x46fd0b8393ae67a5:0x4bc2aeec9f34220b!8m2!3d54.4289617!4d18.5907172!16s%2Fg%2F11nxv54q_f!19sChIJpWeuk4ML_UYRCyI0n-yuwks?authuser=0&hl=en&rclk=1
54.4110319,18.6294101,bar,Bar LED,https://www.google.com/maps/place/Bar+LED/data=!4m7!3m6!1s0x46fd0b4864886333:0xc1f4cf2003739de4!8m2!3d54.4110319!4d18.6294101!16s%2Fg%2F11c4lp8wzv!19sChIJM2OIZEgL_UYR5J1zAyDP9ME?authuser=0&hl=en&rclk=1
54.4329361,18.4555491,bar,Abaker. Doradztwo biznesowe. Bar W.,https://www.google.com/maps/place/Abaker.+Doradztwo+biznesowe.+Bar+W./data=!4m7!3m6!1s0x46fda1e4e061f52b:0x3297923d02a88a65!8m2!3d54.4329361!4d18.4555491!16s%2Fg%2F1tdflzdf!19sChIJK_Vh4OSh_UYRZYqoAj2SlzI?authuser=0&hl=en&rclk=1
54.4093173,18.5666033,bar,Bar piwny,https://www.google.com/maps/place/Bar+piwny/data=!4m7!3m6!1s0x46fd7532de259251:0x680546ba41d1c79!8m2!3d54.4093173!4d18.5666033!16s%2Fg%2F1tdcknr2!19sChIJUZIl3jJ1_UYReRwdpGtUgAY?authuser=0&hl=en&rclk=1
54.4094335,18.5669921,bar,Bar bistro,https://www.google.com/maps/place/Bar+bistro/data=!4m7!3m6!1s0x46fd75fce2efb4ed:0xb8eb3b140e4bb9dd!8m2!3d54.4094335!4d18.5669921!16s%2Fg%2F11t47cz2_6!19sChIJ7bTv4vx1_UYR3blLDhQ767g?authuser=0&hl=en&rclk=1
54.4113655,18.5578998,bar,Bar Przy Potoku,https://www.google.com/maps/place/Bar+Przy+Potoku/data=!4m7!3m6!1s0x46fd75352e4936b3:0xabf9d96bb34c0771!8m2!3d54.4113655!4d18.5578998!16s%2Fg%2F11c50qhpdx!19sChIJszZJLjV1_UYRcQdMs2vZ-as?authuser=0&hl=en&rclk=1
54.4458708,18.5685527,bar,3 sisters. Club,https://www.google.com/maps/place/3+sisters.+Club/data=!4m7!3m6!1s0x46fd0a92fa13c71b:0xe4f9f1f96f192751!8m2!3d54.4458708!4d18.5685527!16s%2Fg%2F12hk3jyz3!19sChIJG8cT-pIK_UYRUScZb_nx-eQ?authuser=0&hl=en&rclk=1
54.4032954,18.6813597,bar,Bar 呕ywiec,https://www.google.com/maps/place/Bar+%C5%BBywiec/data=!4m7!3m6!1s0x46fd0cb0a93ba913:0xf79e62bc6ba7f7c1!8m2!3d54.4032954!4d18.6813597!16s%2Fg%2F11b_03p_b6!19sChIJE6k7qbAM_UYRwfena7xinvc?authuser=0&hl=en&rclk=1
54.4065377,18.639003,bar,"Gem. Bar, catering, special events","https://www.google.com/maps/place/Gem.+Bar,+catering,+special+events/data=!4m7!3m6!1s0x46fd0b4e3b3b36e7:0xe2854898925f1697!8m2!3d54.4065377!4d18.639003!16s%2Fg%2F1td5vvps!19sChIJ5zY7O04L_UYRlxZfkphIheI?authuser=0&hl=en&rclk=1"
54.4097801,18.6033605,bar,Akrim,https://www.google.com/maps/place/Akrim/data=!4m7!3m6!1s0x46fd0b2dd04afc7d:0x30eda672dc98dc00!8m2!3d54.4097801!4d18.6033605!16s%2Fg%2F11c6s1lhvd!19sChIJffxK0C0L_UYRANyY3HKm7TA?authuser=0&hl=en&rclk=1
54.4324789,18.4853941,bar,Bistro Barbik,https://www.google.com/maps/place/Bistro+Barbik/data=!4m7!3m6!1s0x46fda024f78090c5:0x3577c2e116c6a08b!8m2!3d54.4324789!4d18.4853941!16s%2Fg%2F1tdcq6k1!19sChIJxZCA9ySg_UYRi6DGFuHCdzU?authuser=0&hl=en&rclk=1
54.410593,18.534541,bar,Bar Przystanek Przekska,https://www.google.com/maps/place/Bar+Przystanek+Przek%C4%85ska/data=!4m7!3m6!1s0x46fd75458f5d1053:0xc403d074a3ee080c!8m2!3d54.410593!4d18.534541!16s%2Fg%2F11t9ll98p1!19sChIJUxBdj0V1_UYRDAjuo3TQA8Q?authuser=0&hl=en&rclk=1
54.4205807,18.5669217,bar,Grill Bar Merc. Bar,https://www.google.com/maps/place/Grill+Bar+Merc.+Bar/data=!4m7!3m6!1s0x46fd0ac892219777:0xfeb995811e57f523!8m2!3d54.4205807!4d18.5669217!16s%2Fg%2F1v1sjxtb!19sChIJd5chksgK_UYRI_VXHoGVuf4?authuser=0&hl=en&rclk=1
54.4339595,18.5635584,bar,Instytut Spraw Wszelakich,https://www.google.com/maps/place/Instytut+Spraw+Wszelakich/data=!4m7!3m6!1s0x46fd0a95f549ec63:0x2edd21f02e25aacc!8m2!3d54.4339595!4d18.5635584!16s%2Fg%2F11byx0sqrx!19sChIJY-xJ9ZUK_UYRzKolLvAh3S4?authuser=0&hl=en&rclk=1
54.4388344,18.5729912,bar,Library Cafe & Bar,https://www.google.com/maps/place/Library+Cafe+%26+Bar/data=!4m7!3m6!1s0x46fd0a934f3a4d9b:0x220195ec7f390dbf!8m2!3d54.4388344!4d18.5729912!16s%2Fg%2F11clvm3chm!19sChIJm006T5MK_UYRvw05f-yVASI?authuser=0&hl=en&rclk=1
54.4370967,18.5802059,bar,Bar Przysta,https://www.google.com/maps/place/Bar+Przysta%C5%84/data=!4m7!3m6!1s0x46fd0aec092ae00b:0xeb51e387335f28f5!8m2!3d54.4370967!4d18.5802059!16s%2Fg%2F1v_vrlyr!19sChIJC-AqCewK_UYR9ShfM4fjUes?authuser=0&hl=en&rclk=1
54.4239376,18.5997903,bar,Apartament Coctail Bar,https://www.google.com/maps/place/Apartament+Coctail+Bar/data=!4m7!3m6!1s0x46fd0be0b1b1da65:0xb4e2677c92a3cb1d!8m2!3d54.4239376!4d18.5997903!16s%2Fg%2F11sbzwbp3z!19sChIJZdqxseAL_UYRHcujknxn4rQ?authuser=0&hl=en&rclk=1
54.4230569,18.601376,bar,B13 Restaurant&Bar,https://www.google.com/maps/place/B13+Restaurant%26Bar/data=!4m7!3m6!1s0x46fd0bc67df4175f:0x42123d4699ecd030!8m2!3d54.4230569!4d18.601376!16s%2Fg%2F11lk13k127!19sChIJXxf0fcYL_UYRMNDsmUY9EkI?authuser=0&hl=en&rclk=1
54.418955,18.5816981,bar,Kmar Bar Mleczny,https://www.google.com/maps/place/Kmar+Bar+Mleczny/data=!4m7!3m6!1s0x46fd0ad07c429687:0xd02c901ad2ebbb18!8m2!3d54.418955!4d18.5816981!16s%2Fg%2F1v82_sx1!19sChIJh5ZCfNAK_UYRGLvr0hqQLNA?authuser=0&hl=en&rclk=1
54.4361672,18.5822933,bar,Bar 33,https://www.google.com/maps/place/Bar+33/data=!4m7!3m6!1s0x46fd0ae93712704b:0x5ac015f87e16114!8m2!3d54.4361672!4d18.5822933!16s%2Fg%2F119vw_zd1!19sChIJS3ASN-kK_UYRFGHhh18BrAU?authuser=0&hl=en&rclk=1
54.4218961,18.6023436,bar,Bar Pla偶a,https://www.google.com/maps/place/Bar+Pla%C5%BCa/data=!4m7!3m6!1s0x46fd0b1d1b47f327:0x5a7e8de86faa63c0!8m2!3d54.4218961!4d18.6023436!16s%2Fg%2F11f8hwckkd!19sChIJJ_NHGx0L_UYRwGOqb-iNflo?authuser=0&hl=en&rclk=1
54.4220441,18.6023977,bar,Fala. Bar. Dutkiewicz R.,https://www.google.com/maps/place/Fala.+Bar.+Dutkiewicz+R./data=!4m7!3m6!1s0x46fd0b212bb0c9f5:0xe14e1d500be5abe9!8m2!3d54.4220441!4d18.6023977!16s%2Fg%2F1v41z473!19sChIJ9cmwKyEL_UYR6avlC1AdTuE?authuser=0&hl=en&rclk=1
54.4104672,18.6292381,bar,Bar U Chiefa,https://www.google.com/maps/place/Bar+U+Chiefa/data=!4m7!3m6!1s0x46fd0b52fe9d9e85:0xae8cf28f0936ac3e!8m2!3d54.4104672!4d18.6292381!16s%2Fg%2F11s3cm6j0d!19sChIJhZ6d_lIL_UYRPqw2CY_yjK4?authuser=0&hl=en&rclk=1
54.390095,18.639225,bar,T29 Sports Pub,https://www.google.com/maps/place/T29+Sports+Pub/data=!4m7!3m6!1s0x46fd74a8dea19313:0x5082204ec5447a6f!8m2!3d54.390095!4d18.639225!16s%2Fg%2F1q62md029!19sChIJE5Oh3qh0_UYRb3pExU4gglA?authuser=0&hl=en&rclk=1
54.401912,18.6714409,bar,BarCocktail- Centrum Usug Barmaskich,https://www.google.com/maps/place/BarCocktail-+Centrum+Us%C5%82ug+Barma%C5%84skich/data=!4m7!3m6!1s0x46fd0ab5808d1c69:0xe84e1b9bd0e4b3c4!8m2!3d54.401912!4d18.6714409!16s%2Fg%2F11b6v64nws!19sChIJaRyNgLUK_UYRxLPk0JsbTug?authuser=0&hl=en&rclk=1
54.410045,18.6061457,bar,Whiskey On The Rocks,https://www.google.com/maps/place/Whiskey+On+The+Rocks/data=!4m7!3m6!1s0x46fd0a90e3470949:0x14206d58282aa8be!8m2!3d54.410045!4d18.6061457!16s%2Fg%2F11bzsf17_f!19sChIJSQlH45AK_UYRvqgqKFhtIBQ?authuser=0&hl=en&rclk=1
54.4108646,18.6294606,bar,Tapas Rybka,https://www.google.com/maps/place/Tapas+Rybka/data=!4m7!3m6!1s0x46fd0b4864771f85:0xa2709bd00029435a!8m2!3d54.4108646!4d18.6294606!16s%2Fg%2F1hm2664rk!19sChIJhR93ZEgL_UYRWkMpANCbcKI?authuser=0&hl=en&rclk=1
54.4045394,18.6270996,bar,Sto贸wka | Bar | Kuchnia tradycyjna,https://www.google.com/maps/place/Sto%C5%82%C3%B3wka+%7C+Bar+%7C+Kuchnia+tradycyjna/data=!4m7!3m6!1s0x46fd0b11ddca9669:0x575c6d3e622cf4cc!8m2!3d54.4045394!4d18.6270996!16s%2Fg%2F11gj56q9sl!19sChIJaZbK3REL_UYRzPQsYj5tXFc?authuser=0&hl=en&rclk=1
54.3485187,18.6540041,bar,Fahrenheit by Jack's | Best Restaurant in Gdansk,https://www.google.com/maps/place/Fahrenheit+by+Jack's+%7C+Best+Restaurant+in+Gdansk/data=!4m7!3m6!1s0x46fd73a1ccd069c3:0xd90989e06e90812!8m2!3d54.3485187!4d18.6540041!16s%2Fg%2F11byx7y1b9!19sChIJw2nQzKFz_UYREgjpBp6YkA0?authuser=0&hl=en&rclk=1
54.3478225,18.6568074,bar,Salty Bar,https://www.google.com/maps/place/Salty+Bar/data=!4m7!3m6!1s0x46fd7346ca9a586f:0x869e400dc3ac129!8m2!3d54.3478225!4d18.6568074!16s%2Fg%2F11j8kg8w4z!19sChIJb1iaykZz_UYRKcE63ADkaQg?authuser=0&hl=en&rclk=1
54.393893,18.5687389,bar,INDEX Klubokawiarnia & Whisky Lounge,https://www.google.com/maps/place/INDEX+Klubokawiarnia+%26+Whisky+Lounge/data=!4m7!3m6!1s0x46fd752a11f5c391:0x8538a55d6c668dd1!8m2!3d54.393893!4d18.5687389!16s%2Fg%2F11k04n6mpz!19sChIJkcP1ESp1_UYR0Y1mbF2lOIU?authuser=0&hl=en&rclk=1
54.4015072,18.5725126,bar,Ludovisko,https://www.google.com/maps/place/Ludovisko/data=!4m7!3m6!1s0x46fd73a04d30fcdf:0xf4a542deaa00341d!8m2!3d54.4015072!4d18.5725126!16s%2Fg%2F1tfphhmx!19sChIJ3_wwTaBz_UYRHTQAqt5CpfQ?authuser=0&hl=en&rclk=1
54.4124762,18.58537,bar,Kropka. Klub. Smtek M.,https://www.google.com/maps/place/Kropka.+Klub.+Sm%C4%99tek+M./data=!4m7!3m6!1s0x46fd0ad42ff8f8ff:0xad45adbc058a2153!8m2!3d54.4124762!4d18.58537!16s%2Fg%2F1v3hyp3n!19sChIJ__j4L9QK_UYRUyGKBbytRa0?authuser=0&hl=en&rclk=1
54.4130896,18.598444,bar,Bar Mleczny Jaros,https://www.google.com/maps/place/Bar+Mleczny+Jaros/data=!4m7!3m6!1s0x46fd0b293cd3c0db:0x4d91fe00f2dc3cfc!8m2!3d54.4130896!4d18.598444!16s%2Fg%2F11c0r5rcnq!19sChIJ28DTPCkL_UYR_Dzc8gD-kU0?authuser=0&hl=en&rclk=1
54.4072115,18.638575,bar,Bar Ptla,https://www.google.com/maps/place/Bar+P%C4%99tla/data=!4m7!3m6!1s0x46fd0be45331c5b5:0xdc3b24c9b798f545!8m2!3d54.4072115!4d18.638575!16s%2Fg%2F11q23jrx66!19sChIJtcUxU-QL_UYRRfWYt8kkO9w?authuser=0&hl=en&rclk=1
54.4028233,18.6813749,bar,Bar Przysta,https://www.google.com/maps/place/Bar+Przysta%C5%84/data=!4m7!3m6!1s0x46fd0dce7cce366d:0x1070cdd458e19cd8!8m2!3d54.4028233!4d18.6813749!16s%2Fg%2F11f7b5p50t!19sChIJbTbOfM4N_UYR2JzhWNTNcBA?authuser=0&hl=en&rclk=1
54.401912,18.6714409,bar,Kawiarnia BarCocktail,https://www.google.com/maps/place/Kawiarnia+BarCocktail/data=!4m7!3m6!1s0x46fd0dc998f3145f:0x213854ea41c672db!8m2!3d54.401912!4d18.6714409!16s%2Fg%2F11k60w1h7m!19sChIJXxTzmMkN_UYR23LGQepUOCE?authuser=0&hl=en&rclk=1
54.3777896,18.6503834,bar,Ruszt Bar,https://www.google.com/maps/place/Ruszt+Bar/data=!4m7!3m6!1s0x46fd735c46afa2eb:0x858feda6c7f16e5f!8m2!3d54.3777896!4d18.6503834!16s%2Fg%2F11b_2fz34l!19sChIJ66KvRlxz_UYRX27xx6btj4U?authuser=0&hl=en&rclk=1
54.3774944,18.658685,bar,Bar Talonik,https://www.google.com/maps/place/Bar+Talonik/data=!4m7!3m6!1s0x46fd7343728c251d:0x678ee5e875c7c54d!8m2!3d54.3774944!4d18.658685!16s%2Fg%2F11fxy13xzf!19sChIJHSWMckNz_UYRTcXHdejljmc?authuser=0&hl=en&rclk=1
54.3706877,18.6605627,bar,Ruszt Bar,https://www.google.com/maps/place/Ruszt+Bar/data=!4m7!3m6!1s0x46fd73df9931935d:0x1bb4e35059f6d7ab!8m2!3d54.3706877!4d18.6605627!16s%2Fg%2F11h_wxt6t9!19sChIJXZMxmd9z_UYRq9f2WVDjtBs?authuser=0&hl=en&rclk=1
54.35024,18.651048,bar,Craft Cocktails - Cocktail Bar,https://www.google.com/maps/place/Craft+Cocktails+-+Cocktail+Bar/data=!4m7!3m6!1s0x46fd73a007e95f35:0x8ae082032d6c514f!8m2!3d54.35024!4d18.651048!16s%2Fg%2F11c4760wrj!19sChIJNV_pB6Bz_UYRT1FsLQOC4Io?authuser=0&hl=en&rclk=1
54.3471959,18.6550183,bar,Maa Sztuka Cocktail Bar - Gdask r贸dmiecie,https://www.google.com/maps/place/Ma%C5%82a+Sztuka+Cocktail+Bar+-+Gda%C5%84sk+%C5%9Ar%C3%B3dmie%C5%9Bcie/data=!4m7!3m6!1s0x46fd73a1a497c853:0xd389543b41eb56f8!8m2!3d54.3471959!4d18.6550183!16s%2Fg%2F11c2ntd7tx!19sChIJU8iXpKFz_UYR-FbrQTtUidM?authuser=0&hl=en&rclk=1
54.3536354,18.6584046,bar,H5 Bar,https://www.google.com/maps/place/H5+Bar/data=!4m7!3m6!1s0x46fd731d9f838735:0x8f77d045bd54a845!8m2!3d54.3536354!4d18.6584046!16s%2Fg%2F11fl_xk1cm!19sChIJNYeDnx1z_UYRRahUvUXQd48?authuser=0&hl=en&rclk=1
54.3675842,18.7766659,bar,Tawerna Trafalgar AZS Galion,https://www.google.com/maps/place/Tawerna+Trafalgar+AZS+Galion/data=!4m7!3m6!1s0x46fd6d57c9e432af:0x53f39a12da8798d1!8m2!3d54.3675842!4d18.7766659!16s%2Fg%2F11bzywhjsd!19sChIJrzLkyVdt_UYR0ZiH2hKa81M?authuser=0&hl=en&rclk=1
54.351918,18.657729,bar,Cocktail Bar Pocig do... Gdask,https://www.google.com/maps/place/Cocktail+Bar+Poci%C4%85g+do...+Gda%C5%84sk/data=!4m7!3m6!1s0x46fd730a932aaf81:0x84aada3dc93cda7e!8m2!3d54.351918!4d18.657729!16s%2Fg%2F11dylvfrh2!19sChIJga8qkwpz_UYRfto8yT3aqoQ?authuser=0&hl=en&rclk=1
54.34822,18.6655669,bar,Bar Mleczny,https://www.google.com/maps/place/Bar+Mleczny/data=!4m7!3m6!1s0x46fd73f8782b03c5:0x3515edf76df36c8d!8m2!3d54.34822!4d18.6655669!16s%2Fg%2F11h7fyct63!19sChIJxQMrePhz_UYRjWzzbfftFTU?authuser=0&hl=en&rclk=1
54.4031081,18.5709748,bar,Tiki Bar,https://www.google.com/maps/place/Tiki+Bar/data=!4m7!3m6!1s0x46fd75809dc85f77:0xa24d267245f46a0e!8m2!3d54.4031081!4d18.5709748!16s%2Fg%2F11rjv7hhdr!19sChIJd1_InYB1_UYRDmr0RXImTaI?authuser=0&hl=en&rclk=1
54.4013307,18.5773623,bar,Rozii Night Club Gdask,https://www.google.com/maps/place/Rozii+Night+Club+Gda%C5%84sk/data=!4m7!3m6!1s0x46fd7529121598f3:0xeb3837ac17002cef!8m2!3d54.4013307!4d18.5773623!16s%2Fg%2F1tfx3lmn!19sChIJ85gVEil1_UYR7ywAF6w3OOs?authuser=0&hl=en&rclk=1
54.3854606,18.5927537,bar,Pub Sp贸dzielczy,https://www.google.com/maps/place/Pub+Sp%C3%B3%C5%82dzielczy/data=!4m7!3m6!1s0x46fd74c2ee0ba439:0x1a7905ff63cc936a!8m2!3d54.3854606!4d18.5927537!16s%2Fg%2F11bxb6m92f!19sChIJOaQL7sJ0_UYRapPMY_8FeRo?authuser=0&hl=en&rclk=1
54.3909886,18.6107438,bar,Bar Amnezja,https://www.google.com/maps/place/Bar+Amnezja/data=!4m7!3m6!1s0x46fd75dd18c9fbc3:0x3a5f1963dcebde66!8m2!3d54.3909886!4d18.6107438!16s%2Fg%2F11g18wvcsx!19sChIJw_vJGN11_UYRZt7r3GMZXzo?authuser=0&hl=en&rclk=1
54.3938685,18.5935626,bar,Screenpub,https://www.google.com/maps/place/Screenpub/data=!4m7!3m6!1s0x46fd74dabe88fbff:0xbf437deed6e85a21!8m2!3d54.3938685!4d18.5935626!16s%2Fg%2F11h1p7p1q!19sChIJ__uIvtp0_UYRIVro1u59Q78?authuser=0&hl=en&rclk=1
54.3928929,18.6055133,bar,Pub Fala,https://www.google.com/maps/place/Pub+Fala/data=!4m7!3m6!1s0x46fd752f99fb0185:0x112a45fe47e92acf!8m2!3d54.3928929!4d18.6055133!16s%2Fg%2F11p15r4810!19sChIJhQH7mS91_UYRzyrpR_5FKhE?authuser=0&hl=en&rclk=1
54.398454,18.610141,bar,Pizza Bar Oliwkowy Zaktek,https://www.google.com/maps/place/Pizza+Bar+Oliwkowy+Zak%C4%85tek/data=!4m7!3m6!1s0x46fd75a1674b752f:0xc6d49f2059a6d369!8m2!3d54.398454!4d18.610141!16s%2Fg%2F11sqhf29ql!19sChIJL3VLZ6F1_UYRadOmWSCf1MY?authuser=0&hl=en&rclk=1
54.3915306,18.6579755,bar,Bistro Smaczny Ro偶ek,https://www.google.com/maps/place/Bistro+Smaczny+Ro%C5%BCek/data=!4m7!3m6!1s0x46fd733219ba9a7b:0x2e861bbc75d47b71!8m2!3d54.3915306!4d18.6579755!16s%2Fg%2F11h3tj5tjt!19sChIJe5q6GTJz_UYRcXvUdbwbhi4?authuser=0&hl=en&rclk=1
54.3827289,18.6239312,bar,"Bar studencki ""YELLOWBAR""",https://www.google.com/maps/place/Bar+studencki+%22YELLOWBAR%22/data=!4m7!3m6!1s0x46fd759942c62d59:0xde0d6eb634164980!8m2!3d54.3827289!4d18.6239312!16s%2Fg%2F11s54mlpgc!19sChIJWS3GQpl1_UYRgEkWNLZuDd4?authuser=0&hl=en&rclk=1
54.3701009,18.6596753,bar,Bar Imbir,https://www.google.com/maps/place/Bar+Imbir/data=!4m7!3m6!1s0x46fd7399eb39023f:0x27da85631dea6de5!8m2!3d54.3701009!4d18.6596753!16s%2Fg%2F11fqc11b_k!19sChIJPwI565lz_UYR5W3qHWOF2ic?authuser=0&hl=en&rclk=1
54.3787656,18.5835776,bar,Bar czaru,https://www.google.com/maps/place/Bar+czaru%C5%9B/data=!4m7!3m6!1s0x46fd752ebfe07b63:0x37e99f74f9a5d34e!8m2!3d54.3787656!4d18.5835776!16s%2Fg%2F11t6xj619l!19sChIJY3vgvy51_UYRTtOl-XSf6Tc?authuser=0&hl=en&rclk=1
54.3836111,18.5888889,bar,ELIKSIR Restaurant & Cocktailbar,https://www.google.com/maps/place/ELIKSIR+Restaurant+%26+Cocktailbar/data=!4m7!3m6!1s0x46fd74e805fefcd1:0x3a9c6c0390ed886c!8m2!3d54.3836111!4d18.5888889!16s%2Fg%2F11bx0dhvs0!19sChIJ0fz-Beh0_UYRbIjtkANsnDo?authuser=0&hl=en&rclk=1
54.3789425,18.6167713,bar,Encyk Bar,https://www.google.com/maps/place/Encyk+Bar/data=!4m7!3m6!1s0x46fd74978baf31f3:0x1d54423dafb126c5!8m2!3d54.3789425!4d18.6167713!16s%2Fg%2F11c0vs4w23!19sChIJ8zGvi5d0_UYRxSaxrz1CVB0?authuser=0&hl=en&rclk=1
54.3767577,18.614744,bar,Sports Pub,https://www.google.com/maps/place/Sports+Pub/data=!4m7!3m6!1s0x46fd7496fe1de4f1:0xe72adcfef2ae1f30!8m2!3d54.3767577!4d18.614744!16s%2Fg%2F11g68x9htf!19sChIJ8eQd_pZ0_UYRMB-u8v7cKuc?authuser=0&hl=en&rclk=1
54.379153,18.6138761,bar,Bar Kufelek,https://www.google.com/maps/place/Bar+Kufelek/data=!4m7!3m6!1s0x46fd749615bfea01:0xa04efa3ae653b3a4!8m2!3d54.379153!4d18.6138761!16s%2Fg%2F11c0rtn1q_!19sChIJAeq_FZZ0_UYRpLNT5jr6TqA?authuser=0&hl=en&rclk=1
54.3774789,18.6501269,bar,Bar ALICJA,https://www.google.com/maps/place/Bar+ALICJA/data=!4m7!3m6!1s0x46fd735c536b121f:0x8fb4729c3011985e!8m2!3d54.3774789!4d18.6501269!16s%2Fg%2F11c5hj30_l!19sChIJHxJrU1xz_UYRXpgRMJxytI8?authuser=0&hl=en&rclk=1
54.3773896,18.6502895,bar,Bar z daniami,https://www.google.com/maps/place/Bar+z+daniami/data=!4m7!3m6!1s0x46fd734203c33bcd:0x91e851c4b5843fbd!8m2!3d54.3773896!4d18.6502895!16s%2Fg%2F11fn22c6yt!19sChIJzTvDA0Jz_UYRvT-EtcRR6JE?authuser=0&hl=en&rclk=1
54.3599514,18.7091993,bar,Bar Caira,https://www.google.com/maps/place/Bar+Caira/data=!4m7!3m6!1s0x46fd73e325913f89:0x68b757c9ebc49a7f!8m2!3d54.3599514!4d18.7091993!16s%2Fg%2F11gn26k6j8!19sChIJiT-RJeNz_UYRf5rE68lXt2g?authuser=0&hl=en&rclk=1
54.3511096,18.8337861,bar,Bar Lena Wyspa,https://www.google.com/maps/place/Bar+Le%C5%9Bna+Wyspa/data=!4m7!3m6!1s0x46fd6df1a4a1ff6b:0xd426cb4facca1bbc!8m2!3d54.3511096!4d18.8337861!16s%2Fg%2F11g0zxkgk3!19sChIJa_-hpPFt_UYRvBvKrE_LJtQ?authuser=0&hl=en&rclk=1
54.3519139,18.4991232,bar,Bar Robotnik z dostaw,https://www.google.com/maps/place/Bar+Robotnik+z+dostaw%C4%85/data=!4m7!3m6!1s0x46fd73015b0ae187:0x39273efd2d34d9e5!8m2!3d54.3519139!4d18.4991232!16s%2Fg%2F11fzd3bx73!19sChIJh-EKWwFz_UYR5dk0Lf0-Jzk?authuser=0&hl=en&rclk=1
54.3502089,18.5573802,bar,Myliwskie niebo,https://www.google.com/maps/place/My%C5%9Bliwskie+niebo/data=!4m7!3m6!1s0x46fd75d2902b7be9:0x323b971a7cd0fc28!8m2!3d54.3502089!4d18.5573802!16s%2Fg%2F11t6hgdq65!19sChIJ6XsrkNJ1_UYRKPzQfBqXOzI?authuser=0&hl=en&rclk=1
54.3795155,18.6070723,bar,Sloter house PUB,https://www.google.com/maps/place/Sloter+house+PUB/data=!4m7!3m6!1s0x46fd75fc30438925:0x481291d12f7414d2!8m2!3d54.3795155!4d18.6070723!16s%2Fg%2F11j7vmwm85!19sChIJJYlDMPx1_UYR0hR0L9GREkg?authuser=0&hl=en&rclk=1
54.383543,18.6073399,bar,Klimat lounge Gdansk,https://www.google.com/maps/place/Klimat+lounge+Gdansk/data=!4m7!3m6!1s0x46fd75899c982045:0xae3ef36097142ef8!8m2!3d54.383543!4d18.6073399!16s%2Fg%2F11t0w0_ldp!19sChIJRSCYnIl1_UYR-C4Ul2DzPq4?authuser=0&hl=en&rclk=1
54.3586865,18.6835402,bar,Bartenders for You,https://www.google.com/maps/place/Bartenders+for+You/data=!4m7!3m6!1s0x46fd0b4019d6029b:0x37e13f231b9f007a!8m2!3d54.3586865!4d18.6835402!16s%2Fg%2F11mw6_6jlc!19sChIJmwLWGUAL_UYRegCfGyM_4Tc?authuser=0&hl=en&rclk=1
54.369636,18.7294632,bar,Bar Muszelka,https://www.google.com/maps/place/Bar+Muszelka/data=!4m7!3m6!1s0x46fd73d84a834933:0xb740c027ee7472e9!8m2!3d54.369636!4d18.7294632!16s%2Fg%2F11nx24zxd2!19sChIJM0mDSthz_UYR6XJ07ifAQLc?authuser=0&hl=en&rclk=1
54.3476456,18.6655122,bar,The Mars Lounge Bar & Shisha,https://www.google.com/maps/place/The+Mars+Lounge+Bar+%26+Shisha/data=!4m7!3m6!1s0x46fd73efb7d6398d:0x7f7c6853df5327bf!8m2!3d54.3476456!4d18.6655122!16s%2Fg%2F11q2xjpn8c!19sChIJjTnWt-9z_UYRvydT31NofH8?authuser=0&hl=en&rclk=1
54.3439793,18.8279756,bar,MAMI Bar,https://www.google.com/maps/place/MAMI+Bar/data=!4m7!3m6!1s0x46fd6dd9cf6535a3:0xfc597bd3c380c6ac!8m2!3d54.3439793!4d18.8279756!16s%2Fg%2F11szftjn49!19sChIJozVlz9lt_UYRrMaAw9N7Wfw?authuser=0&hl=en&rclk=1
54.3457835,18.8748012,bar,Bar Lodziarnia,https://www.google.com/maps/place/Bar+Lodziarnia/data=!4m7!3m6!1s0x46fd6d0b92609641:0x928f1c957b129ae6!8m2!3d54.3457835!4d18.8748012!16s%2Fg%2F11fv5_7dwr!19sChIJQZZgkgtt_UYR5poSe5Ucj5I?authuser=0&hl=en&rclk=1
54.3373062,18.6024384,bar,GastroStaff Drink Bar,https://www.google.com/maps/place/GastroStaff+Drink+Bar/data=!4m7!3m6!1s0x46fd7585bf8fb50d:0x8959cf9b12e4f2cf!8m2!3d54.3373062!4d18.6024384!16s%2Fg%2F11tc480n7q!19sChIJDbWPv4V1_UYRz_LkEpvPWYk?authuser=0&hl=en&rclk=1
54.377968,18.6086348,bar,Maciu. Bar.,https://www.google.com/maps/place/Maciu%C5%9B.+Bar./data=!4m7!3m6!1s0x46fd7494252ed933:0x5bb57379522a4b0!8m2!3d54.377968!4d18.6086348!16s%2Fg%2F1vcjkyn0!19sChIJM9kuJZR0_UYRsKQilTdXuwU?authuser=0&hl=en&rclk=1
54.3599306,18.5904008,bar,Pub Torpeda,https://www.google.com/maps/place/Pub+Torpeda/data=!4m7!3m6!1s0x46fd74606d84ffff:0xcf7306af6483eb25!8m2!3d54.3599306!4d18.5904008!16s%2Fg%2F11g027j78q!19sChIJ__-EbWB0_UYRJeuDZK8Gc88?authuser=0&hl=en&rclk=1
54.3558319,18.5846023,bar,Stremel Rajmund. Bar gastronomiczny,https://www.google.com/maps/place/Stremel+Rajmund.+Bar+gastronomiczny/data=!4m7!3m6!1s0x46fd745de7ecc80d:0x4a1ef7ee097a660f!8m2!3d54.3558319!4d18.5846023!16s%2Fg%2F1hc10k756!19sChIJDcjs5110_UYRD2Z6Ce73Hko?authuser=0&hl=en&rclk=1
54.3699924,18.6108538,bar,KAROL,https://www.google.com/maps/place/KAROL/data=!4m7!3m6!1s0x46fd749025a286e3:0xb43e3849e7249956!8m2!3d54.3699924!4d18.6108538!16s%2Fg%2F12hrqy52g!19sChIJ44aiJZB0_UYRVpkk50k4PrQ?authuser=0&hl=en&rclk=1
54.369606,18.6102257,bar,Mechaniczna Pomaracza,https://www.google.com/maps/place/Mechaniczna+Pomara%C5%84cza/data=!4m7!3m6!1s0x46fd748fd6fdcf89:0xe241f1be4f708f1e!8m2!3d54.369606!4d18.6102257!16s%2Fg%2F1tj3jrxw!19sChIJic_91o90_UYRHo9wT77xQeI?authuser=0&hl=en&rclk=1
54.3716804,18.6193418,bar,Gastronomia i Serwis s.c. Bar studencki. Nowak I.W.,https://www.google.com/maps/place/Gastronomia+i+Serwis+s.c.+Bar+studencki.+Nowak+I.W./data=!4m7!3m6!1s0x46fd749a540db041:0x2feeab69fc101cb6!8m2!3d54.3716804!4d18.6193418!16s%2Fg%2F1tdb_bbg!19sChIJQbANVJp0_UYRthwQ_Gmr7i8?authuser=0&hl=en&rclk=1
54.3564489,18.6429612,bar,Ikarus. Bar. Sawrasewicz I.,https://www.google.com/maps/place/Ikarus.+Bar.+Sawrasewicz+I./data=!4m7!3m6!1s0x46fd7377b1f3cc8b:0xe4c09b0ca000a9b9!8m2!3d54.3564489!4d18.6429612!16s%2Fg%2F1tgx592q!19sChIJi8zzsXdz_UYRuakAoAybwOQ?authuser=0&hl=en&rclk=1
54.3508319,18.6399912,bar,BAR ZA BRAM,https://www.google.com/maps/place/BAR+ZA+BRAM%C4%84/data=!4m7!3m6!1s0x46fd73ef1b6a6d83:0x22dcad25284976b0!8m2!3d54.3508319!4d18.6399912!16s%2Fg%2F11r7v9bg_v!19sChIJg21qG-9z_UYRsHZJKCWt3CI?authuser=0&hl=en&rclk=1
54.3638025,18.6270806,bar,Bufet Studencki,https://www.google.com/maps/place/Bufet+Studencki/data=!4m7!3m6!1s0x46fd74827e7ce6b7:0xc54306cd4d73ba4a!8m2!3d54.3638025!4d18.6270806!16s%2Fg%2F11fy4vtqn2!19sChIJt-Z8foJ0_UYRSrpzTc0GQ8U?authuser=0&hl=en&rclk=1
54.3536354,18.6584046,bar,Bar F32,https://www.google.com/maps/place/Bar+F32/data=!4m7!3m6!1s0x46fd737411205fdb:0x6a60f0c2179dba25!8m2!3d54.3536354!4d18.6584046!16s%2Fg%2F11hyvmcvd8!19sChIJ218gEXRz_UYRJbqdF8LwYGo?authuser=0&hl=en&rclk=1
54.344923,18.7242621,bar,Cafe Bar Mon Balzac LOTOS,https://www.google.com/maps/place/Cafe+Bar+Mon+Balzac+LOTOS/data=!4m7!3m6!1s0x46fd735224d54adb:0xc26e0be159697997!8m2!3d54.344923!4d18.7242621!16s%2Fg%2F11hsgcsj1k!19sChIJ20rVJFJz_UYRl3lpWeELbsI?authuser=0&hl=en&rclk=1
54.3395972,18.8240999,bar,Sallieri's Bar,https://www.google.com/maps/place/Sallieri's+Bar/data=!4m7!3m6!1s0x46fd6d1bdc35c65d:0x6159f985cfdd32be!8m2!3d54.3395972!4d18.8240999!16s%2Fg%2F11sh4gnmkm!19sChIJXcY13Btt_UYRvjLdz4X5WWE?authuser=0&hl=en&rclk=1
54.3487344,18.6545971,bar,Flisak '76,https://www.google.com/maps/place/Flisak+'76/data=!4m7!3m6!1s0x46fd73a036391d81:0x3953c9de4dcd2b89!8m2!3d54.3487344!4d18.6545971!16s%2Fg%2F1tf19fyd!19sChIJgR05NqBz_UYRiSvNTd7JUzk?authuser=0&hl=en&rclk=1
54.335914,18.934199,bar,Dragon Bar,https://www.google.com/maps/place/Dragon+Bar/data=!4m7!3m6!1s0x46fd6b3922edbe69:0x8605e70584c0fa76!8m2!3d54.335914!4d18.934199!16s%2Fg%2F1td63_h8!19sChIJab7tIjlr_UYRdvrAhAXnBYY?authuser=0&hl=en&rclk=1
54.3197367,18.5008596,bar,Bar Otomin,https://www.google.com/maps/place/Bar+Otomin/data=!4m7!3m6!1s0x46fd777f104d2cff:0x27ff5361bc6f8193!8m2!3d54.3197367!4d18.5008596!16s%2Fg%2F11hdjc3n9h!19sChIJ_yxNEH93_UYRk4FvvGFT_yc?authuser=0&hl=en&rclk=1
54.3506132,18.5870893,bar,Wokbar - Asian Street Food,https://www.google.com/maps/place/Wokbar+-+Asian+Street+Food/data=!4m7!3m6!1s0x46fd750bef748b99:0xbd976000b2b4ce7d!8m2!3d54.3506132!4d18.5870893!16s%2Fg%2F11rrprv3f8!19sChIJmYt07wt1_UYRfc60sgBgl70?authuser=0&hl=en&rclk=1
54.3498833,18.6472472,bar,Bar Kapsel,https://www.google.com/maps/place/Bar+Kapsel/data=!4m7!3m6!1s0x46fd739e5cca5449:0x7ef5391be228ec59!8m2!3d54.3498833!4d18.6472472!16s%2Fg%2F11c7t398pm!19sChIJSVTKXJ5z_UYRWewo4hs59X4?authuser=0&hl=en&rclk=1
54.3504057,18.6474067,bar,Jimmy's PUB,https://www.google.com/maps/place/Jimmy's+PUB/data=!4m7!3m6!1s0x46fd739e6a234619:0xf6bfbeea9e88301d!8m2!3d54.3504057!4d18.6474067!16s%2Fg%2F11cncpfvrh!19sChIJGUYjap5z_UYRHTCInuq-v_Y?authuser=0&hl=en&rclk=1
54.3508752,18.6354317,bar,Bufecik,https://www.google.com/maps/place/Bufecik/data=!4m7!3m6!1s0x46fd7391f7635bbd:0x1895a246e20920f6!8m2!3d54.3508752!4d18.6354317!16s%2Fg%2F11gyklshvg!19sChIJvVtj95Fz_UYR9iAJ4kailRg?authuser=0&hl=en&rclk=1
54.3480053,18.6708797,bar,501. PHU. Bar gastronomiczny. Tychonowska E.,https://www.google.com/maps/place/501.+PHU.+Bar+gastronomiczny.+Tychonowska+E./data=!4m7!3m6!1s0x46fd73a81aea4949:0x1c3afb4771cfba2a!8m2!3d54.3480053!4d18.6708797!16s%2Fg%2F1hc290dj9!19sChIJSUnqGqhz_UYRKrrPcUf7Ohw?authuser=0&hl=en&rclk=1
54.3495,18.795738,bar,Biegus. Bar gastronomiczny. Pozdrowska .,https://www.google.com/maps/place/Biegus.+Bar+gastronomiczny.+Pozdrowska+%C5%81./data=!4m7!3m6!1s0x46fd6d15350f954f:0x77762bed94047f91!8m2!3d54.3495!4d18.795738!16s%2Fg%2F1hc2_r0gr!19sChIJT5UPNRVt_UYRkX8ElO0rdnc?authuser=0&hl=en&rclk=1
54.334235,18.9596851,bar,BAR,https://www.google.com/maps/place/BAR/data=!4m7!3m6!1s0x46fd6b27b4692e43:0x2abe9a256405f22f!8m2!3d54.334235!4d18.9596851!16s%2Fg%2F11g9ghgn8b!19sChIJQy5ptCdr_UYRL_IFZCWavio?authuser=0&hl=en&rclk=1
54.3368966,18.6375343,bar,Grill Bar Gdask,https://www.google.com/maps/place/Grill+Bar+Gda%C5%84sk/data=!4m7!3m6!1s0x46fd7394200a2ebf:0x7f8e7784100ec58c!8m2!3d54.3368966!4d18.6375343!16s%2Fg%2F11qnk7ymkw!19sChIJvy4KIJRz_UYRjMUOEIR3jn8?authuser=0&hl=en&rclk=1
54.3486169,18.6552621,bar,Pub pod Chmurk,https://www.google.com/maps/place/Pub+pod+Chmurk%C4%85/data=!4m7!3m6!1s0x46fd7327c3a971e3:0x4fa9e4a58a4f9762!8m2!3d54.3486169!4d18.6552621!16s%2Fg%2F11h6l39vp0!19sChIJ43Gpwydz_UYRYpdPiqXkqU8?authuser=0&hl=en&rclk=1
54.3320178,18.6340314,bar,Nesca. Bar,https://www.google.com/maps/place/Nesca.+Bar/data=!4m7!3m6!1s0x46fd7394b5622607:0xf827fb55b6307e7f!8m2!3d54.3320178!4d18.6340314!16s%2Fg%2F1t_kf6bl!19sChIJByZitZRz_UYRf34wtlX7J_g?authuser=0&hl=en&rclk=1
54.3413052,18.6611742,bar,ka Bar,https://www.google.com/maps/place/%C5%81%C4%85ka+Bar/data=!4m7!3m6!1s0x46fd73261c7c8331:0x7fc8cbc9b698be3!8m2!3d54.3413052!4d18.6611742!16s%2Fg%2F11h6g45pql!19sChIJMYN8HCZz_UYR44tpm7yM_Ac?authuser=0&hl=en&rclk=1
54.325601,18.7459829,bar,KURCZAK Z RO呕NA,https://www.google.com/maps/place/KURCZAK+Z+RO%C5%BBNA/data=!4m7!3m6!1s0x46fd6d3d0c9f3371:0x902d1ab6c727d4fe!8m2!3d54.325601!4d18.7459829!16s%2Fg%2F11q2q1hdy7!19sChIJcTOfDD1t_UYR_tQnx7YaLZA?authuser=0&hl=en&rclk=1
54.3110993,18.5674068,bar,Snack Bar Burger,https://www.google.com/maps/place/Snack+Bar+Burger/data=!4m7!3m6!1s0x46fd777cde0c5a53:0xda0111e1db1879c6!8m2!3d54.3110993!4d18.5674068!16s%2Fg%2F1hhl84247!19sChIJU1oM3nx3_UYRxnkY2-ERAdo?authuser=0&hl=en&rclk=1
54.3203524,18.5514108,bar,Beijing Bar,https://www.google.com/maps/place/Beijing+Bar/data=!4m7!3m6!1s0x46fd778f33b8d18b:0x3a8bff95f519a7e!8m2!3d54.3203524!4d18.5514108!16s%2Fg%2F11hh7lds2y!19sChIJi9G4M493_UYRfppRX_m_qAM?authuser=0&hl=en&rclk=1
54.3445495,18.7247667,bar,Bar Bistro PIT STOP,https://www.google.com/maps/place/Bar+Bistro+PIT+STOP/data=!4m7!3m6!1s0x46fd728b73b09509:0xde2e6098324f0c90!8m2!3d54.3445495!4d18.7247667!16s%2Fg%2F11ggzc3cpj!19sChIJCZWwc4ty_UYRkAxPMphgLt4?authuser=0&hl=en&rclk=1
54.3509524,18.6505388,bar,J盲gspot,https://www.google.com/maps/place/J%C3%A4gspot/data=!4m7!3m6!1s0x46fd739af9c4c9b3:0x9ffd14a6283db3b7!8m2!3d54.3509524!4d18.6505388!16s%2Fg%2F11fm5vjhyw!19sChIJs8nE-Zpz_UYRt7M9KKYU_Z8?authuser=0&hl=en&rclk=1
54.3471353,18.658264,bar,Pub Pixel,https://www.google.com/maps/place/Pub+Pixel/data=!4m7!3m6!1s0x46fd73a122ede6f9:0x771ae9857b835875!8m2!3d54.3471353!4d18.658264!16s%2Fg%2F11bc712kf4!19sChIJ-ebtIqFz_UYRdViDe4XpGnc?authuser=0&hl=en&rclk=1
54.2877788,18.5059533,bar,Panda Sushi,https://www.google.com/maps/place/Panda+Sushi/data=!4m7!3m6!1s0x46fd77b11450608f:0x1fe9d5975a2b6c6e!8m2!3d54.2877788!4d18.5059533!16s%2Fg%2F11p4_kpls3!19sChIJj2BQFLF3_UYRbmwrWpfV6R8?authuser=0&hl=en&rclk=1
54.2921043,18.5308153,bar,Jastny Dw贸r,https://www.google.com/maps/place/Jastny+Dw%C3%B3r/data=!4m7!3m6!1s0x46fd7791ef727a81:0x2493b4781518b314!8m2!3d54.2921043!4d18.5308153!16s%2Fg%2F11gh9p08kg!19sChIJgXpy75F3_UYRFLMYFXi0kyQ?authuser=0&hl=en&rclk=1
54.2678455,18.5666686,bar,Marilyn BAR,https://www.google.com/maps/place/Marilyn+BAR/data=!4m7!3m6!1s0x46fd71287c42e455:0x4035cbee44cb2d58!8m2!3d54.2678455!4d18.5666686!16s%2Fg%2F1td9zcpc!19sChIJVeRCfChx_UYRWC3LRO7LNUA?authuser=0&hl=en&rclk=1
54.261755,18.6345873,bar,Bar & Restauracja FRYTAS,https://www.google.com/maps/place/Bar+%26+Restauracja+FRYTAS/data=!4m7!3m6!1s0x46fd7053f54f4757:0xe4b6d87e65001311!8m2!3d54.261755!4d18.6345873!16s%2Fg%2F1tf_g2w3!19sChIJV0dP9VNw_UYRERMAZX7YtuQ?authuser=0&hl=en&rclk=1
54.259909,18.64867,bar,Bar Zacisze,https://www.google.com/maps/place/Bar+Zacisze/data=!4m7!3m6!1s0x46fd7034444a0c7f:0x2cb1f54fe776d100!8m2!3d54.259909!4d18.64867!16s%2Fg%2F1tt89z16!19sChIJfwxKRDRw_UYRANF250_1sSw?authuser=0&hl=en&rclk=1
54.2568335,18.6415663,bar,Four Winds. Bar. Urbanowicz K.,https://www.google.com/maps/place/Four+Winds.+Bar.+Urbanowicz+K./data=!4m7!3m6!1s0x46fd704dfcc76287:0x319da134787f00c8!8m2!3d54.2568335!4d18.6415663!16s%2Fg%2F1tgg8np4!19sChIJh2LH_E1w_UYRyAB_eDShnTE?authuser=0&hl=en&rclk=1
54.247892,18.6375718,bar,Bar 3 x TAK,https://www.google.com/maps/place/Bar+3+x+TAK/data=!4m7!3m6!1s0x46fd71baa27a0287:0xae8a1e2d01f9fc71!8m2!3d54.247892!4d18.6375718!16s%2Fg%2F11flvdd85m!19sChIJhwJ6orpx_UYRcfz5AS0eiq4?authuser=0&hl=en&rclk=1
54.2596734,18.6389427,bar,Bistro Stodoa,https://www.google.com/maps/place/Bistro+Stodo%C5%82a/data=!4m7!3m6!1s0x46fd70525066e7ef:0x6760edb44677e2e0!8m2!3d54.2596734!4d18.6389427!16s%2Fg%2F11f15lynb2!19sChIJ7-dmUFJw_UYR4OJ3RrTtYGc?authuser=0&hl=en&rclk=1
54.2582407,18.648056,bar,"BAR ""SMACZEK"" ZAPIEKANKI HAMBURGERY OBIADY",https://www.google.com/maps/place/BAR+%22SMACZEK%22+ZAPIEKANKI+HAMBURGERY+OBIADY/data=!4m7!3m6!1s0x46fd7048a2d9f117:0xc52e66f4cc7a4683!8m2!3d54.2582407!4d18.648056!16s%2Fg%2F11xh73tpw!19sChIJF_HZokhw_UYRg0Z6zPRmLsU?authuser=0&hl=en&rclk=1
54.2707405,18.5895023,bar,Mona,https://www.google.com/maps/place/Mona/data=!4m7!3m6!1s0x46fd70df59bcb3f5:0x128ce9568ce13ab9!8m2!3d54.2707405!4d18.5895023!16s%2Fg%2F11g_rfrfd!19sChIJ9bO8Wd9w_UYRuTrhjFbpjBI?authuser=0&hl=en&rclk=1
54.2247008,18.6443901,bar,Bar u Oli,https://www.google.com/maps/place/Bar+u+Oli/data=!4m7!3m6!1s0x46fd71bd6532b1ad:0xfd6f861204301a90!8m2!3d54.2247008!4d18.6443901!16s%2Fg%2F11h77l_0ks!19sChIJrbEyZb1x_UYRkBowBBKGb_0?authuser=0&hl=en&rclk=1
