lat,lon,type,title,link
54.4412331,18.4209988,biblioteka,Biblioteka Chwaszczyno,https://www.google.com/maps/place/Biblioteka+Chwaszczyno/data=!4m7!3m6!1s0x46fda1fec51a6623:0x15fa6f65bb6de488!8m2!3d54.4412331!4d18.4209988!16s%2Fg%2F11gh0w8g4p!19sChIJI2Yaxf6h_UYRiORtu2Vv-hU?authuser=0&hl=en&rclk=1
54.4717348,18.4604578,biblioteka,Biblioteka Dąbrowa,https://www.google.com/maps/place/Biblioteka+D%C4%85browa/data=!4m7!3m6!1s0x46fda1a0beb0ed17:0xc798423c14d024c5!8m2!3d54.4717348!4d18.4604578!16s%2Fg%2F1thvwzn6!19sChIJF-2wvqCh_UYRxSTQFDxCmMc?authuser=0&hl=en&rclk=1
54.4307399,18.4688649,biblioteka,Biblioteczka Osowska - biblioteka plenerowa,https://www.google.com/maps/place/Biblioteczka+Osowska+-+biblioteka+plenerowa/data=!4m7!3m6!1s0x46fda13371f770d3:0xac374568485723ce!8m2!3d54.4307399!4d18.4688649!16s%2Fg%2F11j48g4cfb!19sChIJ03D3cTOh_UYRziNXSGhFN6w?authuser=0&hl=en&rclk=1
54.4274717,18.4621383,biblioteka,Biblioteczka Osowska - biblioteka plenerowa,https://www.google.com/maps/place/Biblioteczka+Osowska+-+biblioteka+plenerowa/data=!4m7!3m6!1s0x46fd9f807f8b3bbb:0xa39b710a33e28a47!8m2!3d54.4274717!4d18.4621383!16s%2Fg%2F11gdlzdf1w!19sChIJuzuLf4Cf_UYRR4riMwpxm6M?authuser=0&hl=en&rclk=1
54.4717805,18.4890589,biblioteka,Public Library Branch No. 14,https://www.google.com/maps/place/Public+Library+Branch+No.+14/data=!4m7!3m6!1s0x46fda101c4f03dbd:0x708d25a8f24219af!8m2!3d54.4717805!4d18.4890589!16s%2Fg%2F1tdkqh7j!19sChIJvT3wxAGh_UYRrxlC8qgljXA?authuser=0&hl=en&rclk=1
54.4251166,18.474095,biblioteka,Biblioteczka Osowska - biblioteka plenerowa,https://www.google.com/maps/place/Biblioteczka+Osowska+-+biblioteka+plenerowa/data=!4m7!3m6!1s0x46fd9f87f85f0c41:0x240853fc14383ef9!8m2!3d54.4251166!4d18.474095!16s%2Fg%2F11csp_vhyl!19sChIJQQxf-Ief_UYR-T44FPxTCCQ?authuser=0&hl=en&rclk=1
54.453159,18.3363714,biblioteka,Biblioteka Publiczna. Filia,https://www.google.com/maps/place/Biblioteka+Publiczna.+Filia/data=!4m7!3m6!1s0x46fda27bfbbdf537:0x62067e407474dd91!8m2!3d54.453159!4d18.3363714!16s%2Fg%2F1wg5wq0j!19sChIJN_W9-3ui_UYRkd10dEB-BmI?authuser=0&hl=en&rclk=1
54.3920436,18.4063321,biblioteka,Biblioteka Żukowo - Filia Banino,https://www.google.com/maps/place/Biblioteka+%C5%BBukowo+-+Filia+Banino/data=!4m7!3m6!1s0x46fd9f1e72dd3025:0xccf314ea95046857!8m2!3d54.3920436!4d18.4063321!16s%2Fg%2F1tt1fxy6!19sChIJJTDdch6f_UYRV2gEleoU88w?authuser=0&hl=en&rclk=1
54.4916905,18.5129783,biblioteka,Public Library branch No. 9,https://www.google.com/maps/place/Public+Library+branch+No.+9/data=!4m7!3m6!1s0x46fda0dea76aeb8f:0x6fa48265bd26e05c!8m2!3d54.4916905!4d18.5129783!16s%2Fg%2F1w97t2fg!19sChIJj-tqp96g_UYRXOAmvWWCpG8?authuser=0&hl=en&rclk=1
54.4479226,18.54427,biblioteka,Library Sopot - Branch 6 im.Ireny Suchorzewski,https://www.google.com/maps/place/Library+Sopot+-+Branch+6+im.Ireny+Suchorzewski/data=!4m7!3m6!1s0x46fda077ff2321fd:0x69a2ee7aae663f85!8m2!3d54.4479226!4d18.54427!16s%2Fg%2F1v3dqttq!19sChIJ_SEj_3eg_UYRhT9mrnruomk?authuser=0&hl=en&rclk=1
54.5000238,18.5147343,biblioteka,Biblioteka Witomino,https://www.google.com/maps/place/Biblioteka+Witomino/data=!4m7!3m6!1s0x46fda0d70b5b93ef:0x4130b074c4e2263f!8m2!3d54.5000238!4d18.5147343!16s%2Fg%2F1tdl4v0_!19sChIJ75NbC9eg_UYRPybixHSwMEE?authuser=0&hl=en&rclk=1
54.4605361,18.5495135,biblioteka,Biblioteka Sopocka – filia Kamionka,https://www.google.com/maps/place/Biblioteka+Sopocka+%E2%80%93+filia+Kamionka/data=!4m7!3m6!1s0x46fda08059a5d6e3:0xacfec0594f1ca08f!8m2!3d54.4605361!4d18.5495135!16s%2Fg%2F1tfp14j4!19sChIJ49alWYCg_UYRj6AcT1nA_qw?authuser=0&hl=en&rclk=1
54.4190895,18.4780779,biblioteka,Biblioteczka Osowska - biblioteka plenerowa,https://www.google.com/maps/place/Biblioteczka+Osowska+-+biblioteka+plenerowa/data=!4m7!3m6!1s0x46fd9ff8a9b2b353:0xe07dbd4039b48516!8m2!3d54.4190895!4d18.4780779!16s%2Fg%2F11fn0l45jr!19sChIJU7Oyqfif_UYRFoW0OUC9feA?authuser=0&hl=en&rclk=1
54.457511,18.5357738,biblioteka,Biblioteka Sopocka – filia Broadway,https://www.google.com/maps/place/Biblioteka+Sopocka+%E2%80%93+filia+Broadway/data=!4m7!3m6!1s0x46fda07cde3978cb:0x5ae1d55f9519856e!8m2!3d54.457511!4d18.5357738!16s%2Fg%2F11c1tl40z8!19sChIJy3g53nyg_UYRboUZlV_V4Vo?authuser=0&hl=en&rclk=1
54.4539251,18.5489578,biblioteka,City Public Library. Joseph Wybicki Branch,https://www.google.com/maps/place/City+Public+Library.+Joseph+Wybicki+Branch/data=!4m7!3m6!1s0x46fd0a81e276d38d:0xd17fee0b10d86258!8m2!3d54.4539251!4d18.5489578!16s%2Fg%2F1tg804sx!19sChIJjdN24oEK_UYRWGLYEAvuf9E?authuser=0&hl=en&rclk=1
54.4482807,18.5594605,biblioteka,Biblioteka Sopocka im. Józefa Wybickiego,https://www.google.com/maps/place/Biblioteka+Sopocka+im.+J%C3%B3zefa+Wybickiego/data=!4m7!3m6!1s0x46fd0a901986a921:0xbbb76fd93c71497b!8m2!3d54.4482807!4d18.5594605!16s%2Fg%2F1tmbttdj!19sChIJIamGGZAK_UYRe0lxPNlvt7s?authuser=0&hl=en&rclk=1
54.4408851,18.5628287,biblioteka,Library Sopot - Sopoteka,https://www.google.com/maps/place/Library+Sopot+-+Sopoteka/data=!4m7!3m6!1s0x46fd0a9110c2727d:0x4656d6ad3b2cc786!8m2!3d54.4408851!4d18.5628287!16s%2Fg%2F11bxdtxkdm!19sChIJfXLCEJEK_UYRhscsO63WVkY?authuser=0&hl=en&rclk=1
54.4441061,18.5564431,biblioteka,Biblioteka Ekonomiczna Uniwersytetu Gdańskiego,https://www.google.com/maps/place/Biblioteka+Ekonomiczna+Uniwersytetu+Gda%C5%84skiego/data=!4m7!3m6!1s0x46fd0a9aefd10ff5:0x3908ecbc2bb50020!8m2!3d54.4441061!4d18.5564431!16s%2Fg%2F1tq6c5lr!19sChIJ9Q_R75oK_UYRIAC1K7zsCDk?authuser=0&hl=en&rclk=1
54.4396721,18.5705799,biblioteka,Biblioteka Sopocka - filia Koc i Książka,https://www.google.com/maps/place/Biblioteka+Sopocka+-+filia+Koc+i+Ksi%C4%85%C5%BCka/data=!4m7!3m6!1s0x46fd0a930b59e37b:0xf5b3019c329a85aa!8m2!3d54.4396721!4d18.5705799!16s%2Fg%2F11b7gxznlj!19sChIJe-NZC5MK_UYRqoWaMpwBs_U?authuser=0&hl=en&rclk=1
54.444695,18.561932,biblioteka,Anglo-American-Polish-Association przy Miejskiej Bibliotece Publicznej,https://www.google.com/maps/place/Anglo-American-Polish-Association+przy+Miejskiej+Bibliotece+Publicznej/data=!4m7!3m6!1s0x46fd0a901986a921:0x420bbd896cf9a26e!8m2!3d54.444695!4d18.561932!16s%2Fg%2F1tdxp428!19sChIJIamGGZAK_UYRbqL5bIm9C0I?authuser=0&hl=en&rclk=1
54.419794,18.5595318,biblioteka,Biblioteka Główna Akademii Wychowania Fizycznego i Sportu im. J. Śniadeckiego,https://www.google.com/maps/place/Biblioteka+G%C5%82%C3%B3wna+Akademii+Wychowania+Fizycznego+i+Sportu+im.+J.+%C5%9Aniadeckiego/data=!4m7!3m6!1s0x46fd0ac835ce2f91:0xea12cbab872ccc0a!8m2!3d54.419794!4d18.5595318!16s%2Fg%2F1tgg8nnc!19sChIJkS_ONcgK_UYRCswsh6vLEuo?authuser=0&hl=en&rclk=1
54.4207751,18.5838449,biblioteka,Biblioteka Żabianka (Filia WiMBP),https://www.google.com/maps/place/Biblioteka+%C5%BBabianka+(Filia+WiMBP)/data=!4m7!3m6!1s0x46fd0ada5c0c846d:0xbc3dbd971fc0040d!8m2!3d54.4207751!4d18.5838449!16s%2Fg%2F1tff1qsf!19sChIJbYQMXNoK_UYRDQTAH5e9Pbw?authuser=0&hl=en&rclk=1
54.4442557,18.5567019,biblioteka,Xeroteka - ksero Sopot Biblioteka Uniwersytet Gdański,https://www.google.com/maps/place/Xeroteka+-+ksero+Sopot+Biblioteka+Uniwersytet+Gda%C5%84ski/data=!4m7!3m6!1s0x46fd0b25b4494009:0x86974e4d9b03c8b5!8m2!3d54.4442557!4d18.5567019!16s%2Fg%2F11j0yl2w2j!19sChIJCUBJtCUL_UYRtcgDm01Ol4Y?authuser=0&hl=en&rclk=1
54.4097655,18.5642302,biblioteka,Biblioteka Oliwska (Filia WiMBP),https://www.google.com/maps/place/Biblioteka+Oliwska+(Filia+WiMBP)/data=!4m7!3m6!1s0x46fd753340e4739b:0x5611e3f3ec7c7786!8m2!3d54.4097655!4d18.5642302!16s%2Fg%2F11c5b5h66q!19sChIJm3PkQDN1_UYRhnd87PPjEVY?authuser=0&hl=en&rclk=1
54.4113894,18.5857624,biblioteka,Provincial Public Library Branch No. 11,https://www.google.com/maps/place/Provincial+Public+Library+Branch+No.+11/data=!4m7!3m6!1s0x46fd0ad5b4bb82f5:0x6e76a6206dd95cf2!8m2!3d54.4113894!4d18.5857624!16s%2Fg%2F1td0rky7!19sChIJ9YK7tNUK_UYR8lzZbSCmdm4?authuser=0&hl=en&rclk=1
54.4136577,18.5972436,biblioteka,Biblioteka na Fali (Filia WiMBP),https://www.google.com/maps/place/Biblioteka+na+Fali+(Filia+WiMBP)/data=!4m7!3m6!1s0x46fd0b291ad589a3:0x5a25200b8a194cb1!8m2!3d54.4136577!4d18.5972436!16s%2Fg%2F1tls1jpx!19sChIJo4nVGikL_UYRsUwZigsgJVo?authuser=0&hl=en&rclk=1
54.411405,18.585769,biblioteka,Biblioteka bez Barier (Filia WiMBP),https://www.google.com/maps/place/Biblioteka+bez+Barier+(Filia+WiMBP)/data=!4m7!3m6!1s0x46fd0bbfb454eff3:0x1adf7a9c9c466b98!8m2!3d54.411405!4d18.585769!16s%2Fg%2F11fl7dms11!19sChIJ8-9UtL8L_UYRmGtGnJx63xo?authuser=0&hl=en&rclk=1
54.3638049,18.4332222,biblioteka,Biblioteka Publiczna Miejsko-Gminna. Filia,https://www.google.com/maps/place/Biblioteka+Publiczna+Miejsko-Gminna.+Filia/data=!4m7!3m6!1s0x46fd9e42a6e7a64f:0x14964b627d51952b!8m2!3d54.3638049!4d18.4332222!16s%2Fg%2F1ptxq522j!19sChIJT6bnpkKe_UYRK5VRfWJLlhQ?authuser=0&hl=en&rclk=1
54.3522598,18.5115159,biblioteka,Miejska i Wojewódzka Biblioteka Publiczna w Gdańsku (filia nr 71),https://www.google.com/maps/place/Miejska+i+Wojew%C3%B3dzka+Biblioteka+Publiczna+w+Gda%C5%84sku+(filia+nr+71)/data=!4m7!3m6!1s0x46fd75955b485921:0xb9d60ab60427a19a!8m2!3d54.3522598!4d18.5115159!16s%2Fg%2F11c6002dcw!19sChIJIVlIW5V1_UYRmqEnBLYK1rk?authuser=0&hl=en&rclk=1
54.4101601,18.5587859,biblioteka,Biblioteka Im. Ks. Prof. Kazimierza Kloskowskiego,https://www.google.com/maps/place/Biblioteka+Im.+Ks.+Prof.+Kazimierza+Kloskowskiego/data=!4m7!3m6!1s0x46fd753529238b2d:0xe635cc3f130c3b74!8m2!3d54.4101601!4d18.5587859!16s%2Fg%2F11j08bhm_5!19sChIJLYsjKTV1_UYRdDsMEz_MNeY?authuser=0&hl=en&rclk=1
54.4090981,18.5982969,biblioteka,Filia Naukowa (Filia WiMBP),https://www.google.com/maps/place/Filia+Naukowa+(Filia+WiMBP)/data=!4m7!3m6!1s0x46fd0b2c705c457b:0xcc18a649c76dfe2d!8m2!3d54.4090981!4d18.5982969!16s%2Fg%2F1tcwpv66!19sChIJe0VccCwL_UYRLf5tx0mmGMw?authuser=0&hl=en&rclk=1
54.4038825,18.6001325,biblioteka,Biblioteka Babie Lato (Filia WiMBP),https://www.google.com/maps/place/Biblioteka+Babie+Lato+(Filia+WiMBP)/data=!4m7!3m6!1s0x46fd74d2bbed4ac7:0xa35a0253655d8e9b!8m2!3d54.4038825!4d18.6001325!16s%2Fg%2F1tgfntwt!19sChIJx0rtu9J0_UYRm45dZVMCWqM?authuser=0&hl=en&rclk=1
54.4144035,18.5919488,biblioteka,Budka bookcrossingu,https://www.google.com/maps/place/Budka+bookcrossingu/data=!4m7!3m6!1s0x46fd0b358b4f8745:0xdf01fc5c49176c6a!8m2!3d54.4144035!4d18.5919488!16s%2Fg%2F11h62syvv3!19sChIJRYdPizUL_UYRamwXSVz8Ad8?authuser=0&hl=en&rclk=1
54.4043777,18.6288445,biblioteka,Biblioteka Brzeźno (Filia WiMBP),https://www.google.com/maps/place/Biblioteka+Brze%C5%BAno+(Filia+WiMBP)/data=!4m7!3m6!1s0x46fd0b4b8e5cb031:0x7d784df1d03d3151!8m2!3d54.4043777!4d18.6288445!16s%2Fg%2F11c2qww778!19sChIJMbBcjksL_UYRUTE90PFNeH0?authuser=0&hl=en&rclk=1
54.3522567,18.5115743,biblioteka,Kokoszki Library (Branch 71) WiMBP in Gdansk,https://www.google.com/maps/place/Kokoszki+Library+(Branch+71)+WiMBP+in+Gdansk/data=!4m7!3m6!1s0x46fd7594ea70e2e1:0xa2ecc53f530e4f4d!8m2!3d54.3522567!4d18.5115743!16s%2Fg%2F11c2r0x2zs!19sChIJ4eJw6pR1_UYRTU8OUz_F7KI?authuser=0&hl=en&rclk=1
54.3991849,18.571462,biblioteka,Biblioteka Prawna Uniwersytetu Gdańskiego,https://www.google.com/maps/place/Biblioteka+Prawna+Uniwersytetu+Gda%C5%84skiego/data=!4m7!3m6!1s0x46fd752f5d430e79:0x90305513fce58068!8m2!3d54.3991849!4d18.571462!16s%2Fg%2F1tgb614n!19sChIJeQ5DXS91_UYRaIDl_BNVMJA?authuser=0&hl=en&rclk=1
54.3971318,18.5745604,biblioteka,Biblioteka Główna Uniwersytetu Gdańskiego,https://www.google.com/maps/place/Biblioteka+G%C5%82%C3%B3wna+Uniwersytetu+Gda%C5%84skiego/data=!4m7!3m6!1s0x46fd752630cbd85d:0x8fc136b01c8dda97!8m2!3d54.3971318!4d18.5745604!16s%2Fg%2F122mwnhm!19sChIJXdjLMCZ1_UYRl9qNHLA2wY8?authuser=0&hl=en&rclk=1
54.3861812,18.582173,biblioteka,Biblioteka na Strzyży (Filia WiMBP),https://www.google.com/maps/place/Biblioteka+na+Strzy%C5%BCy+(Filia+WiMBP)/data=!4m7!3m6!1s0x46fd74dde565f9cd:0xd5ee03fb04456e61!8m2!3d54.3861812!4d18.582173!16s%2Fg%2F11c2qww6zl!19sChIJzfll5d10_UYRYW5FBPsD7tU?authuser=0&hl=en&rclk=1
54.395736,18.573444,biblioteka,Biblioteka Matematyczno-Fizyczna Uniwersytetu Gdańskiego zlikwidowana,https://www.google.com/maps/place/Biblioteka+Matematyczno-Fizyczna+Uniwersytetu+Gda%C5%84skiego+zlikwidowana/data=!4m7!3m6!1s0x46fd7526506e651b:0x4b8d7eefae9d4ef3!8m2!3d54.395736!4d18.573444!16s%2Fg%2F1tfd129h!19sChIJG2VuUCZ1_UYR806dru9-jUs?authuser=0&hl=en&rclk=1
54.3924705,18.5970632,biblioteka,Biblioteka Pilotów (Filia WiMBP),https://www.google.com/maps/place/Biblioteka+Pilot%C3%B3w+(Filia+WiMBP)/data=!4m7!3m6!1s0x46fd74c5168cf2ed:0x923f94d600802f64!8m2!3d54.3924705!4d18.5970632!16s%2Fg%2F1tk6z5lg!19sChIJ7fKMFsV0_UYRZC-AANaUP5I?authuser=0&hl=en&rclk=1
54.406325,18.6286938,biblioteka,Magazyn Składowy Biblioteki Uniwersytetu Gdańskiego,https://www.google.com/maps/place/Magazyn+Sk%C5%82adowy+Biblioteki+Uniwersytetu+Gda%C5%84skiego/data=!4m7!3m6!1s0x46fd0b4960246aed:0xb1c6b595c06b2d0a!8m2!3d54.406325!4d18.6286938!16s%2Fg%2F1tf85s93!19sChIJ7WokYEkL_UYRCi1rwJW1xrE?authuser=0&hl=en&rclk=1
54.4045905,18.6291151,biblioteka,Wojewódzka Biblioteka Publiczna. Filia nr 16,https://www.google.com/maps/place/Wojew%C3%B3dzka+Biblioteka+Publiczna.+Filia+nr+16/data=!4m7!3m6!1s0x46fd0b4b8e5cb031:0x4cc63b884a1e6358!8m2!3d54.4045905!4d18.6291151!16s%2Fg%2F1trc3nfm!19sChIJMbBcjksL_UYRWGMeSog7xkw?authuser=0&hl=en&rclk=1
54.400053,18.671602,biblioteka,Biblioteka Portowa (Filia WiMBP),https://www.google.com/maps/place/Biblioteka+Portowa+(Filia+WiMBP)/data=!4m7!3m6!1s0x46fd0cb1fcde4b65:0xd7b7f3eddb381c05!8m2!3d54.400053!4d18.671602!16s%2Fg%2F11c61jjhjm!19sChIJZUve_LEM_UYRBRw42-3zt9c?authuser=0&hl=en&rclk=1
54.3871535,18.6261958,biblioteka,Biblioteka Kolonia (Filia WiMBP),https://www.google.com/maps/place/Biblioteka+Kolonia+(Filia+WiMBP)/data=!4m7!3m6!1s0x46fd74bad4c1e2b9:0xdf9ef48fb370ee4a!8m2!3d54.3871535!4d18.6261958!16s%2Fg%2F1w0h663l!19sChIJueLB1Lp0_UYRSu5ws4_0nt8?authuser=0&hl=en&rclk=1
54.3834289,18.6134134,biblioteka,Biblioteka pod Kotem i Myszą (Filia WiMBP),https://www.google.com/maps/place/Biblioteka+pod+Kotem+i+Mysz%C4%85+(Filia+WiMBP)/data=!4m7!3m6!1s0x46fd74be89037213:0x7449799a27975517!8m2!3d54.3834289!4d18.6134134!16s%2Fg%2F1tr9m3gc!19sChIJE3IDib50_UYRF1WXJ5p5SXQ?authuser=0&hl=en&rclk=1
54.3774064,18.6070453,biblioteka,Library Manhattan WiMBP in Gdansk,https://www.google.com/maps/place/Library+Manhattan+WiMBP+in+Gdansk/data=!4m7!3m6!1s0x46fd749446d19051:0xdc120a22d9388a69!8m2!3d54.3774064!4d18.6070453!16s%2Fg%2F11g_ft3_y!19sChIJUZDRRpR0_UYRaYo42SIKEtw?authuser=0&hl=en&rclk=1
54.3505392,18.3705831,biblioteka,Biblioteka Publiczna Samorządowa,https://www.google.com/maps/place/Biblioteka+Publiczna+Samorz%C4%85dowa/data=!4m7!3m6!1s0x46fd9e9fbfba8b09:0xe4176799be085040!8m2!3d54.3505392!4d18.3705831!16s%2Fg%2F1thg945s!19sChIJCYu6v5-e_UYRQFAIvplnF-Q?authuser=0&hl=en&rclk=1
54.3756743,18.5683929,biblioteka,Biblioteka Niedźwiednik (Filia WiMBP),https://www.google.com/maps/place/Biblioteka+Nied%C5%BAwiednik+(Filia+WiMBP)/data=!4m7!3m6!1s0x46fd74fd2e6f9dd3:0xcb4f5615405a1e0d!8m2!3d54.3756743!4d18.5683929!16s%2Fg%2F1tjdvlvb!19sChIJ051vLv10_UYRDR5aQBVWT8s?authuser=0&hl=en&rclk=1
54.3798997,18.28872,biblioteka,Biblioteka Publiczna w Przodkowie,https://www.google.com/maps/place/Biblioteka+Publiczna+w+Przodkowie/data=!4m7!3m6!1s0x46fd99768fc11757:0x774ee635a5382b38!8m2!3d54.3798997!4d18.28872!16s%2Fg%2F1262_84xr!19sChIJVxfBj3aZ_UYROCs4pTXmTnc?authuser=0&hl=en&rclk=1
54.3472949,18.4377816,biblioteka,Biblioteka publiczna,https://www.google.com/maps/place/Biblioteka+publiczna/data=!4m7!3m6!1s0x46fd9f4ca1086a1b:0x506115c9b9780625!8m2!3d54.3472949!4d18.4377816!16s%2Fg%2F11j64qx26_!19sChIJG2oIoUyf_UYRJQZ4uckVYVA?authuser=0&hl=en&rclk=1
54.3972801,18.5771557,biblioteka,Biblioteka Główna UG 02,https://www.google.com/maps/place/Biblioteka+G%C5%82%C3%B3wna+UG+02/data=!4m7!3m6!1s0x46fd7527d91e2a33:0x5ba4d732b35d1c4f!8m2!3d54.3972801!4d18.5771557!16s%2Fg%2F11fj9b_w53!19sChIJMyoe2Sd1_UYRTxxdszLXpFs?authuser=0&hl=en&rclk=1
54.4092922,18.5991039,biblioteka,WiMBP,https://www.google.com/maps/place/WiMBP/data=!4m7!3m6!1s0x46fd0b96530f479f:0xc1b8f4ae2ebc774a!8m2!3d54.4092922!4d18.5991039!16s%2Fg%2F11fqcf5scy!19sChIJn0cPU5YL_UYRSne8Lq70uME?authuser=0&hl=en&rclk=1
54.3815104,18.6231406,biblioteka,Biblioteka Wydziału Farmaceutycznego z Oddziałem Medycyny Laboratoryjnej,https://www.google.com/maps/place/Biblioteka+Wydzia%C5%82u+Farmaceutycznego+z+Oddzia%C5%82em+Medycyny+Laboratoryjnej/data=!4m7!3m6!1s0x46fd74a32a2c499f:0x525e839cfd7a4c34!8m2!3d54.3815104!4d18.6231406!16s%2Fg%2F1tq6c5mm!19sChIJn0ksKqN0_UYRNEx6_ZyDXlI?authuser=0&hl=en&rclk=1
54.3715292,18.6191302,biblioteka,Filia Biblioteki Politechniki Gdańskiej na Wydziale Inżynierii Lądowej i Środowiska,https://www.google.com/maps/place/Filia+Biblioteki+Politechniki+Gda%C5%84skiej+na+Wydziale+In%C5%BCynierii+L%C4%85dowej+i+%C5%9Arodowiska/data=!4m7!3m6!1s0x46fd749a52bd67eb:0x6473536970824ea7!8m2!3d54.3715292!4d18.6191302!16s%2Fg%2F11cnxswb8w!19sChIJ62e9Upp0_UYRp06CcGlTc2Q?authuser=0&hl=en&rclk=1
54.3611189,18.7132743,biblioteka,Biblioteka na Stogach (Filia WiMBP),https://www.google.com/maps/place/Biblioteka+na+Stogach+(Filia+WiMBP)/data=!4m7!3m6!1s0x46fd72e639c757ed:0x10faa9c0fb05875a!8m2!3d54.3611189!4d18.7132743!16s%2Fg%2F11c2qx0p_f!19sChIJ7VfHOeZy_UYRWocF-8Cp-hA?authuser=0&hl=en&rclk=1
54.3605409,18.7119031,biblioteka,"Biblioteka Społeczna Stowarzyszenia ""Przyjazne Pomorze""",https://www.google.com/maps/place/Biblioteka+Spo%C5%82eczna+Stowarzyszenia+%22Przyjazne+Pomorze%22/data=!4m7!3m6!1s0x46fd72e640bcc86f:0x9f46141312ff9b4b!8m2!3d54.3605409!4d18.7119031!16s%2Fg%2F1thd5cls!19sChIJb8i8QOZy_UYRS5v_EhMURp8?authuser=0&hl=en&rclk=1
54.3554766,18.6835096,biblioteka,Biblioteka Przeróbka (Filia WiMBP),https://www.google.com/maps/place/Biblioteka+Przer%C3%B3bka+(Filia+WiMBP)/data=!4m7!3m6!1s0x46fd730484736da5:0xc77c8843caedd23e!8m2!3d54.3554766!4d18.6835096!16s%2Fg%2F1wf20jw4!19sChIJpW1zhARz_UYRPtLtykOIfMc?authuser=0&hl=en&rclk=1
54.3513059,18.6439363,biblioteka,Biblioteka Główna,https://www.google.com/maps/place/Biblioteka+G%C5%82%C3%B3wna/data=!4m7!3m6!1s0x46fd749d9de13b07:0x12b8e0734f040ea0!8m2!3d54.3513059!4d18.6439363!16s%2Fg%2F1td6qy5t!19sChIJBzvhnZ10_UYRoA4ET3PguBI?authuser=0&hl=en&rclk=1
54.3505431,18.6652052,biblioteka,Biblioteka na Grobli (Filia WiMBP),https://www.google.com/maps/place/Biblioteka+na+Grobli+(Filia+WiMBP)/data=!4m7!3m6!1s0x46fd7309c68a47bf:0x16402f4134524eb7!8m2!3d54.3505431!4d18.6652052!16s%2Fg%2F1tslhdvh!19sChIJv0eKxglz_UYRt05SNEEvQBY?authuser=0&hl=en&rclk=1
54.349723,18.655191,biblioteka,Filia Gdańska (Filia WiMBP),https://www.google.com/maps/place/Filia+Gda%C5%84ska+(Filia+WiMBP)/data=!4m7!3m6!1s0x46fd73a015809713:0x1aa98154b74c406f!8m2!3d54.349723!4d18.655191!16s%2Fg%2F1td2slch!19sChIJE5eAFaBz_UYRb0BMt1SBqRo?authuser=0&hl=en&rclk=1
54.3501658,18.6561441,biblioteka,Biblioteka pod Żółwiem (Filia WiMBP),https://www.google.com/maps/place/Biblioteka+pod+%C5%BB%C3%B3%C5%82wiem+(Filia+WiMBP)/data=!4m7!3m6!1s0x46fd73a06d423283:0xeb545f5fa0adca6f!8m2!3d54.3501658!4d18.6561441!16s%2Fg%2F1wl4p8_0!19sChIJgzJCbaBz_UYRb8qtoF9fVOs?authuser=0&hl=en&rclk=1
54.3591216,18.6423888,biblioteka,Biblioteka Ateneum,https://www.google.com/maps/place/Biblioteka+Ateneum/data=!4m7!3m6!1s0x46fd7370abe3ffff:0x12d07a898f9d7270!8m2!3d54.3591216!4d18.6423888!16s%2Fg%2F11fkmywjh7!19sChIJ___jq3Bz_UYRcHKdj4l60BI?authuser=0&hl=en&rclk=1
54.3593525,18.5753621,biblioteka,Regional Public Library. Branch No. 44,https://www.google.com/maps/place/Regional+Public+Library.+Branch+No.+44/data=!4m7!3m6!1s0x46fd74599e4fea75:0xd6c151a89e4788ab!8m2!3d54.3593525!4d18.5753621!16s%2Fg%2F1tfll3ql!19sChIJdepPnll0_UYRq4hHnqhRwdY?authuser=0&hl=en&rclk=1
54.385178,18.5964128,biblioteka,dawna biblioteka ludowa (Volksbibliothek) Fundacji Abegga,https://www.google.com/maps/place/dawna+biblioteka+ludowa+(Volksbibliothek)+Fundacji+Abegga/data=!4m7!3m6!1s0x46fd7528c270a2c3:0x478282bf0e332f27!8m2!3d54.385178!4d18.5964128!16s%2Fg%2F11tcs2jn17!19sChIJw6Jwwih1_UYRJy8zDr-Cgkc?authuser=0&hl=en&rclk=1
54.3769543,18.6225024,biblioteka,Pomorska Biblioteka Pedagogiczna im. Gdańskiej Macierzy Szkolnej w Gdańsku,https://www.google.com/maps/place/Pomorska+Biblioteka+Pedagogiczna+im.+Gda%C5%84skiej+Macierzy+Szkolnej+w+Gda%C5%84sku/data=!4m7!3m6!1s0x46fd74985ad304b5:0xdac567d1c174763f!8m2!3d54.3769543!4d18.6225024!16s%2Fg%2F11r7rkzht!19sChIJtQTTWph0_UYRP3Z0wdFnxdo?authuser=0&hl=en&rclk=1
54.3714759,18.6222251,biblioteka,Regionalna Biblioteka Nanotechnologii,https://www.google.com/maps/place/Regionalna+Biblioteka+Nanotechnologii/data=!4m7!3m6!1s0x46fd758fe45d8043:0x614104dc9223c671!8m2!3d54.3714759!4d18.6222251!16s%2Fg%2F11m_l81yzr!19sChIJQ4Bd5I91_UYRccYjktwEQWE?authuser=0&hl=en&rclk=1
54.3718312,18.6128566,biblioteka,"Filia Biblioteki Politechniki Gdańskiej na Wydziale Elektroniki, Telekomunikacji i Informatyki","https://www.google.com/maps/place/Filia+Biblioteki+Politechniki+Gda%C5%84skiej+na+Wydziale+Elektroniki,+Telekomunikacji+i+Informatyki/data=!4m7!3m6!1s0x46fd752aa8df5047:0xe9662d880260f9a8!8m2!3d54.3718312!4d18.6128566!16s%2Fg%2F11qp0k_wbg!19sChIJR1DfqCp1_UYRqPlgAogtZuk?authuser=0&hl=en&rclk=1"
54.3641755,18.6284487,biblioteka,Main Library of Medical University of Gdansk,https://www.google.com/maps/place/Main+Library+of+Medical+University+of+Gdansk/data=!4m7!3m6!1s0x46fd737d792ff861:0x72b3783b0ca8521e!8m2!3d54.3641755!4d18.6284487!16s%2Fg%2F122zd83p!19sChIJYfgveX1z_UYRHlKoDDt4s3I?authuser=0&hl=en&rclk=1
54.3502709,18.6559278,biblioteka,Regional Public Library. Branch No. 13,https://www.google.com/maps/place/Regional+Public+Library.+Branch+No.+13/data=!4m7!3m6!1s0x46fd7375231f1035:0xef08eb14bcdeca2f!8m2!3d54.3502709!4d18.6559278!16s%2Fg%2F11cnbjkngz!19sChIJNRAfI3Vz_UYRL8revBTrCO8?authuser=0&hl=en&rclk=1
54.3583847,18.64946,biblioteka,Gdansk Library of the Polish Academy of Sciences,https://www.google.com/maps/place/Gdansk+Library+of+the+Polish+Academy+of+Sciences/data=!4m7!3m6!1s0x46fd7371507297a7:0x673ad23939c3a101!8m2!3d54.3583847!4d18.64946!16s%2Fg%2F1210b5m3!19sChIJp5dyUHFz_UYRAaHDOTnSOmc?authuser=0&hl=en&rclk=1
54.3538019,18.6060906,biblioteka,Library,https://www.google.com/maps/place/Library/data=!4m7!3m6!1s0x46fd747c851757e3:0xaf4d8d3c5a288a39!8m2!3d54.3538019!4d18.6060906!16s%2Fg%2F1tjys9c8!19sChIJ41cXhXx0_UYROYooWjyNTa8?authuser=0&hl=en&rclk=1
54.396922,18.5724896,biblioteka,Biblioteka Humanistyczna Uniwersytetu Gdańskiego,https://www.google.com/maps/place/Biblioteka+Humanistyczna+Uniwersytetu+Gda%C5%84skiego/data=!4m7!3m6!1s0x46fd75260d444995:0xf28a6c40a794f221!8m2!3d54.396922!4d18.5724896!16s%2Fg%2F1tdc3xx8!19sChIJlUlEDSZ1_UYRIfKUp0BsivI?authuser=0&hl=en&rclk=1
54.3715292,18.6191302,biblioteka,Gdańsk University of Technology Library,https://www.google.com/maps/place/Gda%C5%84sk+University+of+Technology+Library/data=!4m7!3m6!1s0x46fd739e040de7b1:0x5f78c36c1ec8ced4!8m2!3d54.3715292!4d18.6191302!16s%2Fg%2F1tjgn8w2!19sChIJsecNBJ5z_UYR1M7IHmzDeF8?authuser=0&hl=en&rclk=1
54.3576647,18.6488426,biblioteka,Czytelnia Ogólna i Pokoje Pracy Indywidualnej PAN Biblioteki Gdańskiej,https://www.google.com/maps/place/Czytelnia+Og%C3%B3lna+i+Pokoje+Pracy+Indywidualnej+PAN+Biblioteki+Gda%C5%84skiej/data=!4m7!3m6!1s0x46fd73f3d13f1e33:0x9180b90dd212536a!8m2!3d54.3576647!4d18.6488426!16s%2Fg%2F11sqtyh4q_!19sChIJMx4_0fNz_UYRalMS0g25gJE?authuser=0&hl=en&rclk=1
54.3512679,18.6439217,biblioteka,Pracownia Regionalna (Filia WiMBP),https://www.google.com/maps/place/Pracownia+Regionalna+(Filia+WiMBP)/data=!4m7!3m6!1s0x46fd739dc24b04c9:0x40876ceb90bfb39!8m2!3d54.3512679!4d18.6439217!16s%2Fg%2F11dxc1sksy!19sChIJyQRLwp1z_UYROfsLuc52CAQ?authuser=0&hl=en&rclk=1
54.3535782,18.6473218,biblioteka,Biblioteka Historii Kultury Uniwersytetu Gdańskiego,https://www.google.com/maps/place/Biblioteka+Historii+Kultury+Uniwersytetu+Gda%C5%84skiego/data=!4m7!3m6!1s0x46fd7375df9b4507:0xe7b1afd409987a93!8m2!3d54.3535782!4d18.6473218!16s%2Fg%2F1tcw6wjl!19sChIJB0Wb33Vz_UYRk3qYCdSvsec?authuser=0&hl=en&rclk=1
54.344342,18.82886,biblioteka,Biblioteka na Wyspie (Filia WiMBP),https://www.google.com/maps/place/Biblioteka+na+Wyspie+(Filia+WiMBP)/data=!4m7!3m6!1s0x46fd6ce02290f349:0xd065254b75162729!8m2!3d54.344342!4d18.82886!16s%2Fg%2F11c2q__2dz!19sChIJSfOQIuBs_UYRKScWdUslZdA?authuser=0&hl=en&rclk=1
54.2710566,18.4677831,biblioteka,Municipal Public Library,https://www.google.com/maps/place/Municipal+Public+Library/data=!4m7!3m6!1s0x46fd77bcfedb2c0b:0xbdd8d257f7ec117!8m2!3d54.2710566!4d18.4677831!16s%2Fg%2F1ptyvsblw!19sChIJCyzb_rx3_UYRF8F-fyWN3Qs?authuser=0&hl=en&rclk=1
54.3267375,18.5676981,biblioteka,Biblioteka Lawendowa (Filia WiMBP),https://www.google.com/maps/place/Biblioteka+Lawendowa+(Filia+WiMBP)/data=!4m7!3m6!1s0x46fd75ae4850a517:0x886b592039923d0!8m2!3d54.3267375!4d18.5676981!16s%2Fg%2F11j2c2wdqk!19sChIJF6VQSK51_UYR0COZA5K1hgg?authuser=0&hl=en&rclk=1
54.339528,18.616612,biblioteka,Provincial Public Library. J. Conrad. Branch,https://www.google.com/maps/place/Provincial+Public+Library.+J.+Conrad.+Branch/data=!4m7!3m6!1s0x46fd738bdca017eb:0x74d69e66175b3a76!8m2!3d54.339528!4d18.616612!16s%2Fg%2F1tjymdp1!19sChIJ6xeg3Itz_UYRdjpbF2ae1nQ?authuser=0&hl=en&rclk=1
54.3544661,18.6342366,biblioteka,Biblioteka Publiczna Gminna,https://www.google.com/maps/place/Biblioteka+Publiczna+Gminna/data=!4m7!3m6!1s0x46fd73787f8aef4d:0xa387958ad2fda1c2!8m2!3d54.3544661!4d18.6342366!16s%2Fg%2F1ptwhln6q!19sChIJTe-Kf3hz_UYRwqH90oqVh6M?authuser=0&hl=en&rclk=1
54.3512679,18.6439217,biblioteka,American Corner Gdańsk (Filia WiMBP),https://www.google.com/maps/place/American+Corner+Gda%C5%84sk+(Filia+WiMBP)/data=!4m7!3m6!1s0x46fd739dc2883013:0xd43c3dbacd2d416d!8m2!3d54.3512679!4d18.6439217!16s%2Fg%2F11ckw285x2!19sChIJEzCIwp1z_UYRbUEtzbo9PNQ?authuser=0&hl=en&rclk=1
54.3448473,18.6624087,biblioteka,Biblioteka Akademii Muzycznej im. Stanisława Moniuszki w Gdańsku,https://www.google.com/maps/place/Biblioteka+Akademii+Muzycznej+im.+Stanis%C5%82awa+Moniuszki+w+Gda%C5%84sku/data=!4m7!3m6!1s0x46fd736274e48ccf:0x3084f17aa4b043e4!8m2!3d54.3448473!4d18.6624087!16s%2Fg%2F11pd6v9_0z!19sChIJz4zkdGJz_UYR5EOwpHrxhDA?authuser=0&hl=en&rclk=1
54.3225804,18.6313754,biblioteka,Provincial and Municipal Public Library branch number 33,https://www.google.com/maps/place/Provincial+and+Municipal+Public+Library+branch+number+33/data=!4m7!3m6!1s0x46fd73ec0040c045:0x1b6380cf529e5ee4!8m2!3d54.3225804!4d18.6313754!16s%2Fg%2F1tf1mh_8!19sChIJRcBAAOxz_UYR5F6eUs-AYxs?authuser=0&hl=en&rclk=1
54.3093365,19.0532044,biblioteka,Biblioteka Publiczna,https://www.google.com/maps/place/Biblioteka+Publiczna/data=!4m7!3m6!1s0x46fd472a89ec93a9:0xb483fe2d70c0bf77!8m2!3d54.3093365!4d19.0532044!16s%2Fg%2F1tfv3t_w!19sChIJqZPsiSpH_UYRd7_AcC3-g7Q?authuser=0&hl=en&rclk=1
54.340408,18.36368,biblioteka,Biblioteka Samorządowa w Żukowie,https://www.google.com/maps/place/Biblioteka+Samorz%C4%85dowa+w+%C5%BBukowie/data=!4m7!3m6!1s0x46fd9c21d44b34f3:0xbfd7f9f56dd5ded8!8m2!3d54.340408!4d18.36368!16s%2Fg%2F11j08bg84x!19sChIJ8zRL1CGc_UYR2N7VbfX5178?authuser=0&hl=en&rclk=1
54.248781,18.8454349,biblioteka,Gminna Bibioteka Publiczna,https://www.google.com/maps/place/Gminna+Bibioteka+Publiczna/data=!4m7!3m6!1s0x46fd6936321b38a3:0x2129dfc5f62481d2!8m2!3d54.248781!4d18.8454349!16s%2Fg%2F11b6pstbh_!19sChIJozgbMjZp_UYR0oEk9sXfKSE?authuser=0&hl=en&rclk=1
54.3273267,19.1119843,biblioteka,Gminna Biblioteka Publiczna im. Stefana Żeromskiego,https://www.google.com/maps/place/Gminna+Biblioteka+Publiczna+im.+Stefana+%C5%BBeromskiego/data=!4m7!3m6!1s0x46fd3f7c1ad66f83:0x4947567031d7beca!8m2!3d54.3273267!4d19.1119843!16s%2Fg%2F1yj4jx70x!19sChIJg2_WGnw__UYRyr7XMXBWR0k?authuser=0&hl=en&rclk=1
54.3512679,18.6439217,biblioteka,WOJEWÓDZKA I MIEJSKA BIBLIOTEKA PUBLICZNA IM. JOSEPHA CONRADA KORZENIOWSKIEGO W GDANSKU,https://www.google.com/maps/place/WOJEW%C3%93DZKA+I+MIEJSKA+BIBLIOTEKA+PUBLICZNA+IM.+JOSEPHA+CONRADA+KORZENIOWSKIEGO+W+GDANSKU/data=!4m7!3m6!1s0x46fd739dc24b04c9:0xd8700287887a16c6!8m2!3d54.3512679!4d18.6439217!16s%2Fg%2F11h6f_cr95!19sChIJyQRLwp1z_UYRxhZ6iIcCcNg?authuser=0&hl=en&rclk=1
54.3323562,19.0344504,biblioteka,Biblioteka Publiczna,https://www.google.com/maps/place/Biblioteka+Publiczna/data=!4m7!3m6!1s0x46fd3f7c1aecdc63:0xd39899675a5bee0e!8m2!3d54.3323562!4d19.0344504!16s%2Fg%2F1thwz3t_!19sChIJY9zsGnw__UYRDu5bWmeZmNM?authuser=0&hl=en&rclk=1
54.3290183,18.5875773,biblioteka,Stowarzyszenie Przyjaciół Dzielnicy Ujeścisko - Łostowice Nasze Ujeścisko,https://www.google.com/maps/place/Stowarzyszenie+Przyjaci%C3%B3%C5%82+Dzielnicy+Uje%C5%9Bcisko+-+%C5%81ostowice+Nasze+Uje%C5%9Bcisko/data=!4m7!3m6!1s0x46fd76c8bad24e77:0x2086482b386b7821!8m2!3d54.3290183!4d18.5875773!16s%2Fg%2F1ptx5xrw2!19sChIJd07Sush2_UYRIXhrOCtIhiA?authuser=0&hl=en&rclk=1
54.3512679,18.6439217,biblioteka,Biblioteka dla Dzieci (Filia WiMBP),https://www.google.com/maps/place/Biblioteka+dla+Dzieci+(Filia+WiMBP)/data=!4m7!3m6!1s0x46fd739ddb186695:0xa3c9d8346e17fd30!8m2!3d54.3512679!4d18.6439217!16s%2Fg%2F11g65f48dp!19sChIJlWYY251z_UYRMP0XbjTYyaM?authuser=0&hl=en&rclk=1
54.2576176,18.6328934,biblioteka,Powiatowa i Miejska Biblioteka Publiczna w Pruszczu Gdańskim,https://www.google.com/maps/place/Powiatowa+i+Miejska+Biblioteka+Publiczna+w+Pruszczu+Gda%C5%84skim/data=!4m7!3m6!1s0x46fd70538bcdaf5b:0xb1a570ea939ba63f!8m2!3d54.2576176!4d18.6328934!16s%2Fg%2F1tw1cjq2!19sChIJW6_Ni1Nw_UYRP6abk-pwpbE?authuser=0&hl=en&rclk=1
54.2892928,18.9630433,biblioteka,Biblioteka Publiczna,https://www.google.com/maps/place/Biblioteka+Publiczna/data=!4m7!3m6!1s0x46fd6a42d9fa130d:0x1cb984f55cfcd9eb!8m2!3d54.2892928!4d18.9630433!16s%2Fg%2F11dxmd9367!19sChIJDRP62UJq_UYR69n8XPWEuRw?authuser=0&hl=en&rclk=1
54.1987516,18.3308532,biblioteka,GMINNA BIBLIOTEKA PUBLICZNA W PRZYWIDZU,https://www.google.com/maps/place/GMINNA+BIBLIOTEKA+PUBLICZNA+W+PRZYWIDZU/data=!4m7!3m6!1s0x46fd8239355074d3:0x69cf9b34b8ba69ed!8m2!3d54.1987516!4d18.3308532!16s%2Fg%2F1tf6fb39!19sChIJ03RQNTmC_UYR7Wm6uDSbz2k?authuser=0&hl=en&rclk=1
54.3341127,18.2057156,biblioteka,Miejska i Powiatowa Biblioteka Publiczna im. Janusza Żurakowskiego w Kartuzach,https://www.google.com/maps/place/Miejska+i+Powiatowa+Biblioteka+Publiczna+im.+Janusza+%C5%BBurakowskiego+w+Kartuzach/data=!4m7!3m6!1s0x46fd9a882a3c5d93:0x9130061b13d1803!8m2!3d54.3341127!4d18.2057156!16s%2Fg%2F1tdwj601!19sChIJk108Koia_UYRAxg9sWEAEwk?authuser=0&hl=en&rclk=1
54.2621163,18.6323721,biblioteka,Pomorska Biblioteka Pedagogiczna Filia w Pruszczu Gdańskim,https://www.google.com/maps/place/Pomorska+Biblioteka+Pedagogiczna+Filia+w+Pruszczu+Gda%C5%84skim/data=!4m7!3m6!1s0x46fd70538bcdaf5b:0x5a0be9bfc9a086bd!8m2!3d54.2621163!4d18.6323721!16s%2Fg%2F1tfpszbh!19sChIJW6_Ni1Nw_UYRvYagyb_pC1o?authuser=0&hl=en&rclk=1
54.230469,18.6410239,biblioteka,"Ośrodek Kultury, Sztuki i Biblioteka Publiczna Gminy Pruszcz Gdański","https://www.google.com/maps/place/O%C5%9Brodek+Kultury,+Sztuki+i+Biblioteka+Publiczna+Gminy+Pruszcz+Gda%C5%84ski/data=!4m7!3m6!1s0x46fd718005e04b75:0x6877f82e426d08ea!8m2!3d54.230469!4d18.6410239!16s%2Fg%2F11fhs2tdyl!19sChIJdUvgBYBx_UYR6ghtQi74d2g?authuser=0&hl=en&rclk=1"
54.1913874,19.0367936,biblioteka,Biblioteka Publiczna Miasta i Gminy. Filia,https://www.google.com/maps/place/Biblioteka+Publiczna+Miasta+i+Gminy.+Filia/data=!4m7!3m6!1s0x46fd430cc1c7b1cb:0x981722d46407b1c4!8m2!3d54.1913874!4d19.0367936!16s%2Fg%2F1tgr_mpy!19sChIJy7HHwQxD_UYRxLEHZNQiF5g?authuser=0&hl=en&rclk=1
54.3040685,18.2227436,biblioteka,Biblioteka Publiczna. Filia,https://www.google.com/maps/place/Biblioteka+Publiczna.+Filia/data=!4m7!3m6!1s0x46fd9ade70000001:0x276f661989a1ed21!8m2!3d54.3040685!4d18.2227436!16s%2Fg%2F1hc2p636n!19sChIJAQAAcN6a_UYRIe2hiRlmbyc?authuser=0&hl=en&rclk=1
54.230469,18.6410239,biblioteka,Biblioteka w Cieplewie,https://www.google.com/maps/place/Biblioteka+w+Cieplewie/data=!4m7!3m6!1s0x46fd71114937b109:0x1680d71d419ab7c0!8m2!3d54.230469!4d18.6410239!16s%2Fg%2F11rfl_v8nw!19sChIJCbE3SRFx_UYRwLeaQR3XgBY?authuser=0&hl=en&rclk=1
54.2702515,18.5711153,biblioteka,Mediateka Wiejska w Straszynie OKSiBP,https://www.google.com/maps/place/Mediateka+Wiejska+w+Straszynie+OKSiBP/data=!4m7!3m6!1s0x46fd70d69231971f:0xf3ee544331d9bdd4!8m2!3d54.2702515!4d18.5711153!16s%2Fg%2F11c5wmj2d9!19sChIJH5cxktZw_UYR1L3ZMUNU7vM?authuser=0&hl=en&rclk=1
54.213936,19.113018,biblioteka,Biblioteka Publiczna,https://www.google.com/maps/place/Biblioteka+Publiczna/data=!4m7!3m6!1s0x46fd4413d45d9995:0x8cd42de1521db24b!8m2!3d54.213936!4d19.113018!16s%2Fg%2F1w8w8q6f!19sChIJlZld1BNE_UYRS7IdUuEt1Iw?authuser=0&hl=en&rclk=1
