lat,lon,type,title,link
54.4485217,18.4308335,drukarnia,"""Antena"" Drukarnia Leszek Tybu",https://www.google.com/maps/place/%22Antena%22+Drukarnia+Leszek+Tybu%C5%9B/data=!4m7!3m6!1s0x46fda1ebc2872cf1:0xea29f2ef15e520ac!8m2!3d54.4485217!4d18.4308335!16s%2Fg%2F1tkv8g3r!19sChIJ8SyHwuuh_UYRrCDlFe_yKeo?authuser=0&hl=en&rclk=1
54.45441,18.433041,drukarnia,"Alexander Druk - drukarnia, usugi poligraficzne","https://www.google.com/maps/place/Alexander+Druk+-+drukarnia,+us%C5%82ugi+poligraficzne/data=!4m7!3m6!1s0x46fda19354e03909:0xedefc090ed3d5249!8m2!3d54.45441!4d18.433041!16s%2Fg%2F1tfxfclc!19sChIJCTngVJOh_UYRSVI97ZDA7-0?authuser=0&hl=en&rclk=1"
54.4496982,18.4323409,drukarnia,"Antena. Offset, sitodruk, opakowania","https://www.google.com/maps/place/Antena.+Offset,+sitodruk,+opakowania/data=!4m7!3m6!1s0x46fda1e4e05c7a63:0x1be3936b0d93eb54!8m2!3d54.4496982!4d18.4323409!16s%2Fg%2F1tdxp43r!19sChIJY3pc4OSh_UYRVOuTDWuT4xs?authuser=0&hl=en&rclk=1"
54.4243601,18.4634357,drukarnia,Drukarnia ES-GRAF,https://www.google.com/maps/place/Drukarnia+ES-GRAF/data=!4m7!3m6!1s0x46fd9f80e0ba6a3b:0x464a7fdf9e033935!8m2!3d54.4243601!4d18.4634357!16s%2Fg%2F1thxzhb4!19sChIJO2q64ICf_UYRNTkDnt9_SkY?authuser=0&hl=en&rclk=1
54.4334597,18.4719305,drukarnia,Fabryka Nadruk贸w,https://www.google.com/maps/place/Fabryka+Nadruk%C3%B3w/data=!4m7!3m6!1s0x46fda02c28371df5:0xf243f7c5b8785b7e!8m2!3d54.4334597!4d18.4719305!16s%2Fg%2F1tgy_8n7!19sChIJ9R03KCyg_UYRflt4uMX3Q_I?authuser=0&hl=en&rclk=1
54.470743,18.4512389,drukarnia,Drukarnia COLTIGER - nadruki na odzie偶y,https://www.google.com/maps/place/Drukarnia+COLTIGER+-+nadruki+na+odzie%C5%BCy/data=!4m7!3m6!1s0x46fda1cab254473b:0x109d01dd3536af94!8m2!3d54.470743!4d18.4512389!16s%2Fg%2F11g1y12tl6!19sChIJO0dUssqh_UYRlK82Nd0BnRA?authuser=0&hl=en&rclk=1
54.4245937,18.4717271,drukarnia,Druk na drewnie,https://www.google.com/maps/place/Druk+na+drewnie/data=!4m7!3m6!1s0x46fd9f8796c498f5:0xf50533791ea0783b!8m2!3d54.4245937!4d18.4717271!16s%2Fg%2F11f3wll0p1!19sChIJ9ZjEloef_UYRO3igHnkzBfU?authuser=0&hl=en&rclk=1
54.484617,18.4373113,drukarnia,Upprint,https://www.google.com/maps/place/Upprint/data=!4m7!3m6!1s0x46fda17b81795555:0x176ee8a4f8a74c62!8m2!3d54.484617!4d18.4373113!16s%2Fg%2F11h6g1c7hg!19sChIJVVV5gXuh_UYRYkyn-KTobhc?authuser=0&hl=en&rclk=1
54.427227,18.477067,drukarnia,Grafica,https://www.google.com/maps/place/Grafica/data=!4m7!3m6!1s0x46fda72455c52e0f:0x453f4d3905ad1802!8m2!3d54.427227!4d18.477067!16s%2Fg%2F11fkmzdf5m!19sChIJDy7FVSSn_UYRAhitBTlNP0U?authuser=0&hl=en&rclk=1
54.4782245,18.503445,drukarnia,Drukarnia FXprint,https://www.google.com/maps/place/Drukarnia+FXprint/data=!4m7!3m6!1s0x46fda0c64d673a09:0x47592b0d82fbc926!8m2!3d54.4782245!4d18.503445!16s%2Fg%2F11g9qg0cfg!19sChIJCTpnTcag_UYRJsn7gg0rWUc?authuser=0&hl=en&rclk=1
54.4744813,18.5144199,drukarnia,Drukarnia NOWATOR,https://www.google.com/maps/place/Drukarnia+NOWATOR/data=!4m7!3m6!1s0x46fda0f03374fd61:0xaab7bdef2ee4975c!8m2!3d54.4744813!4d18.5144199!16s%2Fg%2F1tjbqvz9!19sChIJYf10M_Cg_UYRXJfkLu-9t6o?authuser=0&hl=en&rclk=1
54.433486,18.471947,drukarnia,Pens4u,https://www.google.com/maps/place/Pens4u/data=!4m7!3m6!1s0x46fda02c28371df5:0x3ae9cbe35e1b371d!8m2!3d54.433486!4d18.471947!16s%2Fg%2F1tj3jryh!19sChIJ9R03KCyg_UYRHTcbXuPL6To?authuser=0&hl=en&rclk=1
54.4786054,18.5282004,drukarnia,Drukarnia Optima,https://www.google.com/maps/place/Drukarnia+Optima/data=!4m7!3m6!1s0x46fda0ec9ecc423b:0xf78a0159386bd8e6!8m2!3d54.4786054!4d18.5282004!16s%2Fg%2F1tdhkjdf!19sChIJO0LMnuyg_UYR5thrOFkBivc?authuser=0&hl=en&rclk=1
54.4415915,18.5639213,drukarnia,Digital 1,https://www.google.com/maps/place/Digital+1/data=!4m7!3m6!1s0x46fd0a8e2777fb87:0xd55fb735d0ae5001!8m2!3d54.4415915!4d18.5639213!16s%2Fg%2F11b6cj707z!19sChIJh_t3J44K_UYRAVCu0DW3X9U?authuser=0&hl=en&rclk=1
54.4843598,18.5371042,drukarnia,DrukujewGdyni.pl,https://www.google.com/maps/place/DrukujewGdyni.pl/data=!4m7!3m6!1s0x46fda0bfb8561aa1:0x8bb89936c12b7fc2!8m2!3d54.4843598!4d18.5371042!16s%2Fg%2F11g6b14v4v!19sChIJoRpWuL-g_UYRwn8rwTaZuIs?authuser=0&hl=en&rclk=1
54.4368921,18.5612809,drukarnia,Goetz-Druk. Drukarnia offsetowa,https://www.google.com/maps/place/Goetz-Druk.+Drukarnia+offsetowa/data=!4m7!3m6!1s0x46fd0a968a26f72d:0x1bf1c40a94337da4!8m2!3d54.4368921!4d18.5612809!16s%2Fg%2F1tmptp36!19sChIJLfcmipYK_UYRpH0zlArE8Rs?authuser=0&hl=en&rclk=1
54.483196,18.5351376,drukarnia,FormatXL,https://www.google.com/maps/place/FormatXL/data=!4m7!3m6!1s0x46fda0955a022ac5:0xd7e76054ecc782a0!8m2!3d54.483196!4d18.5351376!16s%2Fg%2F1w6642t3!19sChIJxSoCWpWg_UYRoILH7FRg59c?authuser=0&hl=en&rclk=1
54.4124608,18.5761381,drukarnia,Mgr Katarzyna ycyniak,https://www.google.com/maps/place/Mgr+Katarzyna+%C5%81ycyniak/data=!4m7!3m6!1s0x46fd0ad25adeaaab:0x2ebd38a2496c189c!8m2!3d54.4124608!4d18.5761381!16s%2Fg%2F11h0vq4t0t!19sChIJq6reWtIK_UYRnBhsSaI4vS4?authuser=0&hl=en&rclk=1
54.454558,18.550317,drukarnia,Zdy Ryszard. Wydawnictwo prasowe. Drukarnia,https://www.google.com/maps/place/Zdy%C5%84+Ryszard.+Wydawnictwo+prasowe.+Drukarnia/data=!4m7!3m6!1s0x46fd0a81db70031f:0x7b7695c2a7caf877!8m2!3d54.454558!4d18.550317!16s%2Fg%2F1thzsh4h!19sChIJHwNw24EK_UYRd_jKp8KVdns?authuser=0&hl=en&rclk=1
54.4339265,18.5610222,drukarnia,Danex 702 Sopot,https://www.google.com/maps/place/Danex+702+Sopot/data=!4m7!3m6!1s0x46fd0abdfed094ed:0xc6123ae63d39adc7!8m2!3d54.4339265!4d18.5610222!16s%2Fg%2F1tdmnrmf!19sChIJ7ZTQ_r0K_UYRx605PeY6EsY?authuser=0&hl=en&rclk=1
54.420561,18.571607,drukarnia,Drukoman,https://www.google.com/maps/place/Drukoman/data=!4m7!3m6!1s0x46fd0acf5c702459:0x85d13f322485370b!8m2!3d54.420561!4d18.571607!16s%2Fg%2F11fm16f0q4!19sChIJWSRwXM8K_UYRCzeFJDI_0YU?authuser=0&hl=en&rclk=1
54.445943,18.5588899,drukarnia,Introstempel. Zakad introligatorski. Oprawa prac dyplomowych. Piecztki. Kuczyski G.,https://www.google.com/maps/place/Introstempel.+Zak%C5%82ad+introligatorski.+Oprawa+prac+dyplomowych.+Piecz%C4%85tki.+Kuczy%C5%84ski+G./data=!4m7!3m6!1s0x46fd0a854a7b94e1:0x70a825fa17e1b780!8m2!3d54.445943!4d18.5588899!16s%2Fg%2F1vxz89cl!19sChIJ4ZR7SoUK_UYRgLfhF_olqHA?authuser=0&hl=en&rclk=1
54.457511,18.5357738,drukarnia,Drukarka w bibliotece Sopockiej,https://www.google.com/maps/place/Drukarka+w+bibliotece+Sopockiej/data=!4m7!3m6!1s0x46fda1dd68566911:0x802170fa4f272afd!8m2!3d54.457511!4d18.5357738!16s%2Fg%2F11qbr76zt8!19sChIJEWlWaN2h_UYR_SonT_pwIYA?authuser=0&hl=en&rclk=1
54.4411373,18.5629972,drukarnia,Sprint712,https://www.google.com/maps/place/Sprint712/data=!4m7!3m6!1s0x46fd0a911e100ed1:0xd634f8eb67971211!8m2!3d54.4411373!4d18.5629972!16s%2Fg%2F11fzxgnkjk!19sChIJ0Q4QHpEK_UYRERKXZ-v4NNY?authuser=0&hl=en&rclk=1
54.4440846,18.5564432,drukarnia,"Centrum Opraw Prac Dyplomowych, Ksero, Druk","https://www.google.com/maps/place/Centrum+Opraw+Prac+Dyplomowych,+Ksero,+Druk/data=!4m7!3m6!1s0x46fd0a9aee37d795:0xf8028c86f2a368b8!8m2!3d54.4440846!4d18.5564432!16s%2Fg%2F11c5s1s9pj!19sChIJldc37poK_UYRuGij8oaMAvg?authuser=0&hl=en&rclk=1"
54.434349,18.560999,drukarnia,Sprint 712,https://www.google.com/maps/place/Sprint+712/data=!4m7!3m6!1s0x46fd0a96039e98ef:0x8b0ee280ef021950!8m2!3d54.434349!4d18.560999!16s%2Fg%2F11g9q2pwg3!19sChIJ75ieA5YK_UYRUBkC74DiDos?authuser=0&hl=en&rclk=1
54.4442557,18.5567019,drukarnia,Xeroteka - ksero Sopot Biblioteka Uniwersytet Gdaski,https://www.google.com/maps/place/Xeroteka+-+ksero+Sopot+Biblioteka+Uniwersytet+Gda%C5%84ski/data=!4m7!3m6!1s0x46fd0b25b4494009:0x86974e4d9b03c8b5!8m2!3d54.4442557!4d18.5567019!16s%2Fg%2F11j0yl2w2j!19sChIJCUBJtCUL_UYRtcgDm01Ol4Y?authuser=0&hl=en&rclk=1
54.4253068,18.458219,drukarnia,Wenta-Print,https://www.google.com/maps/place/Wenta-Print/data=!4m7!3m6!1s0x46fd9f802e6753f7:0x8aa9c8ee1e9bcf90!8m2!3d54.4253068!4d18.458219!16s%2Fg%2F11h0qx8fp!19sChIJ91NnLoCf_UYRkM-bHu7IqYo?authuser=0&hl=en&rclk=1
54.4298463,18.654511,drukarnia,DDC Group Gdask,https://www.google.com/maps/place/DDC+Group+Gda%C5%84sk/data=!4m7!3m6!1s0x46fda02622317aaf:0xeee0f2542a97bd58!8m2!3d54.4298463!4d18.654511!16s%2Fg%2F11ckkypzv8!19sChIJr3oxIiag_UYRWL2XKlTy4O4?authuser=0&hl=en&rclk=1
54.4222579,18.4833999,drukarnia,Studio Reklamy Wojciech Makarewicz,https://www.google.com/maps/place/Studio+Reklamy+Wojciech+Makarewicz/data=!4m7!3m6!1s0x46fd9f8a3d8439cf:0xc44899b053b0691d!8m2!3d54.4222579!4d18.4833999!16s%2Fg%2F11h0vq31bx!19sChIJzzmEPYqf_UYRHWmwU7CZSMQ?authuser=0&hl=en&rclk=1
54.428098,18.564558,drukarnia,"""HKM"" Maszyny Drukarskie. Producent Etykiet. Drukarki Cyfrowe",https://www.google.com/maps/place/%22HKM%22+Maszyny+Drukarskie.+Producent+Etykiet.+Drukarki+Cyfrowe/data=!4m7!3m6!1s0x46fd0abf4bf2a535:0x41c8b853875ccd7!8m2!3d54.428098!4d18.564558!16s%2Fg%2F1v4k567z!19sChIJNaXyS78K_UYR18x1OIWLHAQ?authuser=0&hl=en&rclk=1
54.436828,18.5614182,drukarnia,Kamar. Pracownia sitodruku i reklamy,https://www.google.com/maps/place/Kamar.+Pracownia+sitodruku+i+reklamy/data=!4m7!3m6!1s0x46fd0a968a26f72d:0x15c11d33ff2461a2!8m2!3d54.436828!4d18.5614182!16s%2Fg%2F1wn32c0x!19sChIJLfcmipYK_UYRomEk_zMdwRU?authuser=0&hl=en&rclk=1
54.43009,18.555617,drukarnia,PROMOTIV Agencja Poligraficzna,https://www.google.com/maps/place/PROMOTIV+Agencja+Poligraficzna/data=!4m7!3m6!1s0x46fd0abc6ab95639:0xa3bd8ed99f298e64!8m2!3d54.43009!4d18.555617!16s%2Fg%2F1thk7fg5!19sChIJOVa5arwK_UYRZI4pn9mOvaM?authuser=0&hl=en&rclk=1
54.42256,18.5992049,drukarnia,Food Team. Drukarnia,https://www.google.com/maps/place/Food+Team.+Drukarnia/data=!4m7!3m6!1s0x46fd0b20ad8b1969:0x725226d85cc582f1!8m2!3d54.42256!4d18.5992049!16s%2Fg%2F1tx45qx3!19sChIJaRmLrSAL_UYR8YLFXNgmUnI?authuser=0&hl=en&rclk=1
54.4113968,18.573442,drukarnia,Ksero-Kopia,https://www.google.com/maps/place/Ksero-Kopia/data=!4m7!3m6!1s0x46fd0ad2a865b729:0xe526d04da587c953!8m2!3d54.4113968!4d18.573442!16s%2Fg%2F1tfrfg4n!19sChIJKbdlqNIK_UYRU8mHpU3QJuU?authuser=0&hl=en&rclk=1
54.400338,18.5781849,drukarnia,Drukarnia Topq,https://www.google.com/maps/place/Drukarnia+Topq/data=!4m7!3m6!1s0x46fd7529aba75a27:0xbf538e608c11509a!8m2!3d54.400338!4d18.5781849!16s%2Fg%2F11fkmzl4vk!19sChIJJ1qnqyl1_UYRmlARjGCOU78?authuser=0&hl=en&rclk=1
54.399951,18.6284059,drukarnia,Drukarnia Misiuro,https://www.google.com/maps/place/Drukarnia+Misiuro/data=!4m7!3m6!1s0x46fd74b348a000df:0x45c11f564478f68a!8m2!3d54.399951!4d18.6284059!16s%2Fg%2F11clzrbql7!19sChIJ3wCgSLN0_UYRivZ4RFYfwUU?authuser=0&hl=en&rclk=1
54.405449,18.588667,drukarnia,Grafia-Sabrina. SGGS. Drukarnia,https://www.google.com/maps/place/Grafia-Sabrina.+SGGS.+Drukarnia/data=!4m7!3m6!1s0x46fd74d5145411d5:0x6bc381385c7f23c3!8m2!3d54.405449!4d18.588667!16s%2Fg%2F1tjkdhdw!19sChIJ1RFUFNV0_UYRwyN_XDiBw2s?authuser=0&hl=en&rclk=1
54.4012416,18.5758291,drukarnia,Printstacja,https://www.google.com/maps/place/Printstacja/data=!4m7!3m6!1s0x46fd7529234a3d5f:0x1ebb0018dc7426ac!8m2!3d54.4012416!4d18.5758291!16s%2Fg%2F11gf21sqhm!19sChIJXz1KIyl1_UYRrCZ03BgAux4?authuser=0&hl=en&rclk=1
54.402769,18.571521,drukarnia,Horyzont,https://www.google.com/maps/place/Horyzont/data=!4m7!3m6!1s0x46fd0ada7ab2e4a9:0x7b54453ec179a096!8m2!3d54.402769!4d18.571521!16s%2Fg%2F11g8cry700!19sChIJqeSyetoK_UYRlqB5wT5FVHs?authuser=0&hl=en&rclk=1
54.3957201,18.6083695,drukarnia,Drukarnia Drukonsul,https://www.google.com/maps/place/Drukarnia+Drukonsul/data=!4m7!3m6!1s0x46fd74c9196b75e1:0x22583674def4275b!8m2!3d54.3957201!4d18.6083695!16s%2Fg%2F1ty72zbp!19sChIJ4XVrGcl0_UYRWyf03nQ2WCI?authuser=0&hl=en&rclk=1
54.3749453,18.4502247,drukarnia,Bluejet Sp. z o.o.,https://www.google.com/maps/place/Bluejet+Sp.+z+o.o./data=!4m7!3m6!1s0x46fd747a3c10bf43:0xa4d846694588906d!8m2!3d54.3749453!4d18.4502247!16s%2Fg%2F1tjhwc03!19sChIJQ78QPHp0_UYRbZCIRWlG2KQ?authuser=0&hl=en&rclk=1
54.3571687,18.4789818,drukarnia,Normex,https://www.google.com/maps/place/Normex/data=!4m7!3m6!1s0x46fd7498555308d9:0x8deaf054d943651!8m2!3d54.3571687!4d18.4789818!16s%2Fg%2F11g_rk89n!19sChIJ2QhTVZh0_UYRUTaUTQWv3gg?authuser=0&hl=en&rclk=1
54.3706524,18.508929,drukarnia,Pollygraf Sp z o.o.,https://www.google.com/maps/place/Pollygraf+Sp+z+o.o./data=!4m7!3m6!1s0x4162013c09c5b893:0xee709a73791bc7b3!8m2!3d54.3706524!4d18.508929!16s%2Fg%2F11b6hypbxc!19sChIJk7jFCTwBYkERs8cbeXOacO4?authuser=0&hl=en&rclk=1
54.4179188,18.4851693,drukarnia,SIGNPROJECT POLSKA SP. Z O.O.,https://www.google.com/maps/place/SIGNPROJECT+POLSKA+SP.+Z+O.O./data=!4m7!3m6!1s0x46fd9fe04684c181:0xf060be5ae89ea8c9!8m2!3d54.4179188!4d18.4851693!16s%2Fg%2F11rq9q6fcb!19sChIJgcGERuCf_UYRyaie6Fq-YPA?authuser=0&hl=en&rclk=1
54.4094684,18.5867175,drukarnia,Grafix,https://www.google.com/maps/place/Grafix/data=!4m7!3m6!1s0x46fd0ad516e3016b:0xede61192e5379b10!8m2!3d54.4094684!4d18.5867175!16s%2Fg%2F1tffy5ql!19sChIJawHjFtUK_UYREJs35ZIR5u0?authuser=0&hl=en&rclk=1
54.394753,18.404711,drukarnia,Poligrafika Marta Szreder,https://www.google.com/maps/place/Poligrafika+Marta+Szreder/data=!4m7!3m6!1s0x46fd9f1ee1e3ae93:0x40ef498a5c783609!8m2!3d54.394753!4d18.404711!16s%2Fg%2F11b7ztm8pw!19sChIJk67j4R6f_UYRCTZ4XIpJ70A?authuser=0&hl=en&rclk=1
54.3920032,18.5773759,drukarnia,Biernat-Lewicka Joanna. PPHU. Druk,https://www.google.com/maps/place/Biernat-Lewicka+Joanna.+PPHU.+Druk/data=!4m7!3m6!1s0x46fd74d8bfb900ed:0x5dbf71dc4cf295cd!8m2!3d54.3920032!4d18.5773759!16s%2Fg%2F1ptvx10lx!19sChIJ7QC5v9h0_UYRzZXyTNxxv10?authuser=0&hl=en&rclk=1
54.388496,18.591856,drukarnia,Vipro. Drukarnia,https://www.google.com/maps/place/Vipro.+Drukarnia/data=!4m7!3m6!1s0x46fd74c34c946fdb:0xf75e63f49e7500a6!8m2!3d54.388496!4d18.591856!16s%2Fg%2F11fmxzfvv6!19sChIJ22-UTMN0_UYRpgB1nvRjXvc?authuser=0&hl=en&rclk=1
54.3929223,18.5971033,drukarnia,Drukarnia Witograf,https://www.google.com/maps/place/Drukarnia+Witograf/data=!4m7!3m6!1s0x46fd74c5168cf2ed:0x387b4b73db914f30!8m2!3d54.3929223!4d18.5971033!16s%2Fg%2F1w0j2x1n!19sChIJ7fKMFsV0_UYRME-R23NLezg?authuser=0&hl=en&rclk=1
54.4104755,18.5727182,drukarnia,SHIPCENTER.PL - punkt nadania i odbioru przesyek kurierskich | drukarnia | piecztki,https://www.google.com/maps/place/SHIPCENTER.PL+-+punkt+nadania+i+odbioru+przesy%C5%82ek+kurierskich+%7C+drukarnia+%7C+piecz%C4%85tki/data=!4m7!3m6!1s0x46fd0b6e21ac36c5:0x44444522c88cee1!8m2!3d54.4104755!4d18.5727182!16s%2Fg%2F11nwb9lrp5!19sChIJxTasIW4L_UYR4c6ILFJERAQ?authuser=0&hl=en&rclk=1
54.4067184,18.5741584,drukarnia,Grafito,https://www.google.com/maps/place/Grafito/data=!4m7!3m6!1s0x46fd0b3236f8f38b:0x6e12d3687d1aa744!8m2!3d54.4067184!4d18.5741584!16s%2Fg%2F1tf6kx4q!19sChIJi_P4NjIL_UYRRKcafWjTEm4?authuser=0&hl=en&rclk=1
54.4012755,18.5765553,drukarnia,COPIK,https://www.google.com/maps/place/COPIK/data=!4m7!3m6!1s0x46fd75b25d09a1c3:0x4b994000c349cb8c!8m2!3d54.4012755!4d18.5765553!16s%2Fg%2F11mw8h6k73!19sChIJw6EJXbJ1_UYRjMtJwwBAmUs?authuser=0&hl=en&rclk=1
54.4027688,18.5715213,drukarnia,Poligrafia dla HoReCa,https://www.google.com/maps/place/Poligrafia+dla+HoReCa/data=!4m7!3m6!1s0x46fd75b292669183:0x59aa6f38b31eeace!8m2!3d54.4027688!4d18.5715213!16s%2Fg%2F11f7bks2pf!19sChIJg5FmkrJ1_UYRzuoeszhvqlk?authuser=0&hl=en&rclk=1
54.4045544,18.5947112,drukarnia,"KORDES - ulotki, plakaty, naklejki, wizyt贸wki, piecztki","https://www.google.com/maps/place/KORDES+-+ulotki,+plakaty,+naklejki,+wizyt%C3%B3wki,+piecz%C4%85tki/data=!4m7!3m6!1s0x46fd0b2c2851046b:0xa9669f58ef5b90e4!8m2!3d54.4045544!4d18.5947112!16s%2Fg%2F11b77p_kqx!19sChIJawRRKCwL_UYR5JBb71ifZqk?authuser=0&hl=en&rclk=1"
54.394953,18.617902,drukarnia,Lemal,https://www.google.com/maps/place/Lemal/data=!4m7!3m6!1s0x46fd74b65b9e61bb:0x4c6055e789333f41!8m2!3d54.394953!4d18.617902!16s%2Fg%2F1ptyl7j7f!19sChIJu2GeW7Z0_UYRQT8ziedVYEw?authuser=0&hl=en&rclk=1
54.4004097,18.591954,drukarnia,Ekor Sp. z o.o. Zakad usug techniczno - remontowych,https://www.google.com/maps/place/Ekor+Sp.+z+o.o.+Zak%C5%82ad+us%C5%82ug+techniczno+-+remontowych/data=!4m7!3m6!1s0x46fd0ade88a0b641:0x32bf8e9107bf6a6d!8m2!3d54.4004097!4d18.591954!16s%2Fg%2F1tf30292!19sChIJQbagiN4K_UYRbWq_B5GOvzI?authuser=0&hl=en&rclk=1
54.39517,18.616991,drukarnia,Druk Markuszewscy,https://www.google.com/maps/place/Druk+Markuszewscy/data=!4m7!3m6!1s0x46fd74b641655b67:0xfcb816f2f9237def!8m2!3d54.39517!4d18.616991!16s%2Fg%2F11fkmywxty!19sChIJZ1tlQbZ0_UYR730j-fIWuPw?authuser=0&hl=en&rclk=1
54.4298463,18.654511,drukarnia,Druk 3Miasto www.druk3miasto.pl,https://www.google.com/maps/place/Druk+3Miasto+www.druk3miasto.pl/data=!4m7!3m6!1s0x46fd7579bcdd73c7:0x4e589fafd38d54!8m2!3d54.4298463!4d18.654511!16s%2Fg%2F11gybfl042!19sChIJx3PdvHl1_UYRVI3Tr59YTgA?authuser=0&hl=en&rclk=1
54.3813881,18.6281949,drukarnia,Drukarnia Apla,https://www.google.com/maps/place/Drukarnia+Apla/data=!4m7!3m6!1s0x46fd74ae8f979e31:0xae44b33dba55cfa2!8m2!3d54.3813881!4d18.6281949!16s%2Fg%2F1tfv3v0g!19sChIJMZ6Xj650_UYRos9Vuj2zRK4?authuser=0&hl=en&rclk=1
54.3911232,18.659847,drukarnia,Firma Poligraficzna Cmyk,https://www.google.com/maps/place/Firma+Poligraficzna+Cmyk/data=!4m7!3m6!1s0x46fd7353c9840c29:0x20f82e0d531c93fd!8m2!3d54.3911232!4d18.659847!16s%2Fg%2F1tp06t0k!19sChIJKQyEyVNz_UYR_ZMcUw0u-CA?authuser=0&hl=en&rclk=1
54.3805588,18.6401012,drukarnia,"APS Printing Gdask, posters, leaflets, brochures, calendars","https://www.google.com/maps/place/APS+Printing+Gda%C5%84sk,+posters,+leaflets,+brochures,+calendars/data=!4m7!3m6!1s0x46fd735f5dc74345:0x23e28341892d1bbb!8m2!3d54.3805588!4d18.6401012!16s%2Fg%2F1w9x_t52!19sChIJRUPHXV9z_UYRuxstiUGD4iM?authuser=0&hl=en&rclk=1"
54.3835182,18.6379796,drukarnia,Printing Vipro Sp. o.o.,https://www.google.com/maps/place/Printing+Vipro+Sp.+o.o./data=!4m7!3m6!1s0x46fd74c34c0e1581:0xddc7f695e127133a!8m2!3d54.3835182!4d18.6379796!16s%2Fg%2F1w0sbkm4!19sChIJgRUOTMN0_UYROhMn4ZX2x90?authuser=0&hl=en&rclk=1
54.3852934,18.633189,drukarnia,e-Print.pl,https://www.google.com/maps/place/e-Print.pl/data=!4m7!3m6!1s0x46fd74a42e8b0de3:0x27a2008d3db628ef!8m2!3d54.3852934!4d18.633189!16s%2Fg%2F11hyxnpr4l!19sChIJ4w2LLqR0_UYR7yi2PY0Aoic?authuser=0&hl=en&rclk=1
54.3745192,18.6246483,drukarnia,Copy Center K-2,https://www.google.com/maps/place/Copy+Center+K-2/data=!4m7!3m6!1s0x46fd74993f30c6ed:0x6b2e2e080bb46274!8m2!3d54.3745192!4d18.6246483!16s%2Fg%2F1th621sb!19sChIJ7cYwP5l0_UYRdGK0CwguLms?authuser=0&hl=en&rclk=1
54.3478756,18.4813377,drukarnia,Reflex. Drukarnia,https://www.google.com/maps/place/Reflex.+Drukarnia/data=!4m7!3m6!1s0x46fd75f6d944aa6b:0x32b07090969a7937!8m2!3d54.3478756!4d18.4813377!16s%2Fg%2F1hc52879k!19sChIJa6pE2fZ1_UYRN3malpBwsDI?authuser=0&hl=en&rclk=1
54.3990823,18.5657882,drukarnia,"Food Team. Drukarnia. Ulotki, foldery, kalendarze","https://www.google.com/maps/place/Food+Team.+Drukarnia.+Ulotki,+foldery,+kalendarze/data=!4m7!3m6!1s0x46fd752560831fe9:0x623f949861347a7e!8m2!3d54.3990823!4d18.5657882!16s%2Fg%2F1wyc3086!19sChIJ6R-DYCV1_UYRfno0YZiUP2I?authuser=0&hl=en&rclk=1"
54.3790554,18.5970269,drukarnia,FabrykaWizyt贸wek.pl,https://www.google.com/maps/place/FabrykaWizyt%C3%B3wek.pl/data=!4m7!3m6!1s0x46fd74ebbce040cd:0x30cd1b9e984e60d6!8m2!3d54.3790554!4d18.5970269!16s%2Fg%2F12hkljcjx!19sChIJzUDgvOt0_UYR1mBOmJ4bzTA?authuser=0&hl=en&rclk=1
54.396922,18.5724896,drukarnia,Ksero Gdask,https://www.google.com/maps/place/Ksero+Gda%C5%84sk/data=!4m7!3m6!1s0x46fd7526136be179:0x18a63fe64bffd1ee!8m2!3d54.396922!4d18.5724896!16s%2Fg%2F11hzjydzzh!19sChIJeeFrEyZ1_UYR7tH_S-Y_phg?authuser=0&hl=en&rclk=1
54.397192,18.605706,drukarnia,Print Premium Drukarnia Internetowa,https://www.google.com/maps/place/Print+Premium+Drukarnia+Internetowa/data=!4m7!3m6!1s0x46fd74cec801f85d:0x590472a3d6b555d9!8m2!3d54.397192!4d18.605706!16s%2Fg%2F11h4vngf0h!19sChIJXfgByM50_UYR2VW11qNyBFk?authuser=0&hl=en&rclk=1
54.3923899,18.597097,drukarnia,VGG,https://www.google.com/maps/place/VGG/data=!4m7!3m6!1s0x46fd74e6357d1ffb:0x94cc9300f5277742!8m2!3d54.3923899!4d18.597097!16s%2Fg%2F12qfzfhx2!19sChIJ-x99NeZ0_UYRQncn9QCTzJQ?authuser=0&hl=en&rclk=1
54.3994405,18.6100509,drukarnia,Ksero S.C,https://www.google.com/maps/place/Ksero+S.C/data=!4m7!3m6!1s0x46fd755488815511:0x3bea82c8f9a4af26!8m2!3d54.3994405!4d18.6100509!16s%2Fg%2F11j3r_qkb7!19sChIJEVWBiFR1_UYRJq-k-ciC6js?authuser=0&hl=en&rclk=1
54.3942517,18.6213985,drukarnia,Aplip,https://www.google.com/maps/place/Aplip/data=!4m7!3m6!1s0x46fd73180854636d:0x6e9f76b4b8f6e6b9!8m2!3d54.3942517!4d18.6213985!16s%2Fg%2F11jl2wnd74!19sChIJbWNUCBhz_UYRueb2uLR2n24?authuser=0&hl=en&rclk=1
54.3933042,18.6199343,drukarnia,ARPI REKLAMY,https://www.google.com/maps/place/ARPI+REKLAMY/data=!4m7!3m6!1s0x46fd74b721ab8197:0x403501064c719527!8m2!3d54.3933042!4d18.6199343!16s%2Fg%2F1thxjrz3!19sChIJl4GrIbd0_UYRJ5VxTAYBNUA?authuser=0&hl=en&rclk=1
54.39402,18.644182,drukarnia,Pollygraf Sp. z o.o.,https://www.google.com/maps/place/Pollygraf+Sp.+z+o.o./data=!4m7!3m6!1s0x46fd74abb5da9a03:0xc2510728530ea1e6!8m2!3d54.39402!4d18.644182!16s%2Fg%2F11fp1t4wyv!19sChIJA5ratat0_UYR5qEOUygHUcI?authuser=0&hl=en&rclk=1
54.3811014,18.6405532,drukarnia,Afila Sp. z o.o.,https://www.google.com/maps/place/Afila+Sp.+z+o.o./data=!4m7!3m6!1s0x46fd735f50c8234b:0xb23821b4b79d03b6!8m2!3d54.3811014!4d18.6405532!16s%2Fg%2F1tdqs6qp!19sChIJSyPIUF9z_UYRtgOdt7QhOLI?authuser=0&hl=en&rclk=1
54.3613342,18.6888117,drukarnia,Drukarnia Batycka,https://www.google.com/maps/place/Drukarnia+Ba%C5%82tycka/data=!4m7!3m6!1s0x46fd731c6ec2189b:0xe2ad8fa6a7f6f065!8m2!3d54.3613342!4d18.6888117!16s%2Fg%2F1tgwqz3m!19sChIJmxjCbhxz_UYRZfD2p6aPreI?authuser=0&hl=en&rclk=1
54.3944631,18.3998687,drukarnia,Art Vision Pracownia Plastyczna Sawomir Dylak,https://www.google.com/maps/place/Art+Vision+Pracownia+Plastyczna+S%C5%82awomir+Dylak/data=!4m7!3m6!1s0x46fd9f91dc4ea50d:0xdc251cb25f9b1132!8m2!3d54.3944631!4d18.3998687!16s%2Fg%2F11rpddvsyj!19sChIJDaVO3JGf_UYRMhGbX7IcJdw?authuser=0&hl=en&rclk=1
54.3427299,18.5069798,drukarnia,Drukarnia Mirror,https://www.google.com/maps/place/Drukarnia+Mirror/data=!4m7!3m6!1s0x46fd75c29037bd5f:0xd57f76c511c63a01!8m2!3d54.3427299!4d18.5069798!16s%2Fg%2F1tkv8g3c!19sChIJX703kMJ1_UYRATrGEcV2f9U?authuser=0&hl=en&rclk=1
54.3690275,18.464394,drukarnia,KRISPAUL,https://www.google.com/maps/place/KRISPAUL/data=!4m7!3m6!1s0x46fd74911dbdd7b1:0x55d427e6cae71897!8m2!3d54.3690275!4d18.464394!16s%2Fg%2F1pv5zxmkw!19sChIJsde9HZF0_UYRlxjnyuYn1FU?authuser=0&hl=en&rclk=1
54.35903,18.4890154,drukarnia,TOPQ Bucior Bukowski Sp. J.,https://www.google.com/maps/place/TOPQ+Bucior+Bukowski+Sp.+J./data=!4m7!3m6!1s0x46fd758d2134cfab:0x4afb6420c7b0aebe!8m2!3d54.35903!4d18.4890154!16s%2Fg%2F11_r5wy5z!19sChIJq880IY11_UYRvq6wxyBk-0o?authuser=0&hl=en&rclk=1
54.3427336,18.5070507,drukarnia,DRUKARNIA DFP,https://www.google.com/maps/place/DRUKARNIA+DFP/data=!4m7!3m6!1s0x46fd75c28fe85835:0x79de6a0202038bf3!8m2!3d54.3427336!4d18.5070507!16s%2Fg%2F11btx0n0b0!19sChIJNVjoj8J1_UYR84sDAgJq3nk?authuser=0&hl=en&rclk=1
54.3881064,18.5917529,drukarnia,Mila. Druki akcydensowe,https://www.google.com/maps/place/Mila.+Druki+akcydensowe/data=!4m7!3m6!1s0x46fd0b32162bf291:0xfde9815fe369ac89!8m2!3d54.3881064!4d18.5917529!16s%2Fg%2F1ttpfl6q!19sChIJkfIrFjIL_UYRiaxp41-B6f0?authuser=0&hl=en&rclk=1
54.3902922,18.6053473,drukarnia,Drukarnia Witograf,https://www.google.com/maps/place/Drukarnia+Witograf/data=!4m7!3m6!1s0x46fd757dfea6dcc7:0xbd8bf83f985e0474!8m2!3d54.3902922!4d18.6053473!16s%2Fg%2F11h8rt62qc!19sChIJx9ym_n11_UYRdARemD_4i70?authuser=0&hl=en&rclk=1
54.3884281,18.6028856,drukarnia,Bczek Karolina. Drukarnia,https://www.google.com/maps/place/B%C4%85czek+Karolina.+Drukarnia/data=!4m7!3m6!1s0x46fd74c6b692a8f9:0xf0e612de88cbd45e!8m2!3d54.3884281!4d18.6028856!16s%2Fg%2F1trrbwwg!19sChIJ-aiStsZ0_UYRXtTLiN4S5vA?authuser=0&hl=en&rclk=1
54.386409,18.625698,drukarnia,Studio183,https://www.google.com/maps/place/Studio183/data=!4m7!3m6!1s0x46fd74bb2ce3e723:0x363161486faf1a2b!8m2!3d54.386409!4d18.625698!16s%2Fg%2F11fxcfqggn!19sChIJI-fjLLt0_UYRKxqvb0hhMTY?authuser=0&hl=en&rclk=1
54.3912167,18.6599412,drukarnia,Media Vision,https://www.google.com/maps/place/Media+Vision/data=!4m7!3m6!1s0x46fd73f6892f3e17:0x56f39bae83da52e0!8m2!3d54.3912167!4d18.6599412!16s%2Fg%2F1t_kf6bp!19sChIJFz4vifZz_UYR4FLag66b81Y?authuser=0&hl=en&rclk=1
54.3585473,18.6971838,drukarnia,Diamond Star,https://www.google.com/maps/place/Diamond+Star/data=!4m7!3m6!1s0x46fd72e262003d53:0xd9d6d2638fdbac14!8m2!3d54.3585473!4d18.6971838!16s%2Fg%2F11c46h7dbn!19sChIJUz0AYuJy_UYRFKzbj2PS1tk?authuser=0&hl=en&rclk=1
54.3471726,18.6790096,drukarnia,Drukarnia WL sp. z o.o.,https://www.google.com/maps/place/Drukarnia+WL+sp.+z+o.o./data=!4m7!3m6!1s0x46fd730737bb36fb:0x26d3564fe94a68a7!8m2!3d54.3471726!4d18.6790096!16s%2Fg%2F1thw0w0j!19sChIJ-za7Nwdz_UYRp2hK6U9W0yY?authuser=0&hl=en&rclk=1
54.3516394,18.6755824,drukarnia,Poliplus,https://www.google.com/maps/place/Poliplus/data=!4m7!3m6!1s0x46fd74a576640001:0x1b4343effea574ad!8m2!3d54.3516394!4d18.6755824!16s%2Fg%2F11fm16lm84!19sChIJAQBkdqV0_UYRrXSl_u9DQxs?authuser=0&hl=en&rclk=1
54.3427336,18.5070507,drukarnia,Drukarnia 102,https://www.google.com/maps/place/Drukarnia+102/data=!4m7!3m6!1s0x46fd75c29010cc89:0x5390aae787795b5c!8m2!3d54.3427336!4d18.5070507!16s%2Fg%2F11hyxnc7jk!19sChIJicwQkMJ1_UYRXFt5h-eqkFM?authuser=0&hl=en&rclk=1
54.3550031,18.3585772,drukarnia,Plast Print 3D System,https://www.google.com/maps/place/Plast+Print+3D+System/data=!4m7!3m6!1s0x46fd9ea7a8c6d487:0x1ca7c3892701a4b0!8m2!3d54.3550031!4d18.3585772!16s%2Fg%2F11f0kqslqb!19sChIJh9TGqKee_UYRsKQBJ4nDpxw?authuser=0&hl=en&rclk=1
54.3396181,18.5633382,drukarnia,Drukomania.pl,https://www.google.com/maps/place/Drukomania.pl/data=!4m7!3m6!1s0x46fd737f318b458d:0x5c0cb92fe634f3fe!8m2!3d54.3396181!4d18.5633382!16s%2Fg%2F11c3s95r1y!19sChIJjUWLMX9z_UYR_vM05i-5DFw?authuser=0&hl=en&rclk=1
54.3615466,18.5000226,drukarnia,Diapol Sp. z o.o.,https://www.google.com/maps/place/Diapol+Sp.+z+o.o./data=!4m7!3m6!1s0x46fd758e2bbe1ae5:0xdf53ff091fd824a7!8m2!3d54.3615466!4d18.5000226!16s%2Fg%2F1ttdlpdh!19sChIJ5Rq-K451_UYRpyTYHwn_U98?authuser=0&hl=en&rclk=1
54.3427299,18.5069798,drukarnia,Fotoplatforma,https://www.google.com/maps/place/Fotoplatforma/data=!4m7!3m6!1s0x46fd75c29037bd5f:0x39cad43f96004dcf!8m2!3d54.3427299!4d18.5069798!16s%2Fg%2F1tjs3mx7!19sChIJX703kMJ1_UYRz00Alj_Uyjk?authuser=0&hl=en&rclk=1
54.3783579,18.5743402,drukarnia,Printexpress.pl,https://www.google.com/maps/place/Printexpress.pl/data=!4m7!3m6!1s0x46fd74db4cdc764d:0xeb5d217411b229ec!8m2!3d54.3783579!4d18.5743402!16s%2Fg%2F11b76tywlc!19sChIJTXbcTNt0_UYR7CmyEXQhXes?authuser=0&hl=en&rclk=1
54.3589018,18.6054518,drukarnia,B52,https://www.google.com/maps/place/B52/data=!4m7!3m6!1s0x46fd737127f1c78f:0xdc3532219c951042!8m2!3d54.3589018!4d18.6054518!16s%2Fg%2F1yhbjt3t5!19sChIJj8fxJ3Fz_UYRQhCVnCEyNdw?authuser=0&hl=en&rclk=1
54.3746755,18.6102194,drukarnia,Digital Design. 呕elazny P.,https://www.google.com/maps/place/Digital+Design.+%C5%BBelazny+P./data=!4m7!3m6!1s0x46fd74914f28c9cb:0x9932803a06680a1f!8m2!3d54.3746755!4d18.6102194!16s%2Fg%2F1tf1mh_c!19sChIJy8koT5F0_UYRHwpoBjqAMpk?authuser=0&hl=en&rclk=1
54.3683276,18.6136325,drukarnia,Drukarnia WIB,https://www.google.com/maps/place/Drukarnia+WIB/data=!4m7!3m6!1s0x46fd71cb22083049:0x2db72dd4d37b50fc!8m2!3d54.3683276!4d18.6136325!16s%2Fg%2F1tk61t9j!19sChIJSTAIIstx_UYR_FB709Qtty0?authuser=0&hl=en&rclk=1
54.3768751,18.6074984,drukarnia,"D&K Centrum Kopiowania, C.H. Manhattan Poziom 0","https://www.google.com/maps/place/D%26K+Centrum+Kopiowania,+C.H.+Manhattan+Poziom+0/data=!4m7!3m6!1s0x46fd749446d19051:0x4aca55de8ad86722!8m2!3d54.3768751!4d18.6074984!16s%2Fg%2F1vp72gpw!19sChIJUZDRRpR0_UYRImfYit5Vyko?authuser=0&hl=en&rclk=1"
54.373093,18.600704,drukarnia,Studio 4,https://www.google.com/maps/place/Studio+4/data=!4m7!3m6!1s0x46fd7492c296cb8b:0x57c0a3bd8a65b9fd!8m2!3d54.373093!4d18.600704!16s%2Fg%2F11fmxzbq0z!19sChIJi8uWwpJ0_UYR_bllir2jwFc?authuser=0&hl=en&rclk=1
54.3758546,18.607253,drukarnia,Reklamodruk,https://www.google.com/maps/place/Reklamodruk/data=!4m7!3m6!1s0x46fd74940b6b5981:0xcd37f929c81c895c!8m2!3d54.3758546!4d18.607253!16s%2Fg%2F1thk_j_3!19sChIJgVlrC5R0_UYRXIkcyCn5N80?authuser=0&hl=en&rclk=1
54.3807852,18.6056907,drukarnia,Studio 4,https://www.google.com/maps/place/Studio+4/data=!4m7!3m6!1s0x46fd7492e9b0f0e9:0x8debb686c586311c!8m2!3d54.3807852!4d18.6056907!16s%2Fg%2F1tdxp439!19sChIJ6fCw6ZJ0_UYRHDGGxYa2640?authuser=0&hl=en&rclk=1
54.3736199,18.6154577,drukarnia,Akwilon Sp. z o.o.,https://www.google.com/maps/place/Akwilon+Sp.+z+o.o./data=!4m7!3m6!1s0x46fd7490a52a3a4d:0xa774803b0aa6a3d1!8m2!3d54.3736199!4d18.6154577!16s%2Fg%2F1v3lnn7x!19sChIJTToqpZB0_UYR0aOmCjuAdKc?authuser=0&hl=en&rclk=1
54.380591,18.603988,drukarnia,ALG Leszek Wojta,https://www.google.com/maps/place/ALG+Leszek+Wojta%C5%9B/data=!4m7!3m6!1s0x46fd74954b0d5655:0x278b2de5735ae210!8m2!3d54.380591!4d18.603988!16s%2Fg%2F1tjt0mjc!19sChIJVVYNS5V0_UYREOJac-Utiyc?authuser=0&hl=en&rclk=1
54.3765152,18.6229153,drukarnia,Centrum Graficzne GRYF,https://www.google.com/maps/place/Centrum+Graficzne+GRYF/data=!4m7!3m6!1s0x46fd7498568a871b:0xe8e6c47c2a6fdcd8!8m2!3d54.3765152!4d18.6229153!16s%2Fg%2F1tkc0t9t!19sChIJG4eKVph0_UYR2NxvKnzE5ug?authuser=0&hl=en&rclk=1
54.3785736,18.6180488,drukarnia,A-Grafico reklamy,https://www.google.com/maps/place/A-Grafico+reklamy/data=!4m7!3m6!1s0x46fd748fc285b003:0x6be80c9c4ec0a99a!8m2!3d54.3785736!4d18.6180488!16s%2Fg%2F1tjkdhdv!19sChIJA7CFwo90_UYRmqnATpwM6Gs?authuser=0&hl=en&rclk=1
54.358105,18.647401,drukarnia,Akwen Sp. z o.o.,https://www.google.com/maps/place/Akwen+Sp.+z+o.o./data=!4m7!3m6!1s0x46fd73713393e217:0x13f3c16f30bebe26!8m2!3d54.358105!4d18.647401!16s%2Fg%2F1tdmnrn6!19sChIJF-KTM3Fz_UYRJr6-MG_B8xM?authuser=0&hl=en&rclk=1
54.3477711,18.6848688,drukarnia,Drukarnia Polskapresse,https://www.google.com/maps/place/Drukarnia+Polskapresse/data=!4m7!3m6!1s0x46fd730041dcd42d:0x1942a9f9b06dcc10!8m2!3d54.3477711!4d18.6848688!16s%2Fg%2F11b77v7h72!19sChIJLdTcQQBz_UYREMxtsPmpQhk?authuser=0&hl=en&rclk=1
54.350751,18.627219,drukarnia,Manufaktura Druku Patrycja Kau偶na-Szahuniewicz,https://www.google.com/maps/place/Manufaktura+Druku+Patrycja+Ka%C5%82u%C5%BCna-Szahuniewicz/data=!4m7!3m6!1s0x46fd73815880fceb:0xcd813b8c27020e2!8m2!3d54.350751!4d18.627219!16s%2Fg%2F11c2q5k289!19sChIJ6_yAWIFz_UYR4iBwwrgT2Aw?authuser=0&hl=en&rclk=1
54.3312492,18.6349887,drukarnia,Print Dorota Kempka,https://www.google.com/maps/place/Print+Dorota+Kempka/data=!4m7!3m6!1s0x46fd74939fb0dc47:0x65a6a89e4560769c!8m2!3d54.3312492!4d18.6349887!16s%2Fg%2F11fkmz645p!19sChIJR9ywn5N0_UYRnHZgRZ6opmU?authuser=0&hl=en&rclk=1
54.3554208,18.5954734,drukarnia,Reprocentrum,https://www.google.com/maps/place/Reprocentrum/data=!4m7!3m6!1s0x46fd745f2a16f763:0x22b4f7f9a8fd423e!8m2!3d54.3554208!4d18.5954734!16s%2Fg%2F11xhnpsd5!19sChIJY_cWKl90_UYRPkL9qPn3tCI?authuser=0&hl=en&rclk=1
54.3529011,18.5955387,drukarnia,Akobi S.A. Przedsibiorstwo usugowo - projektowe,https://www.google.com/maps/place/Akobi+S.A.+Przedsi%C4%99biorstwo+us%C5%82ugowo+-+projektowe/data=!4m7!3m6!1s0x46fd746438286fbf:0x20db0c9b18a32bbe!8m2!3d54.3529011!4d18.5955387!16s%2Fg%2F1v0ljgfr!19sChIJv28oOGR0_UYRviujGJsM2yA?authuser=0&hl=en&rclk=1
54.3551838,18.5930159,drukarnia,Drukarnia Gdaska S.A.,https://www.google.com/maps/place/Drukarnia+Gda%C5%84ska+S.A./data=!4m7!3m6!1s0x46fd746152580e79:0xce7211607ce565f7!8m2!3d54.3551838!4d18.5930159!16s%2Fg%2F1hc48h10v!19sChIJeQ5YUmF0_UYR92XlfGARcs4?authuser=0&hl=en&rclk=1
54.3501968,18.6108007,drukarnia,ADLON,https://www.google.com/maps/place/ADLON/data=!4m7!3m6!1s0x46fd75f9cec52ec1:0x840e40ef3a7a0113!8m2!3d54.3501968!4d18.6108007!16s%2Fg%2F1v44p31h!19sChIJwS7Fzvl1_UYREwF6Ou9ADoQ?authuser=0&hl=en&rclk=1
54.3491901,18.6066619,drukarnia,Ksero Add Reklamy,https://www.google.com/maps/place/Ksero+Add+Reklamy/data=!4m7!3m6!1s0x46fd73894c1168d3:0xb3e6a703824f4af7!8m2!3d54.3491901!4d18.6066619!16s%2Fg%2F11f03pdh0b!19sChIJ02gRTIlz_UYR90pPggOn5rM?authuser=0&hl=en&rclk=1
54.3643849,18.6294192,drukarnia,KseroMagiel,https://www.google.com/maps/place/KseroMagiel/data=!4m7!3m6!1s0x46fd737d701c90c1:0xa321c36a932f74d2!8m2!3d54.3643849!4d18.6294192!16s%2Fg%2F1hc9zh9q6!19sChIJwZAccH1z_UYR0nQvk2rDIaM?authuser=0&hl=en&rclk=1
54.3643857,18.6292273,drukarnia,Gra & L. FUH,https://www.google.com/maps/place/Gra+%26+L.+FUH/data=!4m7!3m6!1s0x46fd737d701c90c1:0xc35a116a7f6547d5!8m2!3d54.3643857!4d18.6292273!16s%2Fg%2F1t_th_5r!19sChIJwZAccH1z_UYR1Udlf2oRWsM?authuser=0&hl=en&rclk=1
54.3663238,18.6329188,drukarnia,"Usugi Ksero ,,Si贸demka""","https://www.google.com/maps/place/Us%C5%82ugi+Ksero+,,Si%C3%B3demka%22/data=!4m7!3m6!1s0x46fd7362d18c4667:0xe5d31d286c671c49!8m2!3d54.3663238!4d18.6329188!16s%2Fg%2F11dzw9_f94!19sChIJZ0aM0WJz_UYRSRxnbCgd0-U?authuser=0&hl=en&rclk=1"
54.355296,18.6448292,drukarnia,"Mader. Zakad poligrafii, piecztki, gad偶ety reklamowe","https://www.google.com/maps/place/Mader.+Zak%C5%82ad+poligrafii,+piecz%C4%85tki,+gad%C5%BCety+reklamowe/data=!4m7!3m6!1s0x46fd737656988505:0x398d0bfa97207410!8m2!3d54.355296!4d18.6448292!16s%2Fg%2F1tq6c5mc!19sChIJBYWYVnZz_UYREHQgl_oLjTk?authuser=0&hl=en&rclk=1"
54.3682901,18.6130556,drukarnia,Centrum Graficzne GRYF,https://www.google.com/maps/place/Centrum+Graficzne+GRYF/data=!4m7!3m6!1s0x46fd749a9c93b139:0x4aa3120179d31005!8m2!3d54.3682901!4d18.6130556!16s%2Fg%2F1v9l9gnj!19sChIJObGTnJp0_UYRBRDTeQESo0o?authuser=0&hl=en&rclk=1
54.3496369,18.6559305,drukarnia,Drukarnia,https://www.google.com/maps/place/Drukarnia/data=!4m7!3m6!1s0x46fd73a06a0f0085:0x749c04c28c5d6162!8m2!3d54.3496369!4d18.6559305!16s%2Fg%2F11bw2g_37_!19sChIJhQAPaqBz_UYRYmFdjMIEnHQ?authuser=0&hl=en&rclk=1
54.3518151,18.6515414,drukarnia,Usugi kserograficzne,https://www.google.com/maps/place/Us%C5%82ugi+kserograficzne/data=!4m7!3m6!1s0x46fd737562c35b33:0x29cff7f16c640bf9!8m2!3d54.3518151!4d18.6515414!16s%2Fg%2F1tnqfpbk!19sChIJM1vDYnVz_UYR-QtkbPH3zyk?authuser=0&hl=en&rclk=1
54.357173,18.650008,drukarnia,Ksero-Kolor,https://www.google.com/maps/place/Ksero-Kolor/data=!4m7!3m6!1s0x46fd7374060955e5:0xa1926f80c19fc0b6!8m2!3d54.357173!4d18.650008!16s%2Fg%2F1tksm14b!19sChIJ5VUJBnRz_UYRtsCfwYBvkqE?authuser=0&hl=en&rclk=1
54.353555,18.6530168,drukarnia,"Stemplarnia. Stamps, daters, Photocopying","https://www.google.com/maps/place/Stemplarnia.+Stamps,+daters,+Photocopying/data=!4m7!3m6!1s0x46fd739f120640e9:0xb02417fd35718ad7!8m2!3d54.353555!4d18.6530168!16s%2Fg%2F1vnrjq9l!19sChIJ6UAGEp9z_UYR14pxNf0XJLA?authuser=0&hl=en&rclk=1"
54.3322,18.3431,drukarnia,Chemink,https://www.google.com/maps/place/Chemink/data=!4m7!3m6!1s0x46fd9c6cd6046eab:0xe1f5f5f50de62d47!8m2!3d54.3322!4d18.3431!16s%2Fg%2F11bxc63b_p!19sChIJq24E1myc_UYRRy3mDfX19eE?authuser=0&hl=en&rclk=1
54.340789,18.35275,drukarnia,DrukMajster,https://www.google.com/maps/place/DrukMajster/data=!4m7!3m6!1s0x46fd9c10c9081dc1:0x4e6412baa3d4c3df!8m2!3d54.340789!4d18.35275!16s%2Fg%2F11fm160sqv!19sChIJwR0IyRCc_UYR38PUo7oSZE4?authuser=0&hl=en&rclk=1
54.3141357,18.5359727,drukarnia,DOT2DOT S A Oddzia Gdask,https://www.google.com/maps/place/DOT2DOT+S+A+Oddzia%C5%82+Gda%C5%84sk/data=!4m7!3m6!1s0x46fd74b643c19495:0x254bb029e8a5745b!8m2!3d54.3141357!4d18.5359727!16s%2Fg%2F1tgg8npk!19sChIJlZTBQ7Z0_UYRW3Sl6CmwSyU?authuser=0&hl=en&rclk=1
54.352192,18.5657569,drukarnia,Flagi Reklamatic,https://www.google.com/maps/place/Flagi+Reklamatic/data=!4m7!3m6!1s0x46fd754261c50f3d:0x13b4b88d982ed865!8m2!3d54.352192!4d18.5657569!16s%2Fg%2F11gxxw42dc!19sChIJPQ_FYUJ1_UYRZdgumI24tBM?authuser=0&hl=en&rclk=1
54.3392518,18.6166555,drukarnia,"""Drukarnia""",https://www.google.com/maps/place/%22Drukarnia%22/data=!4m7!3m6!1s0x46fd738b92f7b471:0x4da59b9741476168!8m2!3d54.3392518!4d18.6166555!16s%2Fg%2F11j08b0y_1!19sChIJcbT3kotz_UYRaGFHQZebpU0?authuser=0&hl=en&rclk=1
54.3482525,18.6106269,drukarnia,Baranowski Krzysztof. Skad tekstu,https://www.google.com/maps/place/Baranowski+Krzysztof.+Sk%C5%82ad+tekstu/data=!4m7!3m6!1s0x46fd7479c08f9bf1:0xd1b061ab958b4fb9!8m2!3d54.3482525!4d18.6106269!16s%2Fg%2F1hc2tj19p!19sChIJ8ZuPwHl0_UYRuU-LlathsNE?authuser=0&hl=en&rclk=1
54.3373062,18.6024384,drukarnia,"Ksero, wydruk z pliku, skan - FLESZ","https://www.google.com/maps/place/Ksero,+wydruk+z+pliku,+skan+-+FLESZ/data=!4m7!3m6!1s0x46fd7599d781d493:0x78f871655162b88a!8m2!3d54.3373062!4d18.6024384!16s%2Fg%2F11g4jbp25f!19sChIJk9SB15l1_UYRirhiUWVx-Hg?authuser=0&hl=en&rclk=1"
54.3450879,18.662832,drukarnia,COPY & SCAN,https://www.google.com/maps/place/COPY+%26+SCAN/data=!4m7!3m6!1s0x46fd7353ca6fed4b:0x2d439e7bec9c78e6!8m2!3d54.3450879!4d18.662832!16s%2Fg%2F11f9wxj3lw!19sChIJS-1vylNz_UYR5nic7HueQy0?authuser=0&hl=en&rclk=1
54.347154,18.6658149,drukarnia,Firma Poligraficzna Cmyk,https://www.google.com/maps/place/Firma+Poligraficzna+Cmyk/data=!4m7!3m6!1s0x46fd73a7afe91c53:0xf439e25d712eebbf!8m2!3d54.347154!4d18.6658149!16s%2Fg%2F11h6g1c7wd!19sChIJUxzpr6dz_UYRv-sucV3iOfQ?authuser=0&hl=en&rclk=1
54.3426102,18.6548485,drukarnia,Druk12.pl Filia,https://www.google.com/maps/place/Druk12.pl+Filia/data=!4m7!3m6!1s0x46fd0adbb3470ec7:0x987566597c215732!8m2!3d54.3426102!4d18.6548485!16s%2Fg%2F11dz5mr91j!19sChIJxw5Hs9sK_UYRMlchfFlmdZg?authuser=0&hl=en&rclk=1
54.3203926,18.5315361,drukarnia,Info Distributions,https://www.google.com/maps/place/Info+Distributions/data=!4m7!3m6!1s0x46fd76a354769ec1:0xc842093ddcd2c484!8m2!3d54.3203926!4d18.5315361!16s%2Fg%2F1vfp29z6!19sChIJwZ52VKN2_UYRhMTS3D0JQsg?authuser=0&hl=en&rclk=1
54.3306339,18.5591083,drukarnia,"Perfekt Print Sprzeda偶,Dzier偶awa,Serwis Kopiarek Kserokopiarki Drukarki Tusze Tonery Hurt Detal","https://www.google.com/maps/place/Perfekt+Print+Sprzeda%C5%BC,Dzier%C5%BCawa,Serwis+Kopiarek+Kserokopiarki+Drukarki+Tusze+Tonery+Hurt+Detal/data=!4m7!3m6!1s0x46fd74249ea027bf:0x641e02b113f4ece1!8m2!3d54.3306339!4d18.5591083!16s%2Fg%2F11dxjvz83p!19sChIJvyegniR0_UYR4ez0E7ECHmQ?authuser=0&hl=en&rclk=1"
54.3350071,18.5916761,drukarnia,Druk ulotek,https://www.google.com/maps/place/Druk+ulotek/data=!4m7!3m6!1s0x46fd740da2b5aaab:0x5f51c3e00a266acf!8m2!3d54.3350071!4d18.5916761!16s%2Fg%2F11hyxnnq7r!19sChIJq6q1og10_UYRz2omCuDDUV8?authuser=0&hl=en&rclk=1
54.331346,18.5980469,drukarnia,Roznoszenie ulotek Gdask - UlotkiGdansk.pl,https://www.google.com/maps/place/Roznoszenie+ulotek+Gda%C5%84sk+-+UlotkiGdansk.pl/data=!4m7!3m6!1s0x46fd740967092809:0x9dbe0670914c928a!8m2!3d54.331346!4d18.5980469!16s%2Fg%2F11hd07ljbq!19sChIJCSgJZwl0_UYRipJMkXAGvp0?authuser=0&hl=en&rclk=1
54.3314456,18.6826528,drukarnia,Pracownia IMPRESO,https://www.google.com/maps/place/Pracownia+IMPRESO/data=!4m7!3m6!1s0x46fd749938cce52f:0xe3af220542b428d8!8m2!3d54.3314456!4d18.6826528!16s%2Fg%2F1tgnqbt9!19sChIJL-XMOJl0_UYR2Ci0QgUir-M?authuser=0&hl=en&rclk=1
54.3223846,18.6017411,drukarnia,Grafes sp. z o.o.,https://www.google.com/maps/place/Grafes+sp.+z+o.o./data=!4m7!3m6!1s0x46fd73121cc9bc05:0x1736ac31447c2bbe!8m2!3d54.3223846!4d18.6017411!16s%2Fg%2F11p66qnqtm!19sChIJBbzJHBJz_UYRvit8RDGsNhc?authuser=0&hl=en&rclk=1
54.3252593,18.6212468,drukarnia, Usugi Wydawniczo-Poligraficzne Barbara Doliniec,https://www.google.com/maps/place/%F0%9F%96%A8+Us%C5%82ugi+Wydawniczo-Poligraficzne+Barbara+Doliniec/data=!4m7!3m6!1s0x46fd7344b5192ed1:0x10cc1bf92323db07!8m2!3d54.3252593!4d18.6212468!16s%2Fg%2F11p00xckmh!19sChIJ0S4ZtURz_UYRB9sjI_kbzBA?authuser=0&hl=en&rclk=1
54.313742,18.6295859,drukarnia,Rene Graphic - Studio Graficzne,https://www.google.com/maps/place/Rene+Graphic+-+Studio+Graficzne/data=!4m7!3m6!1s0x46fd73f1e412f5d5:0x5ff9108ab815367d!8m2!3d54.313742!4d18.6295859!16s%2Fg%2F1jgm3j162!19sChIJ1fUS5PFz_UYRfTYVuIoQ-V8?authuser=0&hl=en&rclk=1
54.3497841,18.3704433,drukarnia,Pol i Kom. Antosik K.,https://www.google.com/maps/place/Pol+i+Kom.+Antosik+K./data=!4m7!3m6!1s0x46fd9c21cb26c245:0xfa7f939bc3bc6347!8m2!3d54.3497841!4d18.3704433!16s%2Fg%2F1tfbx4hw!19sChIJRcImyyGc_UYRR2O8w5uTf_o?authuser=0&hl=en&rclk=1
54.3026486,18.5874405,drukarnia,Promo-Mix.pl,https://www.google.com/maps/place/Promo-Mix.pl/data=!4m7!3m6!1s0x46fd714cadac72c1:0x5ab759f7aeaeca93!8m2!3d54.3026486!4d18.5874405!16s%2Fg%2F1ptxs1hmg!19sChIJwXKsrUxx_UYRk8qurvdZt1o?authuser=0&hl=en&rclk=1
54.2609209,18.6331754,drukarnia,PROMO Drukarnia,https://www.google.com/maps/place/PROMO+Drukarnia/data=!4m7!3m6!1s0x46fd714b99a8f0eb:0xa75bef4cc1e3d381!8m2!3d54.2609209!4d18.6331754!16s%2Fg%2F11j8f1wmdn!19sChIJ6_ComUtx_UYRgdPjwUzvW6c?authuser=0&hl=en&rclk=1
54.3508582,18.646848,drukarnia,Graften.pl,https://www.google.com/maps/place/Graften.pl/data=!4m7!3m6!1s0x46fd73ff862414d1:0xe32c32c4c0a614cb!8m2!3d54.3508582!4d18.646848!16s%2Fg%2F11q4jt1dqs!19sChIJ0RQkhv9z_UYRyxSmwMQyLOM?authuser=0&hl=en&rclk=1
54.2529935,18.637972,drukarnia,Drukarnia Piramida,https://www.google.com/maps/place/Drukarnia+Piramida/data=!4m7!3m6!1s0x46fd704fe1770365:0xcb926454bdb06275!8m2!3d54.2529935!4d18.637972!16s%2Fg%2F11d_b9x7x8!19sChIJZQN34U9w_UYRdWKwvVRkkss?authuser=0&hl=en&rclk=1
54.241432,18.6143549,drukarnia,B3PROJECT,https://www.google.com/maps/place/B3PROJECT/data=!4m7!3m6!1s0x46fd74854154b561:0x32d36402f5b78794!8m2!3d54.241432!4d18.6143549!16s%2Fg%2F1td5dtn8!19sChIJYbVUQYV0_UYRlIe39QJk0zI?authuser=0&hl=en&rclk=1
54.272531,18.612072,drukarnia,"""Daka"" Ugniewski Marek",https://www.google.com/maps/place/%22Daka%22+Ugniewski+Marek/data=!4m7!3m6!1s0x46fd711c86f2867f:0xb2c28c5888a93d7a!8m2!3d54.272531!4d18.612072!16s%2Fg%2F11h6g1b_t_!19sChIJf4byhhxx_UYRej2piFiMwrI?authuser=0&hl=en&rclk=1
54.2475439,18.6276475,drukarnia,KOLDRUK,https://www.google.com/maps/place/KOLDRUK/data=!4m7!3m6!1s0x46fd705c7649475b:0x792586b9e77ac872!8m2!3d54.2475439!4d18.6276475!16s%2Fg%2F1thgfqgy!19sChIJW0dJdlxw_UYRcsh657mGJXk?authuser=0&hl=en&rclk=1
54.26072,18.640841,drukarnia,"AGNI wydawnictwo, drukarnia, fotograf","https://www.google.com/maps/place/AGNI+wydawnictwo,+drukarnia,+fotograf/data=!4m7!3m6!1s0x46fd7052f62e8cd9:0x20cb85b02eee1a57!8m2!3d54.26072!4d18.640841!16s%2Fg%2F1vb9brhy!19sChIJ2Ywu9lJw_UYRVxruLrCFyyA?authuser=0&hl=en&rclk=1"
54.285714,18.636889,drukarnia,Tast. PPHU,https://www.google.com/maps/place/Tast.+PPHU/data=!4m7!3m6!1s0x46fd710b342b6a13:0xb140bce2b6bd8aa2!8m2!3d54.285714!4d18.636889!16s%2Fg%2F1thxzh93!19sChIJE2orNAtx_UYRooq9tuK8QLE?authuser=0&hl=en&rclk=1
54.2597647,18.6710424,drukarnia,"APIS. Piecztki, drukarnia","https://www.google.com/maps/place/APIS.+Piecz%C4%85tki,+drukarnia/data=!4m7!3m6!1s0x46fd7050303661dd:0xc9472693823f56dd!8m2!3d54.2597647!4d18.6710424!16s%2Fg%2F1ptx26z8_!19sChIJ3WE2MFBw_UYR3VY_gpMmR8k?authuser=0&hl=en&rclk=1"
54.2544018,18.6375073,drukarnia,Grafset. Zakad poligraficzno - introligatorski,https://www.google.com/maps/place/Grafset.+Zak%C5%82ad+poligraficzno+-+introligatorski/data=!4m7!3m6!1s0x46fd705031ca686f:0x6ad4c1390a6b19ea!8m2!3d54.2544018!4d18.6375073!16s%2Fg%2F1tdyjxk4!19sChIJb2jKMVBw_UYR6hlrCjnB1Go?authuser=0&hl=en&rclk=1
54.2611575,18.6382215,drukarnia,Kserografia,https://www.google.com/maps/place/Kserografia/data=!4m7!3m6!1s0x46fd705305379025:0x275d1ee2870fe502!8m2!3d54.2611575!4d18.6382215!16s%2Fg%2F1tcxsyjb!19sChIJJZA3BVNw_UYRAuUPh-IeXSc?authuser=0&hl=en&rclk=1
54.2761254,18.5830149,drukarnia,CREART Karolina Taczanowska,https://www.google.com/maps/place/CREART+Karolina+Taczanowska/data=!4m7!3m6!1s0x46fd712623311a21:0x1df582a8bd677073!8m2!3d54.2761254!4d18.5830149!16s%2Fg%2F11b6t42fjy!19sChIJIRoxIyZx_UYRc3BnvaiC9R0?authuser=0&hl=en&rclk=1
54.2569652,18.6346143,drukarnia,WYDRUKUJ TO,https://www.google.com/maps/place/WYDRUKUJ+TO/data=!4m7!3m6!1s0x46fd713de080a7cb:0x268e319f003f67f1!8m2!3d54.2569652!4d18.6346143!16s%2Fg%2F11q955wdm5!19sChIJy6eA4D1x_UYR8Wc_AJ8xjiY?authuser=0&hl=en&rclk=1
54.2563732,18.6517801,drukarnia,GRAFIK CENTRUM,https://www.google.com/maps/place/GRAFIK+CENTRUM/data=!4m7!3m6!1s0x46fd704bc52cf29f:0xd2f67df00f0bb438!8m2!3d54.2563732!4d18.6517801!16s%2Fg%2F1hhl10dzk!19sChIJn_IsxUtw_UYROLQLD_B99tI?authuser=0&hl=en&rclk=1
54.233889,18.6488239,drukarnia,Digital Design,https://www.google.com/maps/place/Digital+Design/data=!4m7!3m6!1s0x46fd70140d635baf:0x360b4b6dd4d8a09a!8m2!3d54.233889!4d18.6488239!16s%2Fg%2F11hyxn01vw!19sChIJr1tjDRRw_UYRmqDY1G1LCzY?authuser=0&hl=en&rclk=1
