lat,lon,type,title,link
54.435069,18.4673868,fastfood,Burgery Osowa,https://www.google.com/maps/place/Burgery+Osowa/data=!4m7!3m6!1s0x46fda02d1c9d0001:0x32e6cb4e718d100f!8m2!3d54.435069!4d18.4673868!16s%2Fg%2F11fmxzlx70!19sChIJAQCdHC2g_UYRDxCNcU7L5jI?authuser=0&hl=en&rclk=1
54.4438616,18.5663787,fastfood,Nazar Fast Food,https://www.google.com/maps/place/Nazar+Fast+Food/data=!4m7!3m6!1s0x46fd0b7b21daa85b:0xd57257678df7675e!8m2!3d54.4438616!4d18.5663787!16s%2Fg%2F11hfp3sr05!19sChIJW6jaIXsL_UYRXmf3jWdXctU?authuser=0&hl=en&rclk=1
54.4324412,18.4797372,fastfood,Bafra Kebab,https://www.google.com/maps/place/Bafra+Kebab/data=!4m7!3m6!1s0x46fda139e24aaf69:0x8f4c6b31d28acd5c!8m2!3d54.4324412!4d18.4797372!16s%2Fg%2F11t58t08jv!19sChIJaa9K4jmh_UYRXM2K0jFrTI8?authuser=0&hl=en&rclk=1
54.4226379,18.4725559,fastfood,"BurgerOs- burgery, quesadilla, burrito","https://www.google.com/maps/place/BurgerOs-+burgery,+quesadilla,+burrito/data=!4m7!3m6!1s0x46fd9fa5b497baeb:0x2fd9152fd9d27be7!8m2!3d54.4226379!4d18.4725559!16s%2Fg%2F11nxxr66b_!19sChIJ67qXtKWf_UYR53vS2S8V2S8?authuser=0&hl=en&rclk=1"
54.4275564,18.4896015,fastfood,MAX Premium Burgers,https://www.google.com/maps/place/MAX+Premium+Burgers/data=!4m7!3m6!1s0x46fda1b11eeea4ff:0xda62db5ee1abf4d0!8m2!3d54.4275564!4d18.4896015!16s%2Fg%2F11pcpt63pb!19sChIJ_6TuHrGh_UYR0PSr4V7bYto?authuser=0&hl=en&rclk=1
54.4323495,18.4889486,fastfood,Subway,https://www.google.com/maps/place/Subway/data=!4m7!3m6!1s0x46fda1ed3688914b:0x1542fb92ef63590c!8m2!3d54.4323495!4d18.4889486!16s%2Fg%2F11flgkl2ph!19sChIJS5GINu2h_UYRDFlj75L7QhU?authuser=0&hl=en&rclk=1
54.4729829,18.5126089,fastfood,Subway,https://www.google.com/maps/place/Subway/data=!4m7!3m6!1s0x46fda189ed81af4b:0x8656fadf37e549e3!8m2!3d54.4729829!4d18.5126089!16s%2Fg%2F11fwtndn78!19sChIJS6-B7Ymh_UYR40nlN9_6VoY?authuser=0&hl=en&rclk=1
54.3521107,18.646992,fastfood,"Soprano's. Pizzeria, fast - food","https://www.google.com/maps/place/Soprano's.+Pizzeria,+fast+-+food/data=!4m7!3m6!1s0x46fd739e0315b2c7:0x16ec1be4dc6afc7!8m2!3d54.3521107!4d18.646992!16s%2Fg%2F1tg5y9__!19sChIJx7IVA55z_UYRx6_GTb7BbgE?authuser=0&hl=en&rclk=1"
54.4409484,18.4160511,fastfood,Pizzeria Mirena.,https://www.google.com/maps/place/Pizzeria+Mirena./data=!4m7!3m6!1s0x46fda1e4b09e1f2b:0xe360c94fd2f98a49!8m2!3d54.4409484!4d18.4160511!16s%2Fg%2F11c5_rsbjs!19sChIJKx-esOSh_UYRSYr50k_JYOM?authuser=0&hl=en&rclk=1
54.4865044,18.5453677,fastfood,Burger King,https://www.google.com/maps/place/Burger+King/data=!4m7!3m6!1s0x46fda0bc1f7fc407:0x3bd63c6c966113dd!8m2!3d54.4865044!4d18.5453677!16s%2Fg%2F11gfgvpcw4!19sChIJB8R_H7yg_UYR3RNhlmw81js?authuser=0&hl=en&rclk=1
54.444005,18.5659608,fastfood,Bobby Burger,https://www.google.com/maps/place/Bobby+Burger/data=!4m7!3m6!1s0x46fd0a91dc9703df:0xbd47de1d11d6a348!8m2!3d54.444005!4d18.5659608!16s%2Fg%2F11bw6838ds!19sChIJ3wOX3JEK_UYRSKPWER3eR70?authuser=0&hl=en&rclk=1
54.4093626,18.5668829,fastfood,Zapiekarnia,https://www.google.com/maps/place/Zapiekarnia/data=!4m7!3m6!1s0x46fd75dbf9d3fe09:0xfbf9e2ec85b9909d!8m2!3d54.4093626!4d18.5668829!16s%2Fg%2F11q2p0202d!19sChIJCf7T-dt1_UYRnZC5hezi-fs?authuser=0&hl=en&rclk=1
54.4441909,18.5662156,fastfood,Zapiekanki,https://www.google.com/maps/place/Zapiekanki/data=!4m7!3m6!1s0x46fd0b2b6b148953:0xf6aa87497c802117!8m2!3d54.4441909!4d18.5662156!16s%2Fg%2F11g_tfb1qd!19sChIJU4kUaysL_UYRFyGAfEmHqvY?authuser=0&hl=en&rclk=1
54.4464565,18.5658549,fastfood,NightPizzaSopot,https://www.google.com/maps/place/NightPizzaSopot/data=!4m7!3m6!1s0x46fd0b42bed090e9:0xc4ec4ba572ff13c6!8m2!3d54.4464565!4d18.5658549!16s%2Fg%2F11swrqkf_y!19sChIJ6ZDQvkIL_UYRxhP_cqVL7MQ?authuser=0&hl=en&rclk=1
54.4408668,18.5625398,fastfood,Subway,https://www.google.com/maps/place/Subway/data=!4m7!3m6!1s0x4701cd6aeef82099:0xb9420c4b2c537797!8m2!3d54.4408668!4d18.5625398!16s%2Fg%2F11gf9gcrls!19sChIJmSD47mrNAUcRl3dTLEsMQrk?authuser=0&hl=en&rclk=1
54.4209354,18.5720585,fastfood,Chilli Kebab & Grill,https://www.google.com/maps/place/Chilli+Kebab+%26+Grill/data=!4m7!3m6!1s0x46fd0b2a1312b9b3:0x6743a10e7c6aff99!8m2!3d54.4209354!4d18.5720585!16s%2Fg%2F11s1zjsqz6!19sChIJs7kSEyoL_UYRmf9qfA6hQ2c?authuser=0&hl=en&rclk=1
54.4437823,18.5632416,fastfood,PATIO KEBAB food & friends,https://www.google.com/maps/place/PATIO+KEBAB+food+%26+friends/data=!4m7!3m6!1s0x46fd0b58abf4a1f9:0xad2f439052fd13ba!8m2!3d54.4437823!4d18.5632416!16s%2Fg%2F11t2c82dvx!19sChIJ-aH0q1gL_UYRuhP9UpBDL60?authuser=0&hl=en&rclk=1
54.4254466,18.4901478,fastfood,McDonald's,https://www.google.com/maps/place/McDonald's/data=!4m7!3m6!1s0x46fda021b0dd1acf:0xe9fb265d7d1fc4e4!8m2!3d54.4254466!4d18.4901478!16s%2Fg%2F1tmptp4m!19sChIJzxrdsCGg_UYR5MQffV0m--k?authuser=0&hl=en&rclk=1
54.4109043,18.5728276,fastfood,U Szwagra,https://www.google.com/maps/place/U+Szwagra/data=!4m7!3m6!1s0x46fd0ad2a2849975:0xafa1ea2931d0cc58!8m2!3d54.4109043!4d18.5728276!16s%2Fg%2F11_s0l35g!19sChIJdZmEotIK_UYRWMzQMSnqoa8?authuser=0&hl=en&rclk=1
54.441473,18.56223,fastfood,BERLIN DÖNER KEBAP Sopot Centrum,https://www.google.com/maps/place/BERLIN+D%C3%96NER+KEBAP+Sopot+Centrum/data=!4m7!3m6!1s0x46fd0b0083d9ec0f:0xb5f8b3c5ec9b1230!8m2!3d54.441473!4d18.56223!16s%2Fg%2F11nn31nglj!19sChIJD-zZgwAL_UYRMBKb7MWz-LU?authuser=0&hl=en&rclk=1
54.4096964,18.5917021,fastfood,Subway,https://www.google.com/maps/place/Subway/data=!4m7!3m6!1s0x46fd0bc6dd149fb1:0xf153dc5a5b38f48d!8m2!3d54.4096964!4d18.5917021!16s%2Fg%2F11jnlztz3c!19sChIJsZ8U3cYL_UYRjfQ4W1rcU_E?authuser=0&hl=en&rclk=1
54.393728,18.401136,fastfood,Buła kebab,https://www.google.com/maps/place/Bu%C5%82a+kebab/data=!4m7!3m6!1s0x46fd9fd824f8be7b:0x4cc3f7dd999010ec!8m2!3d54.393728!4d18.401136!16s%2Fg%2F11s3c0l66l!19sChIJe774JNif_UYR7BCQmd33w0w?authuser=0&hl=en&rclk=1
54.38248,18.465409,fastfood,Flying Bistro,https://www.google.com/maps/place/Flying+Bistro/data=!4m7!3m6!1s0x46fd9ff923edc611:0x28abe66a10ba858e!8m2!3d54.38248!4d18.465409!16s%2Fg%2F11pv6625c6!19sChIJEcbtI_mf_UYRjoW6EGrmqyg?authuser=0&hl=en&rclk=1
54.3821925,18.6064226,fastfood,Burger King,https://www.google.com/maps/place/Burger+King/data=!4m7!3m6!1s0x46fd74c07f48f8a3:0xe90e992ac204377!8m2!3d54.3821925!4d18.6064226!16s%2Fg%2F11c5blxq04!19sChIJo_hIf8B0_UYRd0MgrJLpkA4?authuser=0&hl=en&rclk=1
54.4009954,18.5753651,fastfood,Subway,https://www.google.com/maps/place/Subway/data=!4m7!3m6!1s0x46fd75e55093ffcd:0x38e41c54370371b0!8m2!3d54.4009954!4d18.5753651!16s%2Fg%2F11h6yxfr83!19sChIJzf-TUOV1_UYRsHEDN1Qc5Dg?authuser=0&hl=en&rclk=1
54.4094697,18.5921175,fastfood,BERLIN DÖNER KEBAP,https://www.google.com/maps/place/BERLIN+D%C3%96NER+KEBAP/data=!4m7!3m6!1s0x46fd0b3a75123f29:0xacbf3c7b471521a3!8m2!3d54.4094697!4d18.5921175!16s%2Fg%2F11jp1616zb!19sChIJKT8SdToL_UYRoyEVR3s8v6w?authuser=0&hl=en&rclk=1
54.4207576,18.5702718,fastfood,"Kurczaki Z Rożna,Kebap","https://www.google.com/maps/place/Kurczaki+Z+Ro%C5%BCna,Kebap/data=!4m7!3m6!1s0x46fd0b6126124dbb:0x889a55f5300a3659!8m2!3d54.4207576!4d18.5702718!16s%2Fg%2F11ghlt1ngp!19sChIJu00SJmEL_UYRWTYKMPVVmog?authuser=0&hl=en&rclk=1"
54.4206827,18.6015693,fastfood,Karmazynowa zatoka,https://www.google.com/maps/place/Karmazynowa+zatoka/data=!4m7!3m6!1s0x46fd0b48bb309c25:0xae93f146ecfbe2f!8m2!3d54.4206827!4d18.6015693!16s%2Fg%2F11s5htcq00!19sChIJJZwwu0gL_UYRL77PbhQ_6Qo?authuser=0&hl=en&rclk=1
54.3939691,18.4048764,fastfood,My Burger & Pizza Banino,https://www.google.com/maps/place/My+Burger+%26+Pizza+Banino/data=!4m7!3m6!1s0x46fd9f02d1c9a465:0x66bd4992b45b94a9!8m2!3d54.3939691!4d18.4048764!16s%2Fg%2F11h0nm_fky!19sChIJZaTJ0QKf_UYRqZRbtJJJvWY?authuser=0&hl=en&rclk=1
54.3216892,18.5538147,fastfood,MAX Premium Burgers,https://www.google.com/maps/place/MAX+Premium+Burgers/data=!4m7!3m6!1s0x46fd77f31910ae35:0xbffb072d8280d399!8m2!3d54.3216892!4d18.5538147!16s%2Fg%2F11ghjmzp11!19sChIJNa4QGfN3_UYRmdOAgi0H-78?authuser=0&hl=en&rclk=1
54.3548964,18.6442268,fastfood,"DONER KEBAP ""BARBOSSA""",https://www.google.com/maps/place/DONER+KEBAP+%22BARBOSSA%22/data=!4m7!3m6!1s0x46fd737651e358c1:0xc96b2ec5629eca1f!8m2!3d54.3548964!4d18.6442268!16s%2Fg%2F11c0rbzkyt!19sChIJwVjjUXZz_UYRH8qeYsUua8k?authuser=0&hl=en&rclk=1
54.3908831,18.5909036,fastfood,Imbiss Istanbul Döner Kebap,https://www.google.com/maps/place/Imbiss+Istanbul+D%C3%B6ner+Kebap/data=!4m7!3m6!1s0x46fd74db6ce5066b:0x132bdc3501248f5f!8m2!3d54.3908831!4d18.5909036!16s%2Fg%2F11h1cdd00!19sChIJawblbNt0_UYRX48kATXcKxM?authuser=0&hl=en&rclk=1
54.4064718,18.5775929,fastfood,Kebab DRWAL,https://www.google.com/maps/place/Kebab+DRWAL/data=!4m7!3m6!1s0x46fd75eeac6bbac5:0x3ecf0431db647931!8m2!3d54.4064718!4d18.5775929!16s%2Fg%2F11spr1pq05!19sChIJxbprrO51_UYRMXlk2zEEzz4?authuser=0&hl=en&rclk=1
54.3766364,18.6152041,fastfood,XL Burger,https://www.google.com/maps/place/XL+Burger/data=!4m7!3m6!1s0x46fd749704c24f75:0x60676cdde84d720e!8m2!3d54.3766364!4d18.6152041!16s%2Fg%2F11fkmz5fsy!19sChIJdU_CBJd0_UYRDnJN6N1sZ2A?authuser=0&hl=en&rclk=1
54.408699,18.5954687,fastfood,Burger Stacja,https://www.google.com/maps/place/Burger+Stacja/data=!4m7!3m6!1s0x46fd0b127157e10b:0x8baa094f2dbdcb9!8m2!3d54.408699!4d18.5954687!16s%2Fg%2F11pb206fzz!19sChIJC-FXcRIL_UYRudzb8pSgugg?authuser=0&hl=en&rclk=1
54.4076231,18.5901242,fastfood,McDonald's,https://www.google.com/maps/place/McDonald's/data=!4m7!3m6!1s0x46fd0b2ac667559b:0xbce2a84c1f0eb37e!8m2!3d54.4076231!4d18.5901242!16s%2Fg%2F1vg_5_15!19sChIJm1VnxioL_UYRfrMOH0yo4rw?authuser=0&hl=en&rclk=1
54.3822393,18.605634,fastfood,THE FRY,https://www.google.com/maps/place/THE+FRY/data=!4m7!3m6!1s0x46fd75cbe795dac5:0x8ee6ab5ebc44c898!8m2!3d54.3822393!4d18.605634!16s%2Fg%2F11s9c8f40n!19sChIJxdqV58t1_UYRmMhEvF6r5o4?authuser=0&hl=en&rclk=1
54.4120647,18.5845465,fastfood,Burgermania,https://www.google.com/maps/place/Burgermania/data=!4m7!3m6!1s0x46fd0ad42280e739:0xdbd07c71b4e037b8!8m2!3d54.4120647!4d18.5845465!16s%2Fg%2F11bxdynz0k!19sChIJOeeAItQK_UYRuDfgtHF80Ns?authuser=0&hl=en&rclk=1
54.3963951,18.604859,fastfood,BERLIN DÖNER KEBAP Zaspa,https://www.google.com/maps/place/BERLIN+D%C3%96NER+KEBAP+Zaspa/data=!4m7!3m6!1s0x46fd751e2f073c6d:0x768c90d4673d2a7d!8m2!3d54.3963951!4d18.604859!16s%2Fg%2F11t537q_5g!19sChIJbTwHLx51_UYRfSo9Z9SQjHY?authuser=0&hl=en&rclk=1
54.355,18.6491667,fastfood,KEBAB KING,https://www.google.com/maps/place/KEBAB+KING/data=!4m7!3m6!1s0x46fd737432762ddd:0xf7c13879fd807f51!8m2!3d54.355!4d18.6491667!16s%2Fg%2F1q5bmzfb5!19sChIJ3S12MnRz_UYRUX-A_Xk4wfc?authuser=0&hl=en&rclk=1
54.3828024,18.6004565,fastfood,Burger King Galeria Bałtycka,https://www.google.com/maps/place/Burger+King+Galeria+Ba%C5%82tycka/data=!4m7!3m6!1s0x46fd74ea7e943f17:0x743e3723c3dd00a0!8m2!3d54.3828024!4d18.6004565!16s%2Fg%2F1jgm4xx0j!19sChIJFz-Ufup0_UYRoADdwyM3PnQ?authuser=0&hl=en&rclk=1
54.3522526,18.4986527,fastfood,Pani Burger z dostawą,https://www.google.com/maps/place/Pani+Burger+z+dostaw%C4%85/data=!4m7!3m6!1s0x46fd75ed2243d45f:0xd670faeacce833c8!8m2!3d54.3522526!4d18.4986527!16s%2Fg%2F11bxc57hjf!19sChIJX9RDIu11_UYRyDPozOr6cNY?authuser=0&hl=en&rclk=1
54.3396561,18.5545532,fastfood,Burger King,https://www.google.com/maps/place/Burger+King/data=!4m7!3m6!1s0x46fd74374f2ad40f:0x69df534cd61642bc!8m2!3d54.3396561!4d18.5545532!16s%2Fg%2F11cmbqxz_x!19sChIJD9QqTzd0_UYRvEIW1kxT32k?authuser=0&hl=en&rclk=1
54.380591,18.603988,fastfood,Kebab orient Wrzeszcz,https://www.google.com/maps/place/Kebab+orient+Wrzeszcz/data=!4m7!3m6!1s0x46fd75b6bbd72689:0x8448c9233929101!8m2!3d54.380591!4d18.603988!16s%2Fg%2F11s6j0cx2d!19sChIJiSbXu7Z1_UYRAZGSM5KMRAg?authuser=0&hl=en&rclk=1
54.3497688,18.6443966,fastfood,MAX Premium Burgers,https://www.google.com/maps/place/MAX+Premium+Burgers/data=!4m7!3m6!1s0x46fd73e5ba6a1a93:0x5f0597c7788ec6cf!8m2!3d54.3497688!4d18.6443966!16s%2Fg%2F11j00nx9gz!19sChIJkxpquuVz_UYRz8aOeMeXBV8?authuser=0&hl=en&rclk=1
54.3738124,18.6267906,fastfood,Kebab super king,https://www.google.com/maps/place/Kebab+super+king/data=!4m7!3m6!1s0x46fd755a15a7dee1:0xe7f08e758df8c9a6!8m2!3d54.3738124!4d18.6267906!16s%2Fg%2F11sx_ck45p!19sChIJ4d6nFVp1_UYRpsn4jXWO8Oc?authuser=0&hl=en&rclk=1
54.3474667,18.6592246,fastfood,Kult Kebab,https://www.google.com/maps/place/Kult+Kebab/data=!4m7!3m6!1s0x46fd7375727cc0b9:0x6c5e8767d7c39898!8m2!3d54.3474667!4d18.6592246!16s%2Fg%2F11bzxzyzrz!19sChIJucB8cnVz_UYRmJjD12eHXmw?authuser=0&hl=en&rclk=1
54.3558885,18.6482914,fastfood,3Burger Gdańsk,https://www.google.com/maps/place/3Burger+Gda%C5%84sk/data=!4m7!3m6!1s0x46fd73769b94b189:0x5ce44645066a5d07!8m2!3d54.3558885!4d18.6482914!16s%2Fg%2F11c2p7fhpk!19sChIJibGUm3Zz_UYRB11qBkVG5Fw?authuser=0&hl=en&rclk=1
54.353111,18.6523013,fastfood,Krowarzywa Vegan Burger,https://www.google.com/maps/place/Krowarzywa+Vegan+Burger/data=!4m7!3m6!1s0x46fd735e519d7e93:0x20a919975411b46f!8m2!3d54.353111!4d18.6523013!16s%2Fg%2F11rc70kv8t!19sChIJk36dUV5z_UYRb7QRVJcZqSA?authuser=0&hl=en&rclk=1
54.3218925,18.5520155,fastfood,McDonald's,https://www.google.com/maps/place/McDonald's/data=!4m7!3m6!1s0x46fd769df0ad1c9f:0x4460bfc39e325a78!8m2!3d54.3218925!4d18.5520155!16s%2Fg%2F11xgsh1sy!19sChIJnxyt8J12_UYReFoynsO_YEQ?authuser=0&hl=en&rclk=1
54.381742,18.4667284,fastfood,Restauracja McDonald's,https://www.google.com/maps/place/Restauracja+McDonald's/data=!4m7!3m6!1s0x46fd9fcb4ae9f8ab:0x7934e40ebee36dea!8m2!3d54.381742!4d18.4667284!16s%2Fg%2F11fz27k_wf!19sChIJq_jpSsuf_UYR6m3jvg7kNHk?authuser=0&hl=en&rclk=1
54.3526378,18.594005,fastfood,Subway,https://www.google.com/maps/place/Subway/data=!4m7!3m6!1s0x46fd7465ce7136d3:0xb3c4e073871a4f4!8m2!3d54.3526378!4d18.594005!16s%2Fg%2F11c328qhq7!19sChIJ0zZxzmV0_UYR9KRxOAdOPAs?authuser=0&hl=en&rclk=1
54.3906187,18.5985031,fastfood,Just Kebab,https://www.google.com/maps/place/Just+Kebab/data=!4m7!3m6!1s0x46fd755acd310057:0x3293998493e3f188!8m2!3d54.3906187!4d18.5985031!16s%2Fg%2F11p0dhgdh6!19sChIJVwAxzVp1_UYRiPHjk4SZkzI?authuser=0&hl=en&rclk=1
54.3880429,18.591258,fastfood,Wavegan,https://www.google.com/maps/place/Wavegan/data=!4m7!3m6!1s0x46fd75497cde2131:0x2b17dc02a98e88c9!8m2!3d54.3880429!4d18.591258!16s%2Fg%2F11rs0jvvlg!19sChIJMSHefEl1_UYRyYiOqQLcFys?authuser=0&hl=en&rclk=1
54.3881655,18.6252596,fastfood,My Taste Kebab,https://www.google.com/maps/place/My+Taste+Kebab/data=!4m7!3m6!1s0x46fd7597ef46ff09:0x81d934d8828509b3!8m2!3d54.3881655!4d18.6252596!16s%2Fg%2F11m9tgwl7x!19sChIJCf9G75d1_UYRswmFgtg02YE?authuser=0&hl=en&rclk=1
54.34941,18.648668,fastfood,Langosz Gdańsk,https://www.google.com/maps/place/Langosz+Gda%C5%84sk/data=!4m7!3m6!1s0x46fd73554da3952d:0xf14d6282df95bae3!8m2!3d54.34941!4d18.648668!16s%2Fg%2F11s535rcwp!19sChIJLZWjTVVz_UYR47qV34JiTfE?authuser=0&hl=en&rclk=1
54.3560947,18.6489019,fastfood,Subway,https://www.google.com/maps/place/Subway/data=!4m7!3m6!1s0x46fd73769e177213:0xd5a47f69cbf20587!8m2!3d54.3560947!4d18.6489019!16s%2Fg%2F1vpfh7b0!19sChIJE3IXnnZz_UYRhwXyy2l_pNU?authuser=0&hl=en&rclk=1
54.3611729,18.7156116,fastfood,ControlFood,https://www.google.com/maps/place/ControlFood/data=!4m7!3m6!1s0x46fd72e8876761f7:0xa9fa3d80ae9e7f9a!8m2!3d54.3611729!4d18.7156116!16s%2Fg%2F12hk2h1yw!19sChIJ92Fnh-hy_UYRmn-eroA9-qk?authuser=0&hl=en&rclk=1
54.3516959,18.525216,fastfood,Subway,https://www.google.com/maps/place/Subway/data=!4m7!3m6!1s0x46fd75b8fca6b909:0xe806a012fe1ef20d!8m2!3d54.3516959!4d18.525216!16s%2Fg%2F11c6f5_wmm!19sChIJCbmm_Lh1_UYRDfIe_hKgBug?authuser=0&hl=en&rclk=1
54.3596871,18.5882169,fastfood,KEBAB LAMH MORENA,https://www.google.com/maps/place/KEBAB+LAMH+MORENA/data=!4m7!3m6!1s0x46fd75cb1d376c63:0x8dab3aee26eef75f!8m2!3d54.3596871!4d18.5882169!16s%2Fg%2F11s5sbl6x4!19sChIJY2w3Hct1_UYRX_fuJu46q40?authuser=0&hl=en&rclk=1
54.3774064,18.6070453,fastfood,Subway,https://www.google.com/maps/place/Subway/data=!4m7!3m6!1s0x46fd749446d19051:0x85fec42930418627!8m2!3d54.3774064!4d18.6070453!16s%2Fg%2F11dx8ysf_3!19sChIJUZDRRpR0_UYRJ4ZBMCnE_oU?authuser=0&hl=en&rclk=1
54.3527569,18.6519967,fastfood,Krewetka i spółka,https://www.google.com/maps/place/Krewetka+i+sp%C3%B3%C5%82ka/data=!4m7!3m6!1s0x46fd73ca2a8f28c3:0x2971baf4834c0f2d!8m2!3d54.3527569!4d18.6519967!16s%2Fg%2F11p9zml2f1!19sChIJwyiPKspz_UYRLQ9Mg_S6cSk?authuser=0&hl=en&rclk=1
54.362011,18.6898489,fastfood,Subway,https://www.google.com/maps/place/Subway/data=!4m7!3m6!1s0x46fd731c04c69545:0x45e020e9275f88db!8m2!3d54.362011!4d18.6898489!16s%2Fg%2F11ghp3fvb_!19sChIJRZXGBBxz_UYR24hfJ-kg4EU?authuser=0&hl=en&rclk=1
54.3473357,18.3655273,fastfood,Kebab Jerusalem,https://www.google.com/maps/place/Kebab+Jerusalem/data=!4m7!3m6!1s0x46fd9d9bf3d3975f:0x3261ed1e0976af36!8m2!3d54.3473357!4d18.3655273!16s%2Fg%2F11h07t8ccw!19sChIJX5fT85ud_UYRNq92CR7tYTI?authuser=0&hl=en&rclk=1
54.3538859,18.4204887,fastfood,Nazar Kebab,https://www.google.com/maps/place/Nazar+Kebab/data=!4m7!3m6!1s0x46fd9e7b34b392f9:0xbbc4a52f182123ce!8m2!3d54.3538859!4d18.4204887!16s%2Fg%2F1hc3wtghg!19sChIJ-ZKzNHue_UYRziMhGC-lxLs?authuser=0&hl=en&rclk=1
54.3520451,18.524639,fastfood,BERLIN DÖNER KEBAP,https://www.google.com/maps/place/BERLIN+D%C3%96NER+KEBAP/data=!4m7!3m6!1s0x46fd74db6afd25eb:0x783ade67cbcb2a2a!8m2!3d54.3520451!4d18.524639!16s%2Fg%2F1hc3lz7z0!19sChIJ6yX9att0_UYRKirLy2feOng?authuser=0&hl=en&rclk=1
54.3578192,18.5874051,fastfood,McDonald's,https://www.google.com/maps/place/McDonald's/data=!4m7!3m6!1s0x46fd745e1f52fa1f:0x56f04e19846e9203!8m2!3d54.3578192!4d18.5874051!16s%2Fg%2F1tmgb3ql!19sChIJH_pSH150_UYRA5JuhBlO8FY?authuser=0&hl=en&rclk=1
53.9193382,19.0317581,fastfood,Fast Food Burgery,https://www.google.com/maps/place/Fast+Food+Burgery/data=!4m7!3m6!1s0x4702a98a90b0b5bd:0x57722d70a72f15aa!8m2!3d53.9193382!4d19.0317581!16s%2Fg%2F11h1vb9kwx!19sChIJvbWwkIqpAkcRqhUvp3Atclc?authuser=0&hl=en&rclk=1
54.3511096,18.8337861,fastfood,Bar Leśna Wyspa,https://www.google.com/maps/place/Bar+Le%C5%9Bna+Wyspa/data=!4m7!3m6!1s0x46fd6df1a4a1ff6b:0xd426cb4facca1bbc!8m2!3d54.3511096!4d18.8337861!16s%2Fg%2F11g0zxkgk3!19sChIJa_-hpPFt_UYRvBvKrE_LJtQ?authuser=0&hl=en&rclk=1
52.228932,21.0011679,fastfood,Burger King,https://www.google.com/maps/place/Burger+King/data=!4m7!3m6!1s0x471ecc8d8e36e5b5:0x61136ed1da07a60f!8m2!3d52.228932!4d21.0011679!16s%2Fg%2F11clwbthwj!19sChIJteU2jo3MHkcRD6YH2tFuE2E?authuser=0&hl=en&rclk=1
52.2288889,21.0033962,fastfood,McDonald's,https://www.google.com/maps/place/McDonald's/data=!4m7!3m6!1s0x471ecc8d70642d71:0xd8bd3d8799751487!8m2!3d52.2288889!4d21.0033962!16s%2Fg%2F1tdl09rl!19sChIJcS1kcI3MHkcRhxR1mYc9vdg?authuser=0&hl=en&rclk=1
52.2352172,20.9802748,fastfood,Burneika Burger,https://www.google.com/maps/place/Burneika+Burger/data=!4m7!3m6!1s0x471ecd19a9c45935:0x6b02a3b6e59c6ac0!8m2!3d52.2352172!4d20.9802748!16s%2Fg%2F11jsf7sk0w!19sChIJNVnEqRnNHkcRwGqc5bajAms?authuser=0&hl=en&rclk=1
52.2407299,21.0280438,fastfood,The Fry,https://www.google.com/maps/place/The+Fry/data=!4m7!3m6!1s0x471ecdb8e7eaccf3:0xe7a27b4c2cf70a3a!8m2!3d52.2407299!4d21.0280438!16s%2Fg%2F11j8z712vd!19sChIJ88zq57jNHkcROgr3LEx7ouc?authuser=0&hl=en&rclk=1
52.2302995,21.0014321,fastfood,Restauracja McDonald's,https://www.google.com/maps/place/Restauracja+McDonald's/data=!4m7!3m6!1s0x471ecc8da58f0dd5:0x5e824c58482bba1e!8m2!3d52.2302995!4d21.0014321!16s%2Fg%2F1tgh69vt!19sChIJ1Q2PpY3MHkcRHrorSFhMgl4?authuser=0&hl=en&rclk=1
52.231995,20.9898671,fastfood,The Fry - frytki belgijskie,https://www.google.com/maps/place/The+Fry+-+frytki+belgijskie/data=!4m7!3m6!1s0x471ecdf8a10e16fb:0x6ff086a95b9763fa!8m2!3d52.231995!4d20.9898671!16s%2Fg%2F11p72j1v9x!19sChIJ-xYOofjNHkcR-mOXW6mG8G8?authuser=0&hl=en&rclk=1
52.2334109,21.019018,fastfood,Kura Box,https://www.google.com/maps/place/Kura+Box/data=!4m7!3m6!1s0x471ecdb940a0cbe9:0x8999fa8fb4e62bae!8m2!3d52.2334109!4d21.019018!16s%2Fg%2F11rd8fm6_8!19sChIJ6cugQLnNHkcRrivmtI_6mYk?authuser=0&hl=en&rclk=1
54.3411961,18.3749342,fastfood,Restauracja Koko i Spółka,https://www.google.com/maps/place/Restauracja+Koko+i+Sp%C3%B3%C5%82ka/data=!4m7!3m6!1s0x46fd9d2ccb25c001:0xc27faa01465d257b!8m2!3d54.3411961!4d18.3749342!16s%2Fg%2F11fncvnw_n!19sChIJAcAlyyyd_UYReyVdRgGqf8I?authuser=0&hl=en&rclk=1
54.381165,18.6047554,fastfood,MIM Kebab & Grill,https://www.google.com/maps/place/MIM+Kebab+%26+Grill/data=!4m7!3m6!1s0x46fd75c703195705:0x9b7a627a3cb4178c!8m2!3d54.381165!4d18.6047554!16s%2Fg%2F11fk421zgz!19sChIJBVcZA8d1_UYRjBe0PHpieps?authuser=0&hl=en&rclk=1
54.3148868,18.5693546,fastfood,Lamh Kebab gdansk,https://www.google.com/maps/place/Lamh+Kebab+gdansk/data=!4m7!3m6!1s0x46fd77e4c78ac789:0xa544f85b60050073!8m2!3d54.3148868!4d18.5693546!16s%2Fg%2F11t89cr7nj!19sChIJiceKx-R3_UYRcwAFYFv4RKU?authuser=0&hl=en&rclk=1
54.3518721,18.5245076,fastfood,KFC Gdańsk Auchan,https://www.google.com/maps/place/KFC+Gda%C5%84sk+Auchan/data=!4m7!3m6!1s0x46fd75b8ff4ef133:0x9b3b055cc6dfd32f!8m2!3d54.3518721!4d18.5245076!16s%2Fg%2F1tcy2_bw!19sChIJM_FO_7h1_UYRL9PfxlwFO5s?authuser=0&hl=en&rclk=1
54.3324848,18.5847296,fastfood,Altin Kebap,https://www.google.com/maps/place/Altin+Kebap/data=!4m7!3m6!1s0x46fd755a7e3b0761:0x8e4fb87458ac0194!8m2!3d54.3324848!4d18.5847296!16s%2Fg%2F11rmxs7lvq!19sChIJYQc7flp1_UYRlAGsWHS4T44?authuser=0&hl=en&rclk=1
54.349346,18.643527,fastfood,Burger King Forum Gdańsk,https://www.google.com/maps/place/Burger+King+Forum+Gda%C5%84sk/data=!4m7!3m6!1s0x46fd73ae14b5a091:0xb40d827b71191437!8m2!3d54.349346!4d18.643527!16s%2Fg%2F11h3mqbs_l!19sChIJkaC1FK5z_UYRNxQZcXuCDbQ?authuser=0&hl=en&rclk=1
54.3500795,18.6446339,fastfood,Berlin Döner Kebap,https://www.google.com/maps/place/Berlin+D%C3%B6ner+Kebap/data=!4m7!3m6!1s0x46fd7341a1ad5ba5:0x6df7c1ba50728f34!8m2!3d54.3500795!4d18.6446339!16s%2Fg%2F11f66z5f7f!19sChIJpVutoUFz_UYRNI9yULrB920?authuser=0&hl=en&rclk=1
54.332432,18.583249,fastfood,Kobo Burger,https://www.google.com/maps/place/Kobo+Burger/data=!4m7!3m6!1s0x46fd7411a75aaaa9:0x7b039df07fa63356!8m2!3d54.332432!4d18.583249!16s%2Fg%2F11g6bw30p9!19sChIJqapapxF0_UYRVjOmf_CdA3s?authuser=0&hl=en&rclk=1
54.348413,18.6128423,fastfood,Buffalo Burger,https://www.google.com/maps/place/Buffalo+Burger/data=!4m7!3m6!1s0x46fd74784c2b7a87:0x3b99d12bec2abb7f!8m2!3d54.348413!4d18.6128423!16s%2Fg%2F11fkmz21ts!19sChIJh3orTHh0_UYRf7sq7CvRmTs?authuser=0&hl=en&rclk=1
54.3488571,18.6523814,fastfood,Original Burger,https://www.google.com/maps/place/Original+Burger/data=!4m7!3m6!1s0x46fd739f810bc0e5:0x4fd0c3da552a6b66!8m2!3d54.3488571!4d18.6523814!16s%2Fg%2F1tdw24yq!19sChIJ5cALgZ9z_UYRZmsqVdrD0E8?authuser=0&hl=en&rclk=1
54.3379772,18.6105528,fastfood,KEBAB JERUSALEM,https://www.google.com/maps/place/KEBAB+JERUSALEM/data=!4m7!3m6!1s0x46fd735c8736f1af:0xacdd4078989fe8bc!8m2!3d54.3379772!4d18.6105528!16s%2Fg%2F11tcrxl95p!19sChIJr_E2h1xz_UYRvOifmHhA3aw?authuser=0&hl=en&rclk=1
54.3371122,18.6121257,fastfood,Kebab orient,https://www.google.com/maps/place/Kebab+orient/data=!4m7!3m6!1s0x46fd737d453b26d5:0xe4f9d954f34e1467!8m2!3d54.3371122!4d18.6121257!16s%2Fg%2F11sxvxdgj2!19sChIJ1SY7RX1z_UYRZxRO81TZ-eQ?authuser=0&hl=en&rclk=1
54.3296619,18.6052576,fastfood,ChoNoTu BURGER,https://www.google.com/maps/place/ChoNoTu+BURGER/data=!4m7!3m6!1s0x46fd73f613eca1af:0x9b835902b4743677!8m2!3d54.3296619!4d18.6052576!16s%2Fg%2F11dfvk03l9!19sChIJr6HsE_Zz_UYRdzZ0tAJZg5s?authuser=0&hl=en&rclk=1
54.35095,18.6496886,fastfood,Alanya Kebap,https://www.google.com/maps/place/Alanya+Kebap/data=!4m7!3m6!1s0x46fd739fccb7f757:0x558cd99861cd8ca5!8m2!3d54.35095!4d18.6496886!16s%2Fg%2F11b7hk4pby!19sChIJV_e3zJ9z_UYRpYzNYZjZjFU?authuser=0&hl=en&rclk=1
54.337381,18.8235601,fastfood,Bałtycka Biesiada,https://www.google.com/maps/place/Ba%C5%82tycka+Biesiada/data=!4m7!3m6!1s0x46fd6def704769ff:0x1143e71395d3e92!8m2!3d54.337381!4d18.8235601!16s%2Fg%2F11jq_xg38d!19sChIJ_2lHcO9t_UYRkj5dOXE-FAE?authuser=0&hl=en&rclk=1
54.2958218,18.5353025,fastfood,Kebabisto - Kebab,https://www.google.com/maps/place/Kebabisto+-+Kebab/data=!4m7!3m6!1s0x46fd778905b6fabf:0x91e48601f6ce6374!8m2!3d54.2958218!4d18.5353025!16s%2Fg%2F11sprs_fdq!19sChIJv_q2BYl3_UYRdGPO9gGG5JE?authuser=0&hl=en&rclk=1
54.2725948,18.5824182,fastfood,Zapiekanki Kloss Food,https://www.google.com/maps/place/Zapiekanki+Kloss+Food/data=!4m7!3m6!1s0x46fd71cf277e88eb:0x49b959581534b9e!8m2!3d54.2725948!4d18.5824182!16s%2Fg%2F11q3tk_rxm!19sChIJ64h-J89x_UYRnktTgZWVmwQ?authuser=0&hl=en&rclk=1
54.327058,18.6084118,fastfood,Restauracja McDonald's,https://www.google.com/maps/place/Restauracja+McDonald's/data=!4m7!3m6!1s0x46fd7400cb4d9209:0x47d57634ab58d236!8m2!3d54.327058!4d18.6084118!16s%2Fg%2F1yg4jj3c5!19sChIJCZJNywB0_UYRNtJYqzR21Uc?authuser=0&hl=en&rclk=1
54.3110993,18.5674068,fastfood,Snack Bar Burger,https://www.google.com/maps/place/Snack+Bar+Burger/data=!4m7!3m6!1s0x46fd777cde0c5a53:0xda0111e1db1879c6!8m2!3d54.3110993!4d18.5674068!16s%2Fg%2F1hhl84247!19sChIJU1oM3nx3_UYRxnkY2-ERAdo?authuser=0&hl=en&rclk=1
54.2654237,18.6631526,fastfood,Kebab Sułtan,https://www.google.com/maps/place/Kebab+Su%C5%82tan/data=!4m7!3m6!1s0x46fd71b6111b480b:0xbd4b02d9945ca517!8m2!3d54.2654237!4d18.6631526!16s%2Fg%2F11c5xtxt4x!19sChIJC0gbEbZx_UYRF6VclNkCS70?authuser=0&hl=en&rclk=1
54.2606088,18.6519497,fastfood,Izmir. Korytnicki M.,https://www.google.com/maps/place/Izmir.+Korytnicki+M./data=!4m7!3m6!1s0x46fd71cada72acfb:0xfae8d0819295ba39!8m2!3d54.2606088!4d18.6519497!16s%2Fg%2F1tgplqpn!19sChIJ-6xy2spx_UYRObqVkoHQ6Po?authuser=0&hl=en&rclk=1
54.3355456,18.9330746,fastfood,Pizza Food,https://www.google.com/maps/place/Pizza+Food/data=!4m7!3m6!1s0x46fd6b38d903bd73:0x7ba16c1a17b98b36!8m2!3d54.3355456!4d18.9330746!16s%2Fg%2F11b77dlssd!19sChIJc70D2Thr_UYRNou5FxpsoXs?authuser=0&hl=en&rclk=1
54.2753262,18.5846735,fastfood,Bafra Kebab,https://www.google.com/maps/place/Bafra+Kebab/data=!4m7!3m6!1s0x46fd71d24132e69d:0xf33c30808a2742d0!8m2!3d54.2753262!4d18.5846735!16s%2Fg%2F11sbd2bxf0!19sChIJneYyQdJx_UYR0EInioAwPPM?authuser=0&hl=en&rclk=1
54.2597681,18.6582734,fastfood,Mili Food,https://www.google.com/maps/place/Mili+Food/data=!4m7!3m6!1s0x46fd71fabed7859f:0x233bc4d67287f908!8m2!3d54.2597681!4d18.6582734!16s%2Fg%2F11tc1_bk20!19sChIJn4XXvvpx_UYRCPmHctbEOyM?authuser=0&hl=en&rclk=1
54.3560784,18.6452148,fastfood,KFC Gdańsk PKP,https://www.google.com/maps/place/KFC+Gda%C5%84sk+PKP/data=!4m7!3m6!1s0x46fd7376591c6953:0x37575f621dbd1386!8m2!3d54.3560784!4d18.6452148!16s%2Fg%2F1tgj7j45!19sChIJU2kcWXZz_UYRhhO9HWJfVzc?authuser=0&hl=en&rclk=1
54.2482613,18.9822932,fastfood,Subway,https://www.google.com/maps/place/Subway/data=!4m7!3m6!1s0x46fd43ad91794cf7:0x5991a31e956daf4f!8m2!3d54.2482613!4d18.9822932!16s%2Fg%2F11pzpc34xs!19sChIJ90x5ka1D_UYRT69tlR6jkVk?authuser=0&hl=en&rclk=1
54.2481943,18.6331206,fastfood,McDonald's,https://www.google.com/maps/place/McDonald's/data=!4m7!3m6!1s0x46fd705b46663163:0x10bdfe42f01dec78!8m2!3d54.2481943!4d18.6331206!16s%2Fg%2F11b6y8gbbn!19sChIJYzFmRltw_UYReOwd8EL-vRA?authuser=0&hl=en&rclk=1
54.3037854,18.7990401,fastfood,LOTOS,https://www.google.com/maps/place/LOTOS/data=!4m7!3m6!1s0x46fd6c353568bc63:0x7506cf314acb0588!8m2!3d54.3037854!4d18.7990401!16s%2Fg%2F11c3k94s4p!19sChIJY7xoNTVs_UYRiAXLSjHPBnU?authuser=0&hl=en&rclk=1
54.180238,15.568931,fastfood,Bad Boys,https://www.google.com/maps/place/Bad+Boys/data=!4m7!3m6!1s0x47001599844259a9:0xcbf058d5d6c00a44!8m2!3d54.180238!4d15.568931!16s%2Fg%2F11g6ny4l45!19sChIJqVlChJkVAEcRRArA1tVY8Ms?authuser=0&hl=en&rclk=1
54.2732988,18.613702,fastfood,ŻarłoWóz,https://www.google.com/maps/place/%C5%BBar%C5%82oW%C3%B3z/data=!4m7!3m6!1s0x46fd71b4f6bfbf2f:0x640fa5e4771169f8!8m2!3d54.2732988!4d18.613702!16s%2Fg%2F11t0rdrmqs!19sChIJL7-_9rRx_UYR-GkRd-SlD2Q?authuser=0&hl=en&rclk=1
54.2631694,18.6364127,fastfood,Kebab MacMac,https://www.google.com/maps/place/Kebab+MacMac/data=!4m7!3m6!1s0x46fd7122a620c2db:0xddaf0fa630969b92!8m2!3d54.2631694!4d18.6364127!16s%2Fg%2F11fhw29wk2!19sChIJ28IgpiJx_UYRkpuWMKYPr90?authuser=0&hl=en&rclk=1
54.3530325,18.6473021,fastfood,SurfBurger Garncarska,https://www.google.com/maps/place/SurfBurger+Garncarska/data=!4m7!3m6!1s0x46fd7375fca4cc45:0x5301b3004597d02!8m2!3d54.3530325!4d18.6473021!16s%2Fg%2F11bt_n5z1b!19sChIJRcyk_HVz_UYRAn1ZBDAbMAU?authuser=0&hl=en&rclk=1
54.2431244,18.6320585,fastfood,Subway,https://www.google.com/maps/place/Subway/data=!4m7!3m6!1s0x46fd714e9bc6f8e9:0x33cb2783ff554330!8m2!3d54.2431244!4d18.6320585!16s%2Fg%2F11jnqvdhpl!19sChIJ6fjGm05x_UYRMENV_4MnyzM?authuser=0&hl=en&rclk=1
54.2604548,18.6470704,fastfood,Gruby Benek,https://www.google.com/maps/place/Gruby+Benek/data=!4m7!3m6!1s0x46fd704d212a27f5:0xdb76626bbdeaab57!8m2!3d54.2604548!4d18.6470704!16s%2Fg%2F1wj_4r12!19sChIJ9ScqIU1w_UYRV6vqvWtidts?authuser=0&hl=en&rclk=1
54.2695198,18.4697324,fastfood,NYC KEBAB,https://www.google.com/maps/place/NYC+KEBAB/data=!4m7!3m6!1s0x46fd7761afb7eca5:0x39d4aa96ea8ec471!8m2!3d54.2695198!4d18.4697324!16s%2Fg%2F11l8rd2m2y!19sChIJpey3r2F3_UYRccSO6paq1Dk?authuser=0&hl=en&rclk=1
54.2613873,18.6438872,fastfood,Cukroteka Pruszcz Gdański,https://www.google.com/maps/place/Cukroteka+Pruszcz+Gda%C5%84ski/data=!4m7!3m6!1s0x46fd71c7ef65f9a1:0x63fb65679858995f!8m2!3d54.2613873!4d18.6438872!16s%2Fg%2F11s56n4_mg!19sChIJofll78dx_UYRX5lYmGdl-2M?authuser=0&hl=en&rclk=1
54.2600377,18.6501242,fastfood,Kebab MacMac,https://www.google.com/maps/place/Kebab+MacMac/data=!4m7!3m6!1s0x46fd712699ac00df:0x8bf9fde6856717b6!8m2!3d54.2600377!4d18.6501242!16s%2Fg%2F11fj84tywl!19sChIJ3wCsmSZx_UYRthdnheb9-Ys?authuser=0&hl=en&rclk=1
