lat,lon,type,title,link
54.4777478,18.5536658,hotel,Hotel Kuracyjny,https://www.google.com/maps/place/Hotel+Kuracyjny/data=!4m10!3m9!1s0x46fda098fb0b8421:0xe44a7ec729a06beb!5m2!4m1!1i2!8m2!3d54.4777478!4d18.5536658!16s%2Fg%2F1vpq5krk!19sChIJIYQL-5ig_UYR62ugKcd-SuQ?authuser=0&hl=en&rclk=1
54.5254384,18.4921096,hotel,Green Loft Gdynia,https://www.google.com/maps/place/Green+Loft+Gdynia/data=!4m10!3m9!1s0x46fda75f9fdd1fdd:0x9cc748d51e89d1de!5m2!4m1!1i2!8m2!3d54.5254384!4d18.4921096!16s%2Fg%2F11f7bk4q1z!19sChIJ3R_dn1-n_UYR3tGJHtVIx5w?authuser=0&hl=en&rclk=1
54.4708959,18.4630722,hotel,Pro-Hotel Sp. z o.o.,https://www.google.com/maps/place/Pro-Hotel+Sp.+z+o.o./data=!4m7!3m6!1s0x46fda1a74a6ea601:0xe3de4cbd85cfeb4b!8m2!3d54.4708959!4d18.4630722!16s%2Fg%2F1tmqdxkv!19sChIJAaZuSqeh_UYRS-vPhb1M3uM?authuser=0&hl=en&rclk=1
54.5007629,18.4649848,hotel,Hotel Morski w Gdyni,https://www.google.com/maps/place/Hotel+Morski+w+Gdyni/data=!4m10!3m9!1s0x46fda144058725d5:0xd07bfd5d628d887e!5m2!4m1!1i2!8m2!3d54.5007629!4d18.4649848!16s%2Fg%2F1tkrkh9b!19sChIJ1SWHBUSh_UYRfoiNYl39e9A?authuser=0&hl=en&rclk=1
54.469151,18.501534,hotel,Starodworcowa Gdynia,https://www.google.com/maps/place/Starodworcowa+Gdynia/data=!4m7!3m6!1s0x46fda0f9005c45d1:0x753f91581eee0c8d!8m2!3d54.469151!4d18.501534!16s%2Fg%2F11cr_r49_g!19sChIJ0UVcAPmg_UYRjQzuHliRP3U?authuser=0&hl=en&rclk=1
54.4691698,18.5015555,hotel,Baltic Hotel,https://www.google.com/maps/place/Baltic+Hotel/data=!4m10!3m9!1s0x46fda0f9005c45d1:0x9bce928abb5829b1!5m2!4m1!1i2!8m2!3d54.4691698!4d18.5015555!16s%2Fg%2F11b6xys5vz!19sChIJ0UVcAPmg_UYRsSlYu4qSzps?authuser=0&hl=en&rclk=1
54.473319,18.4705179,hotel,Happy Floryda,https://www.google.com/maps/place/Happy+Floryda/data=!4m7!3m6!1s0x46fda1085afd2b3f:0x4bf295853b12083b!8m2!3d54.473319!4d18.4705179!16s%2Fg%2F1tg4vjs4!19sChIJPyv9Wgih_UYROwgSO4WV8ks?authuser=0&hl=en&rclk=1
54.467967,18.4865739,hotel,Dom Matlista,https://www.google.com/maps/place/Dom+Matlista/data=!4m7!3m6!1s0x46fda10101275c0b:0x24d1a7e8b6d2b097!8m2!3d54.467967!4d18.4865739!16s%2Fg%2F11p9n8n8p2!19sChIJC1wnAQGh_UYRl7DStuin0SQ?authuser=0&hl=en&rclk=1
54.4810754,18.5398212,hotel,Hotel Quadrille Relais & Châteaux,https://www.google.com/maps/place/Hotel+Quadrille+Relais+%26+Ch%C3%A2teaux/data=!4m10!3m9!1s0x46fda095c3e7ed9b:0x8f6e15df90aa9395!5m2!4m1!1i2!8m2!3d54.4810754!4d18.5398212!16s%2Fg%2F1tt89z2n!19sChIJm-3nw5Wg_UYRlZOqkN8Vbo8?authuser=0&hl=en&rclk=1
54.4506981,18.5609722,hotel,Hotel Haffner,https://www.google.com/maps/place/Hotel+Haffner/data=!4m10!3m9!1s0x46fd0a85d736da9d:0x1893a74c7f4b4b7f!5m2!4m1!1i2!8m2!3d54.4506981!4d18.5609722!16s%2Fg%2F120vz_0y!19sChIJndo214UK_UYRf0tLf0ynkxg?authuser=0&hl=en&rclk=1
54.505185,18.553716,hotel,Hotel Nadmorski,https://www.google.com/maps/place/Hotel+Nadmorski/data=!4m10!3m9!1s0x46fda74ae3ae7aeb:0x5bf9d2c943f30c35!5m2!4m1!1i2!8m2!3d54.505185!4d18.553716!16s%2Fg%2F1tgj7j58!19sChIJ63qu40qn_UYRNQzzQ8nS-Vs?authuser=0&hl=en&rclk=1
54.496532,18.510447,hotel,Long No.4 Villa Bed & Breakfast,https://www.google.com/maps/place/Long+No.4+Villa+Bed+%26+Breakfast/data=!4m10!3m9!1s0x46fda0d85c9c8953:0x6a87a56d126bbd8a!5m2!4m1!1i2!8m2!3d54.496532!4d18.510447!16s%2Fg%2F11b67dgchp!19sChIJU4mcXNig_UYRir1rEm2lh2o?authuser=0&hl=en&rclk=1
54.4788788,18.5523163,hotel,Guest House Orłowo,https://www.google.com/maps/place/Guest+House+Or%C5%82owo/data=!4m10!3m9!1s0x46fda0985b3ee1fd:0x2438597fcacd50d0!5m2!4m1!1i2!8m2!3d54.4788788!4d18.5523163!16s%2Fg%2F11g8bww19w!19sChIJ_eE-W5ig_UYR0FDNyn9ZOCQ?authuser=0&hl=en&rclk=1
54.477748,18.553666,hotel,Hotel Kuracyjny,https://www.google.com/maps/place/Hotel+Kuracyjny/data=!4m10!3m9!1s0x46fda0991d5f6db7:0xe44a7ec729a06beb!5m2!4m1!1i2!8m2!3d54.477748!4d18.553666!16s%2Fg%2F1vpq5krk!19sChIJt21fHZmg_UYR62ugKcd-SuQ?authuser=0&hl=en&rclk=1
54.479642,18.555692,hotel,Hotel Willa Lubicz,https://www.google.com/maps/place/Hotel+Willa+Lubicz/data=!4m10!3m9!1s0x46fda09899c9f20d:0xa7342cc92df36f9f!5m2!4m1!1i2!8m2!3d54.479642!4d18.555692!16s%2Fg%2F1tdzvdpg!19sChIJDfLJmZig_UYRn2_zLcksNKc?authuser=0&hl=en&rclk=1
54.477912,18.55521,hotel,Kwatery Noclegi,https://www.google.com/maps/place/Kwatery+Noclegi/data=!4m7!3m6!1s0x46fda098dc17bff1:0xacf5eb1ddcf6d8d5!8m2!3d54.477912!4d18.55521!16s%2Fg%2F11c0wc9hqg!19sChIJ8b8X3Jig_UYR1dj23B3r9aw?authuser=0&hl=en&rclk=1
54.479642,18.555692,hotel,Hotel Willa Lubicz,https://www.google.com/maps/place/Hotel+Willa+Lubicz/data=!4m10!3m9!1s0x46fda09899c98bb7:0xa7342cc92df36f9f!5m2!4m1!1i2!8m2!3d54.479642!4d18.555692!16s%2Fg%2F1tdzvdpg!19sChIJt4vJmZig_UYRn2_zLcksNKc?authuser=0&hl=en&rclk=1
54.4552586,18.5600806,hotel,Hotel Sopot,https://www.google.com/maps/place/Hotel+Sopot/data=!4m10!3m9!1s0x46fd0b68b0c3fe8f:0xb62d86507deca528!5m2!4m1!1i2!8m2!3d54.4552586!4d18.5600806!16s%2Fg%2F11h18kx0d0!19sChIJj_7DsGgL_UYRKKXsfVCGLbY?authuser=0&hl=en&rclk=1
54.520783,18.549372,hotel,Courtyard by Marriott Gdynia Waterfront,https://www.google.com/maps/place/Courtyard+by+Marriott+Gdynia+Waterfront/data=!4m10!3m9!1s0x46fda73b8b267e7b:0xbf262e6031c7597e!5m2!4m1!1i2!8m2!3d54.520783!4d18.549372!16s%2Fg%2F11b6xhwg8h!19sChIJe34mizun_UYRflnHMWAuJr8?authuser=0&hl=en&rclk=1
54.5051851,18.5537157,hotel,Hotel Nadmorski,https://www.google.com/maps/place/Hotel+Nadmorski/data=!4m10!3m9!1s0x46fda74b05b02c37:0x5bf9d2c943f30c35!5m2!4m1!1i2!8m2!3d54.5051851!4d18.5537157!16s%2Fg%2F1tgj7j58!19sChIJNyywBUun_UYRNQzzQ8nS-Vs?authuser=0&hl=en&rclk=1
54.5086026,18.552191,hotel,Hotel Różany Gaj,https://www.google.com/maps/place/Hotel+R%C3%B3%C5%BCany+Gaj/data=!4m10!3m9!1s0x46fda735f87c2f01:0x3f9ef3cc41ea01e2!5m2!4m1!1i2!8m2!3d54.5086026!4d18.552191!16s%2Fg%2F1tjhwc0s!19sChIJAS98-DWn_UYR4gHqQczznj8?authuser=0&hl=en&rclk=1
54.602615,18.807793,hotel,Hotel Hel,https://www.google.com/maps/place/Hotel+Hel/data=!4m10!3m9!1s0x46fd042c77e93823:0xbfc4567d3a52a4b1!5m2!4m1!1i2!8m2!3d54.602615!4d18.807793!16s%2Fg%2F11f77r8zcw!19sChIJIzjpdywE_UYRsaRSOn1WxL8?authuser=0&hl=en&rclk=1
54.347966,18.654096,hotel,IBB Hotel Gdańsk,https://www.google.com/maps/place/IBB+Hotel+Gda%C5%84sk/data=!4m10!3m9!1s0x46fd73a1c9eb10fb:0x36694306a8071c43!5m2!4m1!1i2!8m2!3d54.347966!4d18.654096!16s%2Fg%2F11f3x92sgh!19sChIJ-xDryaFz_UYRQxwHqAZDaTY?authuser=0&hl=en&rclk=1
54.4360355,18.5805268,hotel,Hotel Bursztyn,https://www.google.com/maps/place/Hotel+Bursztyn/data=!4m10!3m9!1s0x46fd0aebfce5b557:0xea8310a93821579a!5m2!4m1!1i2!8m2!3d54.4360355!4d18.5805268!16s%2Fg%2F1tks5049!19sChIJV7Xl_OsK_UYRmlchOKkQg-o?authuser=0&hl=en&rclk=1
54.4062526,18.5763462,hotel,Hotel Arkon Park Business & Sport,https://www.google.com/maps/place/Hotel+Arkon+Park+Business+%26+Sport/data=!4m10!3m9!1s0x46fd752b1271a38b:0x26b43a18b7dfefeb!5m2!4m1!1i2!8m2!3d54.4062526!4d18.5763462!16s%2Fg%2F1tk89tnq!19sChIJi6NxEit1_UYR6-_ftxg6tCY?authuser=0&hl=en&rclk=1
54.383548,18.604564,hotel,Focus Hotel Premium Gdańsk,https://www.google.com/maps/place/Focus+Hotel+Premium+Gda%C5%84sk/data=!4m10!3m9!1s0x46fd74c06c29159d:0xf249873b374e3df0!5m2!4m1!1i2!8m2!3d54.383548!4d18.604564!16s%2Fg%2F11cncnddcb!19sChIJnRUpbMB0_UYR8D1ONzuHSfI?authuser=0&hl=en&rclk=1
54.3512767,18.6494195,hotel,Hotel Wolne Miasto,https://www.google.com/maps/place/Hotel+Wolne+Miasto/data=!4m10!3m9!1s0x46fd739e2d9d3a67:0x79c7e2b56961a7f9!5m2!4m1!1i2!8m2!3d54.3512767!4d18.6494195!16s%2Fg%2F11b88kpspy!19sChIJZzqdLZ5z_UYR-adhabXix3k?authuser=0&hl=en&rclk=1
54.3436117,18.6553233,hotel,Hotel nr 1,https://www.google.com/maps/place/Hotel+nr+1/data=!4m7!3m6!1s0x46fd73dc4fb00b3f:0x4eaf7bfd2ca70c49!8m2!3d54.3436117!4d18.6553233!16s%2Fg%2F11h5mcfbhc!19sChIJPwuwT9xz_UYRSQynLP17r04?authuser=0&hl=en&rclk=1
54.3817305,18.595169,hotel,Smart Hotel,https://www.google.com/maps/place/Smart+Hotel/data=!4m10!3m9!1s0x46fd74e98c857f5d:0x133918e56ebd6948!5m2!4m1!1i2!8m2!3d54.3817305!4d18.595169!16s%2Fg%2F11bws7nlf0!19sChIJXX-FjOl0_UYRSGm9buUYORM?authuser=0&hl=en&rclk=1
54.3491037,18.6606589,hotel,Hotel Gdańsk Boutique,https://www.google.com/maps/place/Hotel+Gda%C5%84sk+Boutique/data=!4m10!3m9!1s0x46fd73a0bbe780c7:0x55b036465e9c7dcc!5m2!4m1!1i2!8m2!3d54.3491037!4d18.6606589!16s%2Fg%2F11c5szcx3b!19sChIJx4Dnu6Bz_UYRzH2cXkY2sFU?authuser=0&hl=en&rclk=1
54.356323,18.646624,hotel,Scandic,https://www.google.com/maps/place/Scandic/data=!4m10!3m9!1s0x46fd7376eb623879:0x7b38711ca28b10e0!5m2!4m1!1i2!8m2!3d54.356323!4d18.646624!16s%2Fg%2F1220fqcj!19sChIJeThi63Zz_UYR4BCLohxxOHs?authuser=0&hl=en&rclk=1
54.3520451,18.6508454,hotel,Vårt hotel i gdansk,https://www.google.com/maps/place/V%C3%A5rt+hotel+i+gdansk/data=!4m7!3m6!1s0x46fd73d39dcd61f9:0xb3f5c512659b0c62!8m2!3d54.3520451!4d18.6508454!16s%2Fg%2F11h1rj9q26!19sChIJ-WHNndNz_UYRYgybZRLF9bM?authuser=0&hl=en&rclk=1
54.454757,18.5496497,hotel,Hotel Sopot Spółka Z Ograniczoną Odpowiedzialnością Spółka Komandytowa,https://www.google.com/maps/place/Hotel+Sopot+Sp%C3%B3%C5%82ka+Z+Ograniczon%C4%85+Odpowiedzialno%C5%9Bci%C4%85+Sp%C3%B3%C5%82ka+Komandytowa/data=!4m7!3m6!1s0x46fd0a81c55f19a9:0x6f0c75b3b0c315b1!8m2!3d54.454757!4d18.5496497!16s%2Fg%2F11hzwb7vhd!19sChIJqRlfxYEK_UYRsRXDsLN1DG8?authuser=0&hl=en&rclk=1
54.458076,18.5514319,hotel,Sopot Holiday Rooms,https://www.google.com/maps/place/Sopot+Holiday+Rooms/data=!4m10!3m9!1s0x46fda07ffe8a5ef7:0xe14d6a6c29f484b8!5m2!4m1!1i2!8m2!3d54.458076!4d18.5514319!16s%2Fg%2F11flvw4x2h!19sChIJ916K_n-g_UYRuIT0KWxqTeE?authuser=0&hl=en&rclk=1
54.460527,18.5561033,hotel,Hotel Miramar,https://www.google.com/maps/place/Hotel+Miramar/data=!4m10!3m9!1s0x46fd0a7f752196e3:0x976f97646354a355!5m2!4m1!1i2!8m2!3d54.460527!4d18.5561033!16s%2Fg%2F1tqf_08m!19sChIJ45YhdX8K_UYRVaNUY2SXb5c?authuser=0&hl=en&rclk=1
54.4591234,18.5562138,hotel,Hotel Aqua Sopot Family & Friends,https://www.google.com/maps/place/Hotel+Aqua+Sopot+Family+%26+Friends/data=!4m10!3m9!1s0x46fd0a7fb6528bc3:0x61b870f0075b0f92!5m2!4m1!1i2!8m2!3d54.4591234!4d18.5562138!16s%2Fg%2F12mjygwlq!19sChIJw4tStn8K_UYRkg9bB_BwuGE?authuser=0&hl=en&rclk=1
54.4473794,18.5681926,hotel,Sofitel Grand Sopot,https://www.google.com/maps/place/Sofitel+Grand+Sopot/data=!4m10!3m9!1s0x46fd0a8ef15d22cd:0x96eb528bc5f1e9b7!5m2!4m1!1i2!8m2!3d54.4473794!4d18.5681926!16s%2Fm%2F02x4j83!19sChIJzSJd8Y4K_UYRt-nxxYtS65Y?authuser=0&hl=en&rclk=1
54.3437927,18.8316123,hotel,Hotel Bartan Gdańsk Seaside,https://www.google.com/maps/place/Hotel+Bartan+Gda%C5%84sk+Seaside/data=!4m10!3m9!1s0x46fd6ce05c442185:0x18f5d40bd326e76d!5m2!4m1!1i2!8m2!3d54.3437927!4d18.8316123!16s%2Fg%2F12cpb6xkx!19sChIJhSFEXOBs_UYRbecm0wvU9Rg?authuser=0&hl=en&rclk=1
54.4436674,18.4430878,hotel,Pokoje Gościnne,https://www.google.com/maps/place/Pokoje+Go%C5%9Bcinne/data=!4m7!3m6!1s0x46fda1c37ba3f78f:0x5bf9c5d36185fc93!8m2!3d54.4436674!4d18.4430878!16s%2Fg%2F11fxf0m3zk!19sChIJj_eje8Oh_UYRk_yFYdPF-Vs?authuser=0&hl=en&rclk=1
54.4408527,18.4564671,hotel,Pokoje Noclegi,https://www.google.com/maps/place/Pokoje+Noclegi/data=!4m7!3m6!1s0x46fda1ce47427605:0xe2ac8f48a0e79520!8m2!3d54.4408527!4d18.4564671!16s%2Fg%2F11q84pwxx5!19sChIJBXZCR86h_UYRIJXnoEiPrOI?authuser=0&hl=en&rclk=1
54.3898144,18.4740083,hotel,Hi Hotel,https://www.google.com/maps/place/Hi+Hotel/data=!4m10!3m9!1s0x46fd9f72d6f69657:0x10fa9cbcd84347f7!5m2!4m1!1i2!8m2!3d54.3898144!4d18.4740083!16s%2Fg%2F11j5fztm8q!19sChIJV5b21nKf_UYR90dD2Lyc-hA?authuser=0&hl=en&rclk=1
54.440804,18.5595429,hotel,Villa Ozone,https://www.google.com/maps/place/Villa+Ozone/data=!4m10!3m9!1s0x46fd0b1c66bd92f3:0x7c0a667e28a72406!5m2!4m1!1i2!8m2!3d54.440804!4d18.5595429!16s%2Fg%2F11g0jc0kq_!19sChIJ85K9ZhwL_UYRBiSnKH5mCnw?authuser=0&hl=en&rclk=1
54.46917,18.501556,hotel,Baltic Hotel,https://www.google.com/maps/place/Baltic+Hotel/data=!4m10!3m9!1s0x46fda0f9005fa377:0x9bce928abb5829b1!5m2!4m1!1i2!8m2!3d54.46917!4d18.501556!16s%2Fg%2F11b6xys5vz!19sChIJd6NfAPmg_UYRsSlYu4qSzps?authuser=0&hl=en&rclk=1
54.4439582,18.5473752,hotel,Hotel Opera,https://www.google.com/maps/place/Hotel+Opera/data=!4m10!3m9!1s0x46fd0a9c4f88ccdd:0x7f93a4d42ca82673!5m2!4m1!1i2!8m2!3d54.4439582!4d18.5473752!16s%2Fg%2F1tg804t0!19sChIJ3cyIT5wK_UYRcyaoLNSkk38?authuser=0&hl=en&rclk=1
54.44287,18.572462,hotel,Hotel Eden w Sopocie,https://www.google.com/maps/place/Hotel+Eden+w+Sopocie/data=!4m10!3m9!1s0x46fd0a92880aab29:0x1170e549c8fcded5!5m2!4m1!1i2!8m2!3d54.44287!4d18.572462!16s%2Fg%2F11h1ssyvk!19sChIJKasKiJIK_UYR1d78yEnlcBE?authuser=0&hl=en&rclk=1
54.443034,18.569923,hotel,Dom & House - Apartments Zacisze,https://www.google.com/maps/place/Dom+%26+House+-+Apartments+Zacisze/data=!4m10!3m9!1s0x46fd0a9213a74507:0x6ec04c138c38f56f!5m2!4m1!1i2!8m2!3d54.443034!4d18.569923!16s%2Fg%2F11s_ytk_dw!19sChIJB0WnE5IK_UYRb_U4jBNMwG4?authuser=0&hl=en&rclk=1
54.4456222,18.5681389,hotel,Bayjonn Hotel Sopot,https://www.google.com/maps/place/Bayjonn+Hotel+Sopot/data=!4m10!3m9!1s0x46fd0a8e14bce26f:0x9da1b47b5d485504!5m2!4m1!1i2!8m2!3d54.4456222!4d18.5681389!16s%2Fg%2F1tgdgpd7!19sChIJb-K8FI4K_UYRBFVIXXu0oZ0?authuser=0&hl=en&rclk=1
54.4433333,18.5733333,hotel,"Zhong Hua, Hotel Chiński","https://www.google.com/maps/place/Zhong+Hua,+Hotel+Chi%C5%84ski/data=!4m10!3m9!1s0x46fd0a928192670d:0x3f859708b61f71c4!5m2!4m1!1i2!8m2!3d54.4433333!4d18.5733333!16s%2Fg%2F1thkqcxj!19sChIJDWeSgZIK_UYRxHEftgiXhT8?authuser=0&hl=en&rclk=1"
54.4334073,18.579679,hotel,"Radisson Blu Hotel, Sopot","https://www.google.com/maps/place/Radisson+Blu+Hotel,+Sopot/data=!4m10!3m9!1s0x46fd0b16f6185511:0x57deefc336378255!5m2!4m1!1i2!8m2!3d54.4334073!4d18.579679!16s%2Fg%2F11j7z13jm7!19sChIJEVUY9hYL_UYRVYI3NsPv3lc?authuser=0&hl=en&rclk=1"
54.4336634,18.5835636,hotel,Sopot Marriott Resort & Spa,https://www.google.com/maps/place/Sopot+Marriott+Resort+%26+Spa/data=!4m10!3m9!1s0x46fd0ae8fcf642c7:0x6b6eb8303e1c8da9!5m2!4m1!1i2!8m2!3d54.4336634!4d18.5835636!16s%2Fg%2F1xgz9h1t!19sChIJx0L2_OgK_UYRqY0cPjC4bms?authuser=0&hl=en&rclk=1
54.4287746,18.5902129,hotel,Novotel Gdansk Marina,https://www.google.com/maps/place/Novotel+Gdansk+Marina/data=!4m10!3m9!1s0x46fd0add8ff9f85f:0xeaa9f6b7e06f7f8d!5m2!4m1!1i2!8m2!3d54.4287746!4d18.5902129!16s%2Fg%2F1wyc306_!19sChIJX_j5j90K_UYRjX9v4Lf2qeo?authuser=0&hl=en&rclk=1
54.41,18.6338889,hotel,Hotel Lival,https://www.google.com/maps/place/Hotel+Lival/data=!4m10!3m9!1s0x46fd0b4f4b2c93f3:0xc9144a08f9be2cb8!5m2!4m1!1i2!8m2!3d54.41!4d18.6338889!16s%2Fg%2F1vxvgkcg!19sChIJ85MsS08L_UYRuCy--QhKFMk?authuser=0&hl=en&rclk=1
54.4186722,18.5839576,hotel,hotel,https://www.google.com/maps/place/hotel/data=!4m7!3m6!1s0x46fd0b29a1a14b9f:0x723990dce8c0c12c!8m2!3d54.4186722!4d18.5839576!16s%2Fg%2F11t7cm9388!19sChIJn0uhoSkL_UYRLMHA6NyQOXI?authuser=0&hl=en&rclk=1
54.4079691,18.6378157,hotel,Hotel Dom Zdrojowy,https://www.google.com/maps/place/Hotel+Dom+Zdrojowy/data=!4m10!3m9!1s0x46fd0b17c9e02697:0x52da87f49524c3cc!5m2!4m1!1i2!8m2!3d54.4079691!4d18.6378157!16s%2Fg%2F11rn7h14s2!19sChIJlybgyRcL_UYRzMMklfSH2lI?authuser=0&hl=en&rclk=1
54.3930182,18.4740939,hotel,Sleep Inn Noclegi -Rooms-Kомнаты,https://www.google.com/maps/place/Sleep+Inn+Noclegi+-Rooms-K%D0%BE%D0%BC%D0%BD%D0%B0%D1%82%D1%8B/data=!4m10!3m9!1s0x46fd9fc7dd44808d:0x1ad279a6e7fd335b!5m2!4m1!1i2!8m2!3d54.3930182!4d18.4740939!16s%2Fg%2F11bzs08l45!19sChIJjYBE3cef_UYRWzP956Z50ho?authuser=0&hl=en&rclk=1
54.437118,18.46477,hotel,Malinowe Wzgórze Gdańsk,https://www.google.com/maps/place/Malinowe+Wzg%C3%B3rze+Gda%C5%84sk/data=!4m10!3m9!1s0x46fda1e0c358d2a9:0x767c38e3c92e581f!5m2!4m1!1i2!8m2!3d54.437118!4d18.46477!16s%2Fg%2F11s3zpcrvc!19sChIJqdJYw-Ch_UYRH1guyeM4fHY?authuser=0&hl=en&rclk=1
54.4367438,18.5519462,hotel,Hotel LEŚNE IGLO,https://www.google.com/maps/place/Hotel+LE%C5%9ANE+IGLO/data=!4m7!3m6!1s0x46fd0bc43c5098fb:0x71e6f7c0f3e99011!8m2!3d54.4367438!4d18.5519462!16s%2Fg%2F11jmxy8xqc!19sChIJ-5hQPMQL_UYREZDp88D35nE?authuser=0&hl=en&rclk=1
54.4426382,18.5620582,hotel,Hotel Molo,https://www.google.com/maps/place/Hotel+Molo/data=!4m10!3m9!1s0x46fd0a90f15275a7:0x25520cff5f173303!5m2!4m1!1i2!8m2!3d54.4426382!4d18.5620582!16s%2Fg%2F11cn9lqmps!19sChIJp3VS8ZAK_UYRAzMXX_8MUiU?authuser=0&hl=en&rclk=1
54.436035,18.580527,hotel,Hotel Bursztyn,https://www.google.com/maps/place/Hotel+Bursztyn/data=!4m10!3m9!1s0x46fd0aebfce43539:0xea8310a93821579a!5m2!4m1!1i2!8m2!3d54.436035!4d18.580527!16s%2Fg%2F1tks5049!19sChIJOTXk_OsK_UYRmlchOKkQg-o?authuser=0&hl=en&rclk=1
54.410164,18.549655,hotel,Dom Oliwski,https://www.google.com/maps/place/Dom+Oliwski/data=!4m10!3m9!1s0x46fd754a542a2da3:0x47c50ea1119cb1cf!5m2!4m1!1i2!8m2!3d54.410164!4d18.549655!16s%2Fg%2F1tdpdwxn!19sChIJoy0qVEp1_UYRz7GcEaEOxUc?authuser=0&hl=en&rclk=1
54.4226964,18.5972053,hotel,Hotel Mercure Gdansk Posejdon,https://www.google.com/maps/place/Hotel+Mercure+Gdansk+Posejdon/data=!4m10!3m9!1s0x46fd0adf4d14ce9d:0x9479dbdce0b31639!5m2!4m1!1i2!8m2!3d54.4226964!4d18.5972053!16s%2Fg%2F1tj29q0s!19sChIJnc4UTd8K_UYRORaz4NzbeZQ?authuser=0&hl=en&rclk=1
54.443005,18.557474,hotel,Focus Hotel Premium,https://www.google.com/maps/place/Focus+Hotel+Premium/data=!4m10!3m9!1s0x46fd0a9a623907ab:0x27929d01c90e8eb9!5m2!4m1!1i2!8m2!3d54.443005!4d18.557474!16s%2Fg%2F11gh6btd3s!19sChIJqwc5YpoK_UYRuY4OyQGdkic?authuser=0&hl=en&rclk=1
54.434166,18.560104,hotel,B&B Molo,https://www.google.com/maps/place/B%26B+Molo/data=!4m10!3m9!1s0x46fd0abdf61a1509:0x6f4248d5c55b88d1!5m2!4m1!1i2!8m2!3d54.434166!4d18.560104!16s%2Fg%2F11g6qsb7b0!19sChIJCRUa9r0K_UYR0YhbxdVIQm8?authuser=0&hl=en&rclk=1
54.438318,18.575331,hotel,Dom & House - Apartamenty Sunrise,https://www.google.com/maps/place/Dom+%26+House+-+Apartamenty+Sunrise/data=!4m10!3m9!1s0x46fd0aecbc895541:0xaf679747161165a3!5m2!4m1!1i2!8m2!3d54.438318!4d18.575331!16s%2Fg%2F12hvfw4f1!19sChIJQVWJvOwK_UYRo2URFkeXZ68?authuser=0&hl=en&rclk=1
54.432571,18.585501,hotel,Yacht Club Residence Sopot,https://www.google.com/maps/place/Yacht+Club+Residence+Sopot/data=!4m10!3m9!1s0x46fd0ae866c0f4d1:0x9901c86904edb344!5m2!4m1!1i2!8m2!3d54.432571!4d18.585501!16s%2Fg%2F11g8bwn_1q!19sChIJ0fTAZugK_UYRRLPtBGnIAZk?authuser=0&hl=en&rclk=1
54.420911,18.6017279,hotel,Prawdzic Resort & Conference,https://www.google.com/maps/place/Prawdzic+Resort+%26+Conference/data=!4m10!3m9!1s0x46fd0b26ded63d87:0xd0d872cb43ce4ee0!5m2!4m1!1i2!8m2!3d54.420911!4d18.6017279!16s%2Fg%2F1tj6sj9c!19sChIJhz3W3iYL_UYR4E7OQ8ty2NA?authuser=0&hl=en&rclk=1
54.4200775,18.6005977,hotel,Golden Tulip Gdańsk Residence,https://www.google.com/maps/place/Golden+Tulip+Gda%C5%84sk+Residence/data=!4m7!3m6!1s0x46fd0b24376fffff:0x297df13f3c5edf77!8m2!3d54.4200775!4d18.6005977!16s%2Fg%2F11b5qsxy21!19sChIJ__9vNyQL_UYRd99ePD_xfSk?authuser=0&hl=en&rclk=1
54.406253,18.576346,hotel,Hotel Arkon Park Business & Sport,https://www.google.com/maps/place/Hotel+Arkon+Park+Business+%26+Sport/data=!4m10!3m9!1s0x46fd752c8865821b:0x26b43a18b7dfefeb!5m2!4m1!1i2!8m2!3d54.406253!4d18.576346!16s%2Fg%2F1tk89tnq!19sChIJG4JliCx1_UYR6-_ftxg6tCY?authuser=0&hl=en&rclk=1
54.3676591,18.7766983,hotel,Centrum Galion,https://www.google.com/maps/place/Centrum+Galion/data=!4m10!3m9!1s0x46fd6d57983a2ba5:0x51f0e02962ae3b42!5m2!4m1!1i2!8m2!3d54.3676591!4d18.7766983!16s%2Fg%2F1tdw24yj!19sChIJpSs6mFdt_UYRQjuuYing8FE?authuser=0&hl=en&rclk=1
54.3828716,18.469102,hotel,Hampton by Hilton Gdansk Airport,https://www.google.com/maps/place/Hampton+by+Hilton+Gdansk+Airport/data=!4m10!3m9!1s0x46fd9fcd17b71d81:0xe34dc11c0ab92283!5m2!4m1!1i2!8m2!3d54.3828716!4d18.469102!16s%2Fg%2F12m9h4ckb!19sChIJgR23F82f_UYRgyK5ChzBTeM?authuser=0&hl=en&rclk=1
54.3666532,18.4890243,hotel,SleepPort,https://www.google.com/maps/place/SleepPort/data=!4m7!3m6!1s0x46fd756d45fc9567:0xcd7fd9b0054fe887!8m2!3d54.3666532!4d18.4890243!16s%2Fg%2F11g2_dfv1p!19sChIJZ5X8RW11_UYRh-hPBbDZf80?authuser=0&hl=en&rclk=1
54.4114865,18.5675638,hotel,Hotel Oliwski w Gdańsku,https://www.google.com/maps/place/Hotel+Oliwski+w+Gda%C5%84sku/data=!4m10!3m9!1s0x46fd0accde8b5d13:0x256f91055a08186f!5m2!4m1!1i2!8m2!3d54.4114865!4d18.5675638!16s%2Fg%2F1thnmgp_!19sChIJE12L3swK_UYRbxgIWgWRbyU?authuser=0&hl=en&rclk=1
54.4096803,18.5682596,hotel,Hampton by Hilton Gdansk Oliwa,https://www.google.com/maps/place/Hampton+by+Hilton+Gdansk+Oliwa/data=!4m10!3m9!1s0x46fd7532c8c71c95:0x44658f92a7829929!5m2!4m1!1i2!8m2!3d54.4096803!4d18.5682596!16s%2Fg%2F11f03y0z7h!19sChIJlRzHyDJ1_UYRKZmCp5KPZUQ?authuser=0&hl=en&rclk=1
54.412663,18.5853499,hotel,Hostel PrzyMorze,https://www.google.com/maps/place/Hostel+PrzyMorze/data=!4m10!3m9!1s0x470289f215d80745:0x9aa0b64add02b3af!5m2!4m1!1i2!8m2!3d54.412663!4d18.5853499!16s%2Fg%2F11gj7gcqwp!19sChIJRQfYFfKJAkcRr7MC3Uq2oJo?authuser=0&hl=en&rclk=1
54.420911,18.601728,hotel,Prawdzic Resort & Conference,https://www.google.com/maps/place/Prawdzic+Resort+%26+Conference/data=!4m10!3m9!1s0x46fd0b26d93bcffd:0xd0d872cb43ce4ee0!5m2!4m1!1i2!8m2!3d54.420911!4d18.601728!16s%2Fg%2F1tj6sj9c!19sChIJ_c872SYL_UYR4E7OQ8ty2NA?authuser=0&hl=en&rclk=1
54.408372,18.631514,hotel,Villa Ramzes,https://www.google.com/maps/place/Villa+Ramzes/data=!4m10!3m9!1s0x46fd0b4928a418d3:0x41fd9aba3b25b67!5m2!4m1!1i2!8m2!3d54.408372!4d18.631514!16s%2Fg%2F1wn_4t3g!19sChIJ0xikKEkL_UYRZ1uyo6vZHwQ?authuser=0&hl=en&rclk=1
54.4083214,18.6363002,hotel,Amber House,https://www.google.com/maps/place/Amber+House/data=!4m10!3m9!1s0x46fd0b4f01295dcf:0xc88b689882b70a83!5m2!4m1!1i2!8m2!3d54.4083214!4d18.6363002!16s%2Fg%2F11y3sp20g!19sChIJz10pAU8L_UYRgwq3gphoi8g?authuser=0&hl=en&rclk=1
54.3795753,18.4857263,hotel,Hotel Faros,https://www.google.com/maps/place/Hotel+Faros/data=!4m10!3m9!1s0x46fd9fd36a22373b:0xa32efdf038885229!5m2!4m1!1i2!8m2!3d54.3795753!4d18.4857263!16s%2Fg%2F11cjrf4f05!19sChIJOzciatOf_UYRKVKIOPD9LqM?authuser=0&hl=en&rclk=1
54.3611803,18.388874,hotel,Galeria Pępowo,https://www.google.com/maps/place/Galeria+P%C4%99powo/data=!4m10!3m9!1s0x46fd9e9edff1f873:0xfc3f11a0931011c1!5m2!4m1!1i2!8m2!3d54.3611803!4d18.388874!16s%2Fg%2F1tj2gl3k!19sChIJc_jx356e_UYRwREQk6ARP_w?authuser=0&hl=en&rclk=1
54.391298,18.4838197,hotel,Villa Mile Gdańsk lotnisko,https://www.google.com/maps/place/Villa+Mile+Gda%C5%84sk+lotnisko/data=!4m10!3m9!1s0x46fd9ff4a27d7bdf:0x833440c2e777f0b1!5m2!4m1!1i2!8m2!3d54.391298!4d18.4838197!16s%2Fg%2F11k2y185k0!19sChIJ33t9ovSf_UYRsfB358JANIM?authuser=0&hl=en&rclk=1
54.3941176,18.5694242,hotel,majutus,https://www.google.com/maps/place/majutus/data=!4m7!3m6!1s0x46fd7526a163f535:0x8af85900433b51f7!8m2!3d54.3941176!4d18.5694242!16s%2Fg%2F11fy4m9sv4!19sChIJNfVjoSZ1_UYR91E7QwBZ-Io?authuser=0&hl=en&rclk=1
54.4007848,18.5714934,hotel,Hotel Olivia,https://www.google.com/maps/place/Hotel+Olivia/data=!4m10!3m9!1s0x46fd752e7edd1f35:0x8b582e1b50a83c10!5m2!4m1!1i2!8m2!3d54.4007848!4d18.5714934!16s%2Fg%2F1tdd3zb2!19sChIJNR_dfi51_UYREDyoUBsuWIs?authuser=0&hl=en&rclk=1
54.400785,18.571493,hotel,Hotel Olivia,https://www.google.com/maps/place/Hotel+Olivia/data=!4m10!3m9!1s0x46fd752f220d24b9:0x8b582e1b50a83c10!5m2!4m1!1i2!8m2!3d54.400785!4d18.571493!16s%2Fg%2F1tdd3zb2!19sChIJuSQNIi91_UYREDyoUBsuWIs?authuser=0&hl=en&rclk=1
54.379231,18.603801,hotel,Hotel Szydłowski,https://www.google.com/maps/place/Hotel+Szyd%C5%82owski/data=!4m10!3m9!1s0x46fd74952853de9f:0x3b9ae18e68bbc0a6!5m2!4m1!1i2!8m2!3d54.379231!4d18.603801!16s%2Fg%2F1vl5fgqy!19sChIJn95TKJV0_UYRpsC7aI7hmjs?authuser=0&hl=en&rclk=1
54.4005314,18.6031064,hotel,Hostel Rakieta,https://www.google.com/maps/place/Hostel+Rakieta/data=!4m10!3m9!1s0x46fd74cdb8c7f4ef:0xc32ddb9a6ba8d8b4!5m2!4m1!1i2!8m2!3d54.4005314!4d18.6031064!16s%2Fg%2F11b6j7qfpf!19sChIJ7_THuM10_UYRtNioa5rbLcM?authuser=0&hl=en&rclk=1
54.409468,18.635237,hotel,Lido Beach House,https://www.google.com/maps/place/Lido+Beach+House/data=!4m10!3m9!1s0x46fd0b4f3f638499:0xf9619aa77db6cc9f!5m2!4m1!1i2!8m2!3d54.409468!4d18.635237!16s%2Fg%2F1tg33xpr!19sChIJmYRjP08L_UYRn8y2faeaYfk?authuser=0&hl=en&rclk=1
54.3652239,18.6323354,hotel,Hotel Impresja,https://www.google.com/maps/place/Hotel+Impresja/data=!4m10!3m9!1s0x46fd737d24288139:0x82386cf9ca68ee08!5m2!4m1!1i2!8m2!3d54.3652239!4d18.6323354!16s%2Fg%2F1td4htll!19sChIJOYEoJH1z_UYRCO5oyvlsOII?authuser=0&hl=en&rclk=1
54.3459556,18.8748138,hotel,Hotel Orle Centrum Konferencyjne,https://www.google.com/maps/place/Hotel+Orle+Centrum+Konferencyjne/data=!4m10!3m9!1s0x46fd6cbb6897f9b1:0x308253d154944cdb!5m2!4m1!1i2!8m2!3d54.3459556!4d18.8748138!16s%2Fg%2F1tnpd3lv!19sChIJsfmXaLts_UYR20yUVNFTgjA?authuser=0&hl=en&rclk=1
54.3474492,18.8140367,hotel,Hotel Renusz,https://www.google.com/maps/place/Hotel+Renusz/data=!4m10!3m9!1s0x46fd6d180dffefe3:0x40512457234b002b!5m2!4m1!1i2!8m2!3d54.3474492!4d18.8140367!16s%2Fg%2F1tfl8brf!19sChIJ4-__DRht_UYRKwBLI1ckUUA?authuser=0&hl=en&rclk=1
54.411486,18.567564,hotel,Hotel Oliwski w Gdańsku,https://www.google.com/maps/place/Hotel+Oliwski+w+Gda%C5%84sku/data=!4m10!3m9!1s0x46fd0accdedc378d:0x256f91055a08186f!5m2!4m1!1i2!8m2!3d54.411486!4d18.567564!16s%2Fg%2F1thnmgp_!19sChIJjTfc3swK_UYRbxgIWgWRbyU?authuser=0&hl=en&rclk=1
54.3883209,18.5740681,hotel,Gdańska Szkoła Floretu,https://www.google.com/maps/place/Gda%C5%84ska+Szko%C5%82a+Floretu/data=!4m10!3m9!1s0x46fd74dfe8a33bf7:0x685f01f9b44bf6e6!5m2!4m1!1i2!8m2!3d54.3883209!4d18.5740681!16s%2Fg%2F113gnny43!19sChIJ9zuj6N90_UYR5vZLtPkBX2g?authuser=0&hl=en&rclk=1
54.365224,18.632335,hotel,Hotel Impresja,https://www.google.com/maps/place/Hotel+Impresja/data=!4m10!3m9!1s0x46fd737d25bcfc0d:0x82386cf9ca68ee08!5m2!4m1!1i2!8m2!3d54.365224!4d18.632335!16s%2Fg%2F1td4htll!19sChIJDfy8JX1z_UYRCO5oyvlsOII?authuser=0&hl=en&rclk=1
54.4015783,18.5935852,hotel,Noclegi,https://www.google.com/maps/place/Noclegi/data=!4m7!3m6!1s0x46fd74d3ee98db37:0x9b0ab0ab1c4b752c!8m2!3d54.4015783!4d18.5935852!16s%2Fg%2F11c6qbrylh!19sChIJN9uY7tN0_UYRLHVLHKuwCps?authuser=0&hl=en&rclk=1
54.3844246,18.614198,hotel,Hotel - Dom Tancerza w Gdańsku,https://www.google.com/maps/place/Hotel+-+Dom+Tancerza+w+Gda%C5%84sku/data=!4m10!3m9!1s0x46fd74be97ca3d8d:0x8231171314b4a505!5m2!4m1!1i2!8m2!3d54.3844246!4d18.614198!16s%2Fg%2F1td0lq8y!19sChIJjT3Kl750_UYRBaW0FBMXMYI?authuser=0&hl=en&rclk=1
54.3859316,18.6468941,hotel,Hotel Arena Expo,https://www.google.com/maps/place/Hotel+Arena+Expo/data=!4m10!3m9!1s0x46fd73583c12ef63:0x64fc95da33fc4274!5m2!4m1!1i2!8m2!3d54.3859316!4d18.6468941!16s%2Fg%2F119wx2xdy!19sChIJY-8SPFhz_UYRdEL8M9qV_GQ?authuser=0&hl=en&rclk=1
54.382872,18.469102,hotel,Hampton by Hilton Gdansk Airport,https://www.google.com/maps/place/Hampton+by+Hilton+Gdansk+Airport/data=!4m10!3m9!1s0x46fd9fcb0e73f0bf:0xe34dc11c0ab92283!5m2!4m1!1i2!8m2!3d54.382872!4d18.469102!16s%2Fg%2F12m9h4ckb!19sChIJv_BzDsuf_UYRgyK5ChzBTeM?authuser=0&hl=en&rclk=1
54.353626,18.495107,hotel,Walewscy Dworek i Restauracja,https://www.google.com/maps/place/Walewscy+Dworek+i+Restauracja/data=!4m10!3m9!1s0x46fd75f2ac6db18f:0xf9b8b0ad5d2f9d01!5m2!4m1!1i2!8m2!3d54.353626!4d18.495107!16s%2Fg%2F1tcwk7ww!19sChIJj7FtrPJ1_UYRAZ0vXa2wuPk?authuser=0&hl=en&rclk=1
54.37956,18.5059762,hotel,HOSTEL LOTNISKOWY 2,https://www.google.com/maps/place/HOSTEL+LOTNISKOWY+2/data=!4m10!3m9!1s0x46fd75eb819c1acf:0x85a83f909a66a894!5m2!4m1!1i2!8m2!3d54.37956!4d18.5059762!16s%2Fg%2F11h_kgb36h!19sChIJzxqcget1_UYRlKhmmpA_qIU?authuser=0&hl=en&rclk=1
54.3912589,18.5698011,hotel,Brak,https://www.google.com/maps/place/Brak/data=!4m10!3m9!1s0x46fd752115b51d2f:0x2fb57afe2469c12b!5m2!4m1!1i2!8m2!3d54.3912589!4d18.5698011!16s%2Fg%2F1tfjjty_!19sChIJLx21FSF1_UYRK8FpJP56tS8?authuser=0&hl=en&rclk=1
54.3808734,18.5959297,hotel,B&B Tomula,https://www.google.com/maps/place/B%26B+Tomula/data=!4m10!3m9!1s0x46fd74ea30255557:0xbd529447c864f261!5m2!4m1!1i2!8m2!3d54.3808734!4d18.5959297!16s%2Fg%2F11dxqjy7_f!19sChIJV1UlMOp0_UYRYfJkyEeUUr0?authuser=0&hl=en&rclk=1
54.380472,18.585536,hotel,Apartament przy Starym Maneżu,https://www.google.com/maps/place/Apartament+przy+Starym+Mane%C5%BCu/data=!4m7!3m6!1s0x46fd74e61f3eceb9:0x412c8401bdcad140!8m2!3d54.380472!4d18.585536!16s%2Fg%2F11g8bwn5zj!19sChIJuc4-H-Z0_UYRQNHKvQGELEE?authuser=0&hl=en&rclk=1
54.374869,18.60447,hotel,Events & Hotel,https://www.google.com/maps/place/Events+%26+Hotel/data=!4m7!3m6!1s0x46fd74939fb0dc47:0xce26be64d65b5c1c!8m2!3d54.374869!4d18.60447!16s%2Fg%2F11h7zf3kr6!19sChIJR9ywn5N0_UYRHFxb1mS-Js4?authuser=0&hl=en&rclk=1
54.379231,18.6038009,hotel,Hotel Szydłowski,https://www.google.com/maps/place/Hotel+Szyd%C5%82owski/data=!4m10!3m9!1s0x46fd70539143bd0d:0x3b9ae18e68bbc0a6!5m2!4m1!1i2!8m2!3d54.379231!4d18.6038009!16s%2Fg%2F1vl5fgqy!19sChIJDb1DkVNw_UYRpsC7aI7hmjs?authuser=0&hl=en&rclk=1
54.3770017,18.6119292,hotel,Hotel Martex,https://www.google.com/maps/place/Hotel+Martex/data=!4m7!3m6!1s0x46fd749691f59d0f:0x993ede766a799807!8m2!3d54.3770017!4d18.6119292!16s%2Fg%2F11fp1t2lmk!19sChIJD531kZZ0_UYRB5h5anbePpk?authuser=0&hl=en&rclk=1
54.356097,18.617762,hotel,Hotel Beethoven,https://www.google.com/maps/place/Hotel+Beethoven/data=!4m10!3m9!1s0x46fd747fccd983bf:0x7e012bd48acd178b!5m2!4m1!1i2!8m2!3d54.356097!4d18.617762!16s%2Fg%2F1td_9cld!19sChIJv4PZzH90_UYRixfNitQrAX4?authuser=0&hl=en&rclk=1
54.3753,18.61945,hotel,Hotel Spa Faltom,https://www.google.com/maps/place/Hotel+Spa+Faltom/data=!4m7!3m6!1s0x46fd7499c2459c3f:0xfcb3f05725fb9ccb!8m2!3d54.3753!4d18.61945!16s%2Fg%2F11h0vqc3vy!19sChIJP5xFwpl0_UYRy5z7JVfws_w?authuser=0&hl=en&rclk=1
54.3760583,18.6269664,hotel,Nadmorskie Noclegi,https://www.google.com/maps/place/Nadmorskie+Noclegi/data=!4m10!3m9!1s0x46fd7498d20e6cf1:0x33798f9eba97d6e3!5m2!4m1!1i2!8m2!3d54.3760583!4d18.6269664!16s%2Fg%2F11fy574lq4!19sChIJ8WwO0ph0_UYR49aXup6PeTM?authuser=0&hl=en&rclk=1
54.3786409,18.6352914,hotel,Hostel pracowniczy,https://www.google.com/maps/place/Hostel+pracowniczy/data=!4m7!3m6!1s0x46fd751879b48a7f:0x5af7170bce64664a!8m2!3d54.3786409!4d18.6352914!16s%2Fg%2F11k1n9_02x!19sChIJf4q0eRh1_UYRSmZkzgsX91o?authuser=0&hl=en&rclk=1
54.3716803,18.5261283,hotel,Apartament Iwo,https://www.google.com/maps/place/Apartament+Iwo/data=!4m7!3m6!1s0x46fd753959ecf253:0x95aa96a88496d2f3!8m2!3d54.3716803!4d18.5261283!16s%2Fg%2F11f9xdr1cr!19sChIJU_LsWTl1_UYR89KWhKiWqpU?authuser=0&hl=en&rclk=1
54.341414,18.5468691,hotel,Hotel Urbi,https://www.google.com/maps/place/Hotel+Urbi/data=!4m10!3m9!1s0x46fd7466aeffffff:0x3c3136c37d548d5a!5m2!4m1!1i2!8m2!3d54.341414!4d18.5468691!16s%2Fg%2F11ggw02b7v!19sChIJ____rmZ0_UYRWo1UfcM2MTw?authuser=0&hl=en&rclk=1
54.3588154,18.6018398,hotel,"Pomorskie Centrum Noclegowe, hotel pracowniczy,","https://www.google.com/maps/place/Pomorskie+Centrum+Noclegowe,+hotel+pracowniczy,/data=!4m7!3m6!1s0x46fd7595a0f2500f:0x637c30aafaeb441d!8m2!3d54.3588154!4d18.6018398!16s%2Fg%2F11j7dnd40_!19sChIJD1DyoJV1_UYRHUTr-qowfGM?authuser=0&hl=en&rclk=1"
54.364714,18.560287,hotel,Villa Gdańsk,https://www.google.com/maps/place/Villa+Gda%C5%84sk/data=!4m10!3m9!1s0x46fd7455125efc13:0x6e2698d572ee6c02!5m2!4m1!1i2!8m2!3d54.364714!4d18.560287!16s%2Fg%2F1tg9ltyv!19sChIJE_xeElV0_UYRAmzuctWYJm4?authuser=0&hl=en&rclk=1
54.3679474,18.5983414,hotel,Hevelius Residence,https://www.google.com/maps/place/Hevelius+Residence/data=!4m10!3m9!1s0x46fd748cfaa348d7:0xaebb9fe3a17b8352!5m2!4m1!1i2!8m2!3d54.3679474!4d18.5983414!16s%2Fg%2F11b73qhxq2!19sChIJ10ij-ox0_UYRUoN7oeOfu64?authuser=0&hl=en&rclk=1
54.3709269,18.597688,hotel,Villa Dworek Jaśkowy,https://www.google.com/maps/place/Villa+Dworek+Ja%C5%9Bkowy/data=!4m10!3m9!1s0x46fd748d4e3a3089:0xe08378f47124a73c!5m2!4m1!1i2!8m2!3d54.3709269!4d18.597688!16s%2Fg%2F1tcv4_t2!19sChIJiTA6To10_UYRPKckcfR4g-A?authuser=0&hl=en&rclk=1
54.376894,18.617562,hotel,Hotel Logos Gdańsk,https://www.google.com/maps/place/Hotel+Logos+Gda%C5%84sk/data=!4m10!3m9!1s0x46fd74979df54065:0x6172be13c5f139dc!5m2!4m1!1i2!8m2!3d54.376894!4d18.617562!16s%2Fg%2F1vppr6p8!19sChIJZUD1nZd0_UYR3DnxxRO-cmE?authuser=0&hl=en&rclk=1
54.3651512,18.632317,hotel,Hotel Imperial,https://www.google.com/maps/place/Hotel+Imperial/data=!4m7!3m6!1s0x46fd73311e0b0d3b:0x3fa8756a9e249c73!8m2!3d54.3651512!4d18.632317!16s%2Fg%2F11fb2h49nr!19sChIJOw0LHjFz_UYRc5wknmp1qD8?authuser=0&hl=en&rclk=1
54.3652386,18.6323575,hotel,готель,https://www.google.com/maps/place/%D0%B3%D0%BE%D1%82%D0%B5%D0%BB%D1%8C/data=!4m7!3m6!1s0x46fd7317f03dcf5b:0xe1956e0ca6299c0a!8m2!3d54.3652386!4d18.6323575!16s%2Fg%2F11f5tbqktz!19sChIJW8898Bdz_UYRCpwppgxuleE?authuser=0&hl=en&rclk=1
54.3667925,18.6276243,hotel,Hotel Vesper House,https://www.google.com/maps/place/Hotel+Vesper+House/data=!4m10!3m9!1s0x46fd7520eeba8ef9:0xb23ed2b7a085e662!5m2!4m1!1i2!8m2!3d54.3667925!4d18.6276243!16s%2Fg%2F11mwkcy6r9!19sChIJ-Y667iB1_UYRYuaFoLfSPrI?authuser=0&hl=en&rclk=1
54.376433,18.61161,hotel,Termal,https://www.google.com/maps/place/Termal/data=!4m7!3m6!1s0x46fd7496be3bc645:0xf054d327e3d327f6!8m2!3d54.376433!4d18.61161!16s%2Fg%2F1tmz5mw6!19sChIJRcY7vpZ0_UYR9ifT4yfTVPA?authuser=0&hl=en&rclk=1
54.3768942,18.6175617,hotel,Hotel Logos Gdańsk,https://www.google.com/maps/place/Hotel+Logos+Gda%C5%84sk/data=!4m10!3m9!1s0x46fd74979df5400b:0x6172be13c5f139dc!5m2!4m1!1i2!8m2!3d54.3768942!4d18.6175617!16s%2Fg%2F1vppr6p8!19sChIJC0D1nZd0_UYR3DnxxRO-cmE?authuser=0&hl=en&rclk=1
54.37675,18.6106999,hotel,Hotel Górski,https://www.google.com/maps/place/Hotel+G%C3%B3rski/data=!4m7!3m6!1s0x46fd749699284131:0x5868122bebb68db9!8m2!3d54.37675!4d18.6106999!16s%2Fg%2F11h53vx_j1!19sChIJMUEomZZ0_UYRuY226ysSaFg?authuser=0&hl=en&rclk=1
54.3538035,18.7222653,hotel,Hotel Kaper,https://www.google.com/maps/place/Hotel+Kaper/data=!4m10!3m9!1s0x46fd72ee3370283d:0xab43af248fece61f!5m2!4m1!1i2!8m2!3d54.3538035!4d18.7222653!16s%2Fg%2F11cmzkpgs7!19sChIJPShwM-5y_UYRH-bsjySvQ6s?authuser=0&hl=en&rclk=1
54.343793,18.831612,hotel,Hotel Bartan Gdańsk Seaside,https://www.google.com/maps/place/Hotel+Bartan+Gda%C5%84sk+Seaside/data=!4m10!3m9!1s0x46fd6ce05e5c20e5:0x18f5d40bd326e76d!5m2!4m1!1i2!8m2!3d54.343793!4d18.831612!16s%2Fg%2F12cpb6xkx!19sChIJ5SBcXuBs_UYRbecm0wvU9Rg?authuser=0&hl=en&rclk=1
54.349504,18.680695,hotel,Focus Hotel Gdańsk,https://www.google.com/maps/place/Focus+Hotel+Gda%C5%84sk/data=!4m10!3m9!1s0x46fd7300d7265553:0xb40cf90def6c69e1!5m2!4m1!1i2!8m2!3d54.349504!4d18.680695!16s%2Fg%2F1tr7h1yd!19sChIJU1Um1wBz_UYR4Wls7w35DLQ?authuser=0&hl=en&rclk=1
54.323716,18.746861,hotel,HOTEL GNIECKI,https://www.google.com/maps/place/HOTEL+GNIECKI/data=!4m10!3m9!1s0x46fd6d87dccb7a33:0x6a5e6ecdf3e60bb0!5m2!4m1!1i2!8m2!3d54.323716!4d18.746861!16s%2Fg%2F1tzlxnd5!19sChIJM3rL3Idt_UYRsAvm881uXmo?authuser=0&hl=en&rclk=1
54.367659,18.776698,hotel,Centrum Galion,https://www.google.com/maps/place/Centrum+Galion/data=!4m10!3m9!1s0x46fd6d57a566d591:0x51f0e02962ae3b42!5m2!4m1!1i2!8m2!3d54.367659!4d18.776698!16s%2Fg%2F1tdw24yj!19sChIJkdVmpVdt_UYRQjuuYing8FE?authuser=0&hl=en&rclk=1
54.344344,18.586323,hotel,Willa Bliska,https://www.google.com/maps/place/Willa+Bliska/data=!4m10!3m9!1s0x46fd746bfa7606a7:0xf48bfb0458cf9f21!5m2!4m1!1i2!8m2!3d54.344344!4d18.586323!16s%2Fg%2F1hc0rjvlc!19sChIJpwZ2-mt0_UYRIZ_PWAT7i_Q?authuser=0&hl=en&rclk=1
54.356683,18.598569,hotel,Villa Pallas,https://www.google.com/maps/place/Villa+Pallas/data=!4m10!3m9!1s0x46fd7463b72dfe53:0x40affceccd1b7916!5m2!4m1!1i2!8m2!3d54.356683!4d18.598569!16s%2Fg%2F1ts1qy67!19sChIJU_4tt2N0_UYRFnkbzez8r0A?authuser=0&hl=en&rclk=1
54.358044,18.621447,hotel,Amber Hotel Gdańsk,https://www.google.com/maps/place/Amber+Hotel+Gda%C5%84sk/data=!4m10!3m9!1s0x46fd74803f0a5605:0xb251269d0802dc7e!5m2!4m1!1i2!8m2!3d54.358044!4d18.621447!16s%2Fg%2F1tcv4_t1!19sChIJBVYKP4B0_UYRftwCCJ0mUbI?authuser=0&hl=en&rclk=1
54.3580441,18.6214472,hotel,Amber Hotel Gdańsk,https://www.google.com/maps/place/Amber+Hotel+Gda%C5%84sk/data=!4m10!3m9!1s0x46fd748015600959:0xb251269d0802dc7e!5m2!4m1!1i2!8m2!3d54.3580441!4d18.6214472!16s%2Fg%2F1tcv4_t1!19sChIJWQlgFYB0_UYRftwCCJ0mUbI?authuser=0&hl=en&rclk=1
54.354324,18.644712,hotel,Craft Beer Central Hotel,https://www.google.com/maps/place/Craft+Beer+Central+Hotel/data=!4m10!3m9!1s0x46fd737646df6a75:0x1139520eddb570a0!5m2!4m1!1i2!8m2!3d54.354324!4d18.644712!16s%2Fg%2F11g6bkp_nf!19sChIJdWrfRnZz_UYRoHC13Q5SORE?authuser=0&hl=en&rclk=1
54.3560525,18.6514179,hotel,Hotel Mercure Gdansk Stare Miasto,https://www.google.com/maps/place/Hotel+Mercure+Gdansk+Stare+Miasto/data=!4m10!3m9!1s0x46fd7309d29867e9:0xf1a994dc5ea00271!5m2!4m1!1i2!8m2!3d54.3560525!4d18.6514179!16s%2Fg%2F121j20kz!19sChIJ6WeY0glz_UYRcQKgXtyUqfE?authuser=0&hl=en&rclk=1
54.3528373,18.656553,hotel,Hotel Admirał Sp. z o.o.,https://www.google.com/maps/place/Hotel+Admira%C5%82+Sp.+z+o.o./data=!4m10!3m9!1s0x46fd730ad294855d:0x6b7b8d63aed82f4e!5m2!4m1!1i2!8m2!3d54.3528373!4d18.656553!16s%2Fg%2F1hc25hh89!19sChIJXYWU0gpz_UYRTi_YrmONe2s?authuser=0&hl=en&rclk=1
54.356323,18.646624,hotel,Scandic,https://www.google.com/maps/place/Scandic/data=!4m10!3m9!1s0x46fd7376eb623841:0x7b38711ca28b10e0!5m2!4m1!1i2!8m2!3d54.356323!4d18.646624!16s%2Fg%2F1220fqcj!19sChIJQThi63Zz_UYR4BCLohxxOHs?authuser=0&hl=en&rclk=1
54.3528165,18.7071958,hotel,Noclegi Apro,https://www.google.com/maps/place/Noclegi+Apro/data=!4m10!3m9!1s0x46fd72fab984d78f:0x39feed4b810f2e33!5m2!4m1!1i2!8m2!3d54.3528165!4d18.7071958!16s%2Fg%2F113gv97jn!19sChIJj9eEufpy_UYRMy4PgUvt_jk?authuser=0&hl=en&rclk=1
54.359419,18.719155,hotel,Pokój U Lucyny,https://www.google.com/maps/place/Pok%C3%B3j+U+Lucyny/data=!4m10!3m9!1s0x46fd72e919c97d21:0x448f9c770a75b235!5m2!4m1!1i2!8m2!3d54.359419!4d18.719155!16s%2Fg%2F11j08b0yzt!19sChIJIX3JGely_UYRNbJ1Cnecj0Q?authuser=0&hl=en&rclk=1
54.323716,18.746861,hotel,HOTEL GNIECKI,https://www.google.com/maps/place/HOTEL+GNIECKI/data=!4m10!3m9!1s0x46fd6d888ceb8f77:0x6a5e6ecdf3e60bb0!5m2!4m1!1i2!8m2!3d54.323716!4d18.746861!16s%2Fg%2F1tzlxnd5!19sChIJd4_rjIht_UYRsAvm881uXmo?authuser=0&hl=en&rclk=1
54.3192978,18.5010013,hotel,Hotel OTOMIN,https://www.google.com/maps/place/Hotel+OTOMIN/data=!4m10!3m9!1s0x46fd7671d9420739:0x3381a33aaedaf718!5m2!4m1!1i2!8m2!3d54.3192978!4d18.5010013!16s%2Fg%2F1tdqg4wn!19sChIJOQdC2XF2_UYRGPfarjqjgTM?authuser=0&hl=en&rclk=1
54.3388113,18.5617166,hotel,Volter Gdańsk,https://www.google.com/maps/place/Volter+Gda%C5%84sk/data=!4m10!3m9!1s0x46fd7439720c5c25:0x5f51de97d7f84ae8!5m2!4m1!1i2!8m2!3d54.3388113!4d18.5617166!16s%2Fg%2F11b6hqmsds!19sChIJJVwMcjl0_UYR6Er415feUV8?authuser=0&hl=en&rclk=1
54.343941,18.601528,hotel,Hotel pracowniczy,https://www.google.com/maps/place/Hotel+pracowniczy/data=!4m7!3m6!1s0x46fd74716d219327:0xe8073895bc3a98e0!8m2!3d54.343941!4d18.601528!16s%2Fg%2F1td2flpb!19sChIJJ5MhbXF0_UYR4Jg6vJU4B-g?authuser=0&hl=en&rclk=1
54.350652,18.633977,hotel,So Stay Hotel,https://www.google.com/maps/place/So+Stay+Hotel/data=!4m10!3m9!1s0x46fd73833d95b5f5:0xabbb3f33c5aa063a!5m2!4m1!1i2!8m2!3d54.350652!4d18.633977!16s%2Fg%2F11bychzsm9!19sChIJ9bWVPYNz_UYROgaqxTM_u6s?authuser=0&hl=en&rclk=1
54.3506525,18.6339769,hotel,So Stay Hotel,https://www.google.com/maps/place/So+Stay+Hotel/data=!4m10!3m9!1s0x46fd73833d95fee1:0xabbb3f33c5aa063a!5m2!4m1!1i2!8m2!3d54.3506525!4d18.6339769!16s%2Fg%2F11bychzsm9!19sChIJ4f6VPYNz_UYROgaqxTM_u6s?authuser=0&hl=en&rclk=1
54.349326,18.7057691,hotel,Gdański Dom Turystyczny,https://www.google.com/maps/place/Gda%C5%84ski+Dom+Turystyczny/data=!4m10!3m9!1s0x46fd72fa0f636b6f:0x51d8c8720fc79337!5m2!4m1!1i2!8m2!3d54.349326!4d18.7057691!16s%2Fg%2F1td290b2!19sChIJb2tjD_py_UYRN5PHD3LI2FE?authuser=0&hl=en&rclk=1
54.3495039,18.6806951,hotel,Focus Hotel Gdańsk,https://www.google.com/maps/place/Focus+Hotel+Gda%C5%84sk/data=!4m10!3m9!1s0x46fd7300d6ff6919:0xb40cf90def6c69e1!5m2!4m1!1i2!8m2!3d54.3495039!4d18.6806951!16s%2Fg%2F1tr7h1yd!19sChIJGWn_1gBz_UYR4Wls7w35DLQ?authuser=0&hl=en&rclk=1
54.3483662,18.801478,hotel,Kurort Stara Wędzarnia,https://www.google.com/maps/place/Kurort+Stara+W%C4%99dzarnia/data=!4m10!3m9!1s0x46fd6d15ba8daf1b:0x1abf0767f01488f0!5m2!4m1!1i2!8m2!3d54.3483662!4d18.801478!16s%2Fg%2F1td6f4x9!19sChIJG6-NuhVt_UYR8IgU8GcHvxo?authuser=0&hl=en&rclk=1
54.347953,18.8119866,hotel,Villa Dzika Plaża,https://www.google.com/maps/place/Villa+Dzika+Pla%C5%BCa/data=!4m10!3m9!1s0x46fd6d17f0e4e7ed:0x314f590236b88395!5m2!4m1!1i2!8m2!3d54.347953!4d18.8119866!16s%2Fg%2F11dfgsxqym!19sChIJ7efk8Bdt_UYRlYO4NgJZTzE?authuser=0&hl=en&rclk=1
54.3447208,18.8340493,hotel,Pensjonat FALA na WYSPIE,https://www.google.com/maps/place/Pensjonat+FALA+na+WYSPIE/data=!4m10!3m9!1s0x46fd6ce09cf44625:0x4f86dd6ec79b1a46!5m2!4m1!1i2!8m2!3d54.3447208!4d18.8340493!16s%2Fg%2F11gg9btr_1!19sChIJJUb0nOBs_UYRRhqbx27dhk8?authuser=0&hl=en&rclk=1
54.3418098,18.8575843,hotel,Forsycja,https://www.google.com/maps/place/Forsycja/data=!4m10!3m9!1s0x46fd6cc02d7b9ab5:0x9d87d39a9a3e7fd7!5m2!4m1!1i2!8m2!3d54.3418098!4d18.8575843!16s%2Fg%2F11f4wssxtp!19sChIJtZp7LcBs_UYR138-mprTh50?authuser=0&hl=en&rclk=1
54.3090903,18.5601395,hotel,Hotel Cztery Brzozy,https://www.google.com/maps/place/Hotel+Cztery+Brzozy/data=!4m10!3m9!1s0x46fd76bcb77517ab:0x84feb7bc6d23b1f4!5m2!4m1!1i2!8m2!3d54.3090903!4d18.5601395!16s%2Fg%2F1hhhtp2nf!19sChIJqxd1t7x2_UYR9LEjbby3_oQ?authuser=0&hl=en&rclk=1
54.30909,18.56014,hotel,Hotel Cztery Brzozy,https://www.google.com/maps/place/Hotel+Cztery+Brzozy/data=!4m10!3m9!1s0x46fd76bcb6fbd74f:0x84feb7bc6d23b1f4!5m2!4m1!1i2!8m2!3d54.30909!4d18.56014!16s%2Fg%2F1hhhtp2nf!19sChIJT9f7trx2_UYR9LEjbby3_oQ?authuser=0&hl=en&rclk=1
54.34651,18.62246,hotel,Royal Residence,https://www.google.com/maps/place/Royal+Residence/data=!4m10!3m9!1s0x46fd73861355db93:0x1a6e9ed362bd3fb!5m2!4m1!1i2!8m2!3d54.34651!4d18.62246!16s%2Fg%2F12hnkx3zc!19sChIJk9tVE4Zz_UYR-9MrNu3ppgE?authuser=0&hl=en&rclk=1
54.348848,18.6233955,hotel,Hotel Na Zboczu,https://www.google.com/maps/place/Hotel+Na+Zboczu/data=!4m7!3m6!1s0x46fd7385c9a40a3d:0xb26963ec0ad967fe!8m2!3d54.348848!4d18.6233955!16s%2Fg%2F11cs3z6yb6!19sChIJPQqkyYVz_UYR_mfZCuxjabI?authuser=0&hl=en&rclk=1
54.3459801,18.6206606,hotel,Villa Aida Pokoje Gościnne,https://www.google.com/maps/place/Villa+Aida+Pokoje+Go%C5%9Bcinne/data=!4m10!3m9!1s0x46fd73863ab80c35:0xc5aa760673a2382b!5m2!4m1!1i2!8m2!3d54.3459801!4d18.6206606!16s%2Fg%2F11b73ls90_!19sChIJNQy4OoZz_UYRKziicwZ2qsU?authuser=0&hl=en&rclk=1
54.3437159,18.656846,hotel,Hotel Number One,https://www.google.com/maps/place/Hotel+Number+One/data=!4m10!3m9!1s0x46fd73a391dbfd7b:0x6b4e8f4d0517e26e!5m2!4m1!1i2!8m2!3d54.3437159!4d18.656846!16s%2Fg%2F11bvcvsz6s!19sChIJe_3bkaNz_UYRbuIXBU2PTms?authuser=0&hl=en&rclk=1
54.3488544,18.6577496,hotel,"Radisson Hotel & Suites, Gdansk","https://www.google.com/maps/place/Radisson+Hotel+%26+Suites,+Gdansk/data=!4m10!3m9!1s0x46fd730f3707bf4b:0xdba2deee9bf2a3e9!5m2!4m1!1i2!8m2!3d54.3488544!4d18.6577496!16s%2Fg%2F11gxf7ggx0!19sChIJS78HNw9z_UYR6aPym-7eots?authuser=0&hl=en&rclk=1"
54.3491678,18.6588063,hotel,"Holiday Inn Gdansk - City Centre, an IHG Hotel","https://www.google.com/maps/place/Holiday+Inn+Gdansk+-+City+Centre,+an+IHG+Hotel/data=!4m10!3m9!1s0x46fd73a0ed173cc5:0xe7baf80b401f4e5c!5m2!4m1!1i2!8m2!3d54.3491678!4d18.6588063!16s%2Fg%2F11h5rg58kk!19sChIJxTwX7aBz_UYRXE4fQAv4uuc?authuser=0&hl=en&rclk=1"
54.325974,18.744538,hotel,Czarna Perla,https://www.google.com/maps/place/Czarna+Perla/data=!4m10!3m9!1s0x46fd6d87e50c4c41:0xcb102fb5445e0c9b!5m2!4m1!1i2!8m2!3d54.325974!4d18.744538!16s%2Fg%2F1tfbrl0y!19sChIJQUwM5Ydt_UYRmwxeRLUvEMs?authuser=0&hl=en&rclk=1
54.348904,18.799708,hotel,Pensjonat Rezerwat85 Gdańsk Sobieszewo,https://www.google.com/maps/place/Pensjonat+Rezerwat85+Gda%C5%84sk+Sobieszewo/data=!4m10!3m9!1s0x46fd6d150a571bcf:0xdeebb27e063e0de4!5m2!4m1!1i2!8m2!3d54.348904!4d18.799708!16s%2Fg%2F11b7lmxrnf!19sChIJzxtXChVt_UYR5A0-Bn6y694?authuser=0&hl=en&rclk=1
54.2697205,18.4684689,hotel,Hotel,https://www.google.com/maps/place/Hotel/data=!4m7!3m6!1s0x46fd77531288419f:0xa597b5692a2b38c7!8m2!3d54.2697205!4d18.4684689!16s%2Fg%2F11nx1n_c6w!19sChIJn0GIElN3_UYRxzgrKmm1l6U?authuser=0&hl=en&rclk=1
54.3230653,18.4670178,hotel,Psi hotel- Profesjonalny hotel dla psów__,https://www.google.com/maps/place/Psi+hotel-+Profesjonalny+hotel+dla+ps%C3%B3w__/data=!4m7!3m6!1s0x46fd77d9b5b71c2b:0x6cb6d5f7447bb5ee!8m2!3d54.3230653!4d18.4670178!16s%2Fg%2F11t27s_j9f!19sChIJKxy3tdl3_UYR7rV7RPfVtmw?authuser=0&hl=en&rclk=1
54.303484,18.542804,hotel,Kowalscy,https://www.google.com/maps/place/Kowalscy/data=!4m7!3m6!1s0x46fd77f712e9a78b:0x41e74dffb5ada8e7!8m2!3d54.303484!4d18.542804!16s%2Fg%2F11jq0b8jzw!19sChIJi6fpEvd3_UYR56ittf9N50E?authuser=0&hl=en&rclk=1
54.299374,18.60442,hotel,Złoty Staw,https://www.google.com/maps/place/Z%C5%82oty+Staw/data=!4m10!3m9!1s0x46fd714454774ac1:0x87210d620d9da254!5m2!4m1!1i2!8m2!3d54.299374!4d18.60442!16s%2Fg%2F113k877sq!19sChIJwUp3VERx_UYRVKKdDWINIYc?authuser=0&hl=en&rclk=1
54.3096148,18.5987717,hotel,Hotel Platan***,https://www.google.com/maps/place/Hotel+Platan***/data=!4m10!3m9!1s0x46fd7183ddb32873:0x88a008382b5436b2!5m2!4m1!1i2!8m2!3d54.3096148!4d18.5987717!16s%2Fg%2F11fk7yqhww!19sChIJcyiz3YNx_UYRsjZUKzgIoIg?authuser=0&hl=en&rclk=1
54.3213889,18.6313889,hotel,Hotel Zatoka,https://www.google.com/maps/place/Hotel+Zatoka/data=!4m10!3m9!1s0x46fd73e80c149789:0xef4bd56cc06a9136!5m2!4m1!1i2!8m2!3d54.3213889!4d18.6313889!16s%2Fg%2F11bwd__5b6!19sChIJiZcUDOhz_UYRNpFqwGzVS-8?authuser=0&hl=en&rclk=1
54.334964,18.652368,hotel,Noclegi,https://www.google.com/maps/place/Noclegi/data=!4m7!3m6!1s0x46fd73bbfc4c837d:0x990cd34df77b226a!8m2!3d54.334964!4d18.652368!16s%2Fg%2F1hc7s4nj1!19sChIJfYNM_Ltz_UYRaiJ7903TDJk?authuser=0&hl=en&rclk=1
54.3115158,18.5600796,hotel,Apartamenty Coffee Inn - Gdańsk Kowale,https://www.google.com/maps/place/Apartamenty+Coffee+Inn+-+Gda%C5%84sk+Kowale/data=!4m10!3m9!1s0x46fd77da77237097:0xc5e2264da54444f3!5m2!4m1!1i2!8m2!3d54.3115158!4d18.5600796!16s%2Fg%2F11h3qdd010!19sChIJl3Ajd9p3_UYR80REpU0m4sU?authuser=0&hl=en&rclk=1
54.3097201,18.5599584,hotel,Stone Villa,https://www.google.com/maps/place/Stone+Villa/data=!4m10!3m9!1s0x46fd76a34d5f4a95:0x6cfddd3246292200!5m2!4m1!1i2!8m2!3d54.3097201!4d18.5599584!16s%2Fg%2F11b7q7r0_6!19sChIJlUpfTaN2_UYRACIpRjLd_Ww?authuser=0&hl=en&rclk=1
54.321389,18.631389,hotel,Hotel Zatoka,https://www.google.com/maps/place/Hotel+Zatoka/data=!4m10!3m9!1s0x46fd73e80c2a156b:0xef4bd56cc06a9136!5m2!4m1!1i2!8m2!3d54.321389!4d18.631389!16s%2Fg%2F11bwd__5b6!19sChIJaxUqDOhz_UYRNpFqwGzVS-8?authuser=0&hl=en&rclk=1
54.348765,18.660796,hotel,Marina Club Hotel,https://www.google.com/maps/place/Marina+Club+Hotel/data=!4m10!3m9!1s0x46fd73a0b618c4ad:0xd82f74ee1ac6ed9d!5m2!4m1!1i2!8m2!3d54.348765!4d18.660796!16s%2Fg%2F11lg83cnhq!19sChIJrcQYtqBz_UYRne3GGu50L9g?authuser=0&hl=en&rclk=1
54.3052107,18.6304327,hotel,Lipce Zajazd,https://www.google.com/maps/place/Lipce+Zajazd/data=!4m10!3m9!1s0x46fd7163e1942b4b:0xf69d307d2192d7b2!5m2!4m1!1i2!8m2!3d54.3052107!4d18.6304327!16s%2Fg%2F1tjymdnx!19sChIJSyuU4WNx_UYRsteSIX0wnfY?authuser=0&hl=en&rclk=1
54.2784432,18.4219214,hotel,Hotel Venus,https://www.google.com/maps/place/Hotel+Venus/data=!4m10!3m9!1s0x46fd9d7da859ef55:0x37de1c3c0d4bfefd!5m2!4m1!1i2!8m2!3d54.2784432!4d18.4219214!16s%2Fg%2F1tczj4_r!19sChIJVe9ZqH2d_UYR_f5LDTwc3jc?authuser=0&hl=en&rclk=1
54.2770855,18.5508834,hotel,4 Pory Roku Restauracja i Nocleg,https://www.google.com/maps/place/4+Pory+Roku+Restauracja+i+Nocleg/data=!4m10!3m9!1s0x46fd77fa2cead2ed:0xebce47598dc62237!5m2!4m1!1i2!8m2!3d54.2770855!4d18.5508834!16s%2Fg%2F11jtfbg87l!19sChIJ7dLqLPp3_UYRNyLGjVlHzus?authuser=0&hl=en&rclk=1
54.305531,18.63541,hotel,Kwatera Prywatna,https://www.google.com/maps/place/Kwatera+Prywatna/data=!4m7!3m6!1s0x46fd716307ab4909:0x3282cee9f51166be!8m2!3d54.305531!4d18.63541!16s%2Fg%2F11c2jgy492!19sChIJCUmrB2Nx_UYRvmYR9enOgjI?authuser=0&hl=en&rclk=1
54.3044173,18.7601595,hotel,Oberża Pod Lipami,https://www.google.com/maps/place/Ober%C5%BCa+Pod+Lipami/data=!4m10!3m9!1s0x46fd6debff6cd02d:0xcd2b9a8879932c75!5m2!4m1!1i2!8m2!3d54.3044173!4d18.7601595!16s%2Fg%2F1tgn3f6w!19sChIJLdBs_-tt_UYRdSyTeYiaK80?authuser=0&hl=en&rclk=1
54.343803,18.650086,hotel,Hotel Almond Business & SPA Gdańsk,https://www.google.com/maps/place/Hotel+Almond+Business+%26+SPA+Gda%C5%84sk/data=!4m10!3m9!1s0x46fd73a27b485785:0x6145fdd31b19a087!5m2!4m1!1i2!8m2!3d54.343803!4d18.650086!16s%2Fg%2F11cllg9fhm!19sChIJhVdIe6Jz_UYRh6AZG9P9RWE?authuser=0&hl=en&rclk=1
54.2993745,18.6044201,hotel,Złoty Staw,https://www.google.com/maps/place/Z%C5%82oty+Staw/data=!4m10!3m9!1s0x46fd7493c5b13cfd:0x87210d620d9da254!5m2!4m1!1i2!8m2!3d54.2993745!4d18.6044201!16s%2Fg%2F113k877sq!19sChIJ_TyxxZN0_UYRVKKdDWINIYc?authuser=0&hl=en&rclk=1
54.339485,18.208524,hotel,"Hotel Miłosz Restauracja, Basen dla dzieci, Sala Zabaw, Siłownia","https://www.google.com/maps/place/Hotel+Mi%C5%82osz+Restauracja,+Basen+dla+dzieci,+Sala+Zabaw,+Si%C5%82ownia/data=!4m10!3m9!1s0x46fd9a644ab5a031:0xdef874cd5b7f0e37!5m2!4m1!1i2!8m2!3d54.339485!4d18.208524!16s%2Fg%2F11xkjbz5d!19sChIJMaC1SmSa_UYRNw5_W810-N4?authuser=0&hl=en&rclk=1"
54.2742061,18.4754551,hotel,"Gabinet Odnowy Biologicznej ""Krystyna""",https://www.google.com/maps/place/Gabinet+Odnowy+Biologicznej+%22Krystyna%22/data=!4m7!3m6!1s0x46fd77a4d5aacbeb:0x4f302b733d4167bc!8m2!3d54.2742061!4d18.4754551!16s%2Fg%2F1hc0t74z5!19sChIJ68uq1aR3_UYRvGdBPXMrME8?authuser=0&hl=en&rclk=1
54.28356,18.59635,hotel,"La Room. Zakwaterowanie, noclegi","https://www.google.com/maps/place/La+Room.+Zakwaterowanie,+noclegi/data=!4m7!3m6!1s0x46fd713b7a46dc93:0x996987cd255e7758!8m2!3d54.28356!4d18.59635!16s%2Fg%2F1hc18h45y!19sChIJk9xGejtx_UYRWHdeJc2HaZk?authuser=0&hl=en&rclk=1"
54.2573788,18.6502237,hotel,Hotel garnizonowy Lotnik,https://www.google.com/maps/place/Hotel+garnizonowy+Lotnik/data=!4m7!3m6!1s0x46fd704b895f7361:0xc21f1380f55761fa!8m2!3d54.2573788!4d18.6502237!16s%2Fg%2F11cn9f53sz!19sChIJYXNfiUtw_UYR-mFX9YATH8I?authuser=0&hl=en&rclk=1
54.2897629,18.9196335,hotel,Houseboat,https://www.google.com/maps/place/Houseboat/data=!4m10!3m9!1s0x46fd6bb6f27b31c9:0xad4ee0a063d428f3!5m2!4m1!1i2!8m2!3d54.2897629!4d18.9196335!16s%2Fg%2F11fy53tz1g!19sChIJyTF78rZr_UYR8yjUY6DgTq0?authuser=0&hl=en&rclk=1
54.2208711,18.3759053,hotel,Hotel Kozi Gród,https://www.google.com/maps/place/Hotel+Kozi+Gr%C3%B3d/data=!4m10!3m9!1s0x46fd828260a3a1cb:0x805b9815e4f739!5m2!4m1!1i2!8m2!3d54.2208711!4d18.3759053!16s%2Fg%2F1tjz21n8!19sChIJy6GjYIKC_UYROffkFZhbgAA?authuser=0&hl=en&rclk=1
54.27013,18.611997,hotel,Villa Terra,https://www.google.com/maps/place/Villa+Terra/data=!4m10!3m9!1s0x46fd711d1fc6f51b:0x697373964c927e5a!5m2!4m1!1i2!8m2!3d54.27013!4d18.611997!16s%2Fg%2F11fx8_gvc4!19sChIJG_XGHx1x_UYRWn6STJZzc2k?authuser=0&hl=en&rclk=1
54.265714,18.6374169,hotel,Rooms for Rent,https://www.google.com/maps/place/Rooms+for+Rent/data=!4m10!3m9!1s0x46fd71ab7c0b89e5:0x9dda670f3844f13d!5m2!4m1!1i2!8m2!3d54.265714!4d18.6374169!16s%2Fg%2F11h4trrnr5!19sChIJ5YkLfKtx_UYRPfFEOA9n2p0?authuser=0&hl=en&rclk=1
54.2613331,18.641055,hotel,Apart Chopin,https://www.google.com/maps/place/Apart+Chopin/data=!4m10!3m9!1s0x46fd730a58481707:0xad956b906b21dec3!5m2!4m1!1i2!8m2!3d54.2613331!4d18.641055!16s%2Fg%2F1tgx0qfd!19sChIJBxdIWApz_UYRw94ha5Brla0?authuser=0&hl=en&rclk=1
54.2411052,18.629382,hotel,Hotel Górski,https://www.google.com/maps/place/Hotel+G%C3%B3rski/data=!4m10!3m9!1s0x46fd7053ebe8d7ed:0xb5f70c2697fe397!5m2!4m1!1i2!8m2!3d54.2411052!4d18.629382!16s%2Fg%2F1tghbv55!19sChIJ7dfo61Nw_UYRl-N_acJwXws?authuser=0&hl=en&rclk=1
54.2526118,18.9657128,hotel,Hotel Drywa Wolne pokoje Nocleg,https://www.google.com/maps/place/Hotel+Drywa+Wolne+pokoje+Nocleg/data=!4m7!3m6!1s0x46fd6aab7e233301:0xc577568a42de38de!8m2!3d54.2526118!4d18.9657128!16s%2Fg%2F1tdrd1nf!19sChIJATMjfqtq_UYR3jjeQopWd8U?authuser=0&hl=en&rclk=1
54.2514203,18.844768,hotel,Cedrowy Dworek,https://www.google.com/maps/place/Cedrowy+Dworek/data=!4m10!3m9!1s0x46fd693655014e27:0xeeb0422ffb851482!5m2!4m1!1i2!8m2!3d54.2514203!4d18.844768!16s%2Fg%2F11y2h96v6!19sChIJJ04BVTZp_UYRghSF-y9CsO4?authuser=0&hl=en&rclk=1
