lat,lon,type,title,link
54.446847,18.424336,ksiegowa,"Biuro Rachunkowe ""RACHMISTRZ"" Walczak Iwona",https://www.google.com/maps/place/Biuro+Rachunkowe+%22RACHMISTRZ%22+Walczak+Iwona/data=!4m7!3m6!1s0x46fda1e4151491e7:0xbc648c54eebfc5fd!8m2!3d54.446847!4d18.424336!16s%2Fg%2F11cllkgd93!19sChIJ55EUFeSh_UYR_cW_7lSMZLw?authuser=0&hl=en&rclk=1
54.4433208,18.4190367,ksiegowa,Sukurs. Biuro rachunkowe. Naczke A.,https://www.google.com/maps/place/Sukurs.+Biuro+rachunkowe.+Naczke+A./data=!4m7!3m6!1s0x46fda1e4e0638b5d:0xa3c735aca39fe8f2!8m2!3d54.4433208!4d18.4190367!16s%2Fg%2F1tcv4_ts!19sChIJXYtj4OSh_UYR8uifo6w1x6M?authuser=0&hl=en&rclk=1
54.443653,18.39034,ksiegowa,Biuro rachunkowe Księgowa Maria Treder Chwaszczyno Karczemki Tuchom Kielno Warzno Dobrzewino,https://www.google.com/maps/place/Biuro+rachunkowe+Ksi%C4%99gowa+Maria+Treder+Chwaszczyno+Karczemki+Tuchom+Kielno+Warzno+Dobrzewino/data=!4m7!3m6!1s0x46fda2015364d733:0x4ba5d6527a681c0f!8m2!3d54.443653!4d18.39034!16s%2Fg%2F11f0kx1kz6!19sChIJM9dkUwGi_UYRDxxoelLWpUs?authuser=0&hl=en&rclk=1
54.438744,18.4194219,ksiegowa,Biuro Rachunkowe ADSEDO Karolina Jaworska,https://www.google.com/maps/place/Biuro+Rachunkowe+ADSEDO+Karolina+Jaworska/data=!4m7!3m6!1s0x46fda1e391e25775:0xb342b72d39032b92!8m2!3d54.438744!4d18.4194219!16s%2Fg%2F11gbf6th09!19sChIJdVfikeOh_UYRkisDOS23QrM?authuser=0&hl=en&rclk=1
54.446847,18.424336,ksiegowa,Biuro Rachunkowe,https://www.google.com/maps/place/Biuro+Rachunkowe/data=!4m7!3m6!1s0x46fda1ef0386ea3b:0x5190c7a14bc93c65!8m2!3d54.446847!4d18.424336!16s%2Fg%2F11fmmdshyl!19sChIJO-qGA--h_UYRZTzJS6HHkFE?authuser=0&hl=en&rclk=1
54.4445815,18.4181686,ksiegowa,Biuro Rachunkowe Julia Komorowska (Partner OSCBR),https://www.google.com/maps/place/Biuro+Rachunkowe+Julia+Komorowska+(Partner+OSCBR)/data=!4m7!3m6!1s0x46fda13786215d23:0x294b5072e784c09d!8m2!3d54.4445815!4d18.4181686!16s%2Fg%2F11q8g0x8lv!19sChIJI10hhjeh_UYRncCE53JQSyk?authuser=0&hl=en&rclk=1
54.4414919,18.4529979,ksiegowa,Biuro Rachunkowe Szuflada Księgowych,https://www.google.com/maps/place/Biuro+Rachunkowe+Szuflada+Ksi%C4%99gowych/data=!4m7!3m6!1s0x46fda18bc3cd7c25:0x51ba805f37dd6e17!8m2!3d54.4414919!4d18.4529979!16s%2Fg%2F11h_6pf4fh!19sChIJJXzNw4uh_UYRF27dN1-AulE?authuser=0&hl=en&rclk=1
54.4687642,18.4900246,ksiegowa,Kancelaria Rachunkowa - usługi księgowe - mobilna księgowa Agnieszka Laskowska,https://www.google.com/maps/place/Kancelaria+Rachunkowa+-+us%C5%82ugi+ksi%C4%99gowe+-+mobilna+ksi%C4%99gowa+Agnieszka+Laskowska/data=!4m7!3m6!1s0x46fda0ffed740001:0xce98e9f97863906e!8m2!3d54.4687642!4d18.4900246!16s%2Fg%2F11h6g12_pf!19sChIJAQB07f-g_UYRbpBjePnpmM4?authuser=0&hl=en&rclk=1
54.4415982,18.4555489,ksiegowa,Alicja Czyszek. Kancelaria podatkowa. Biuro rachunkowe,https://www.google.com/maps/place/Alicja+Czyszek.+Kancelaria+podatkowa.+Biuro+rachunkowe/data=!4m7!3m6!1s0x46fda1ce3e8cfd59:0x812a1e096f5acc93!8m2!3d54.4415982!4d18.4555489!16s%2Fg%2F1xfsmfkm!19sChIJWf2MPs6h_UYRk8xabwkeKoE?authuser=0&hl=en&rclk=1
54.464766,18.458234,ksiegowa,BIURO RACHUNKOWE - KABA FINANSE,https://www.google.com/maps/place/BIURO+RACHUNKOWE+-+KABA+FINANSE/data=!4m7!3m6!1s0x46fda725d7d7f913:0x4fd4509885e65d41!8m2!3d54.464766!4d18.458234!16s%2Fg%2F11bbygvhm0!19sChIJE_nX1yWn_UYRQV3mhZhQ1E8?authuser=0&hl=en&rclk=1
54.4920232,18.4367098,ksiegowa,"Księgowość dla Firm Gdynia - Biuro Rachunkowe AR, Księgowa Gdynia","https://www.google.com/maps/place/Ksi%C4%99gowo%C5%9B%C4%87+dla+Firm+Gdynia+-+Biuro+Rachunkowe+AR,+Ksi%C4%99gowa+Gdynia/data=!4m7!3m6!1s0x46fda1b163be34e3:0xf2449245cd16a743!8m2!3d54.4920232!4d18.4367098!16s%2Fg%2F11h1m2gmdg!19sChIJ4zS-Y7Gh_UYRQ6cWzUWSRPI?authuser=0&hl=en&rclk=1"
54.4690286,18.5202971,ksiegowa,BR Grzesiak - Gdynia Accounting Office / BHP,https://www.google.com/maps/place/BR+Grzesiak+-+Gdynia+Accounting+Office+%2F+BHP/data=!4m7!3m6!1s0x46fda0fc3dd1df5d:0x6c4dc54160bc1070!8m2!3d54.4690286!4d18.5202971!16s%2Fg%2F1tdcvt3l!19sChIJXd_RPfyg_UYRcBC8YEHFTWw?authuser=0&hl=en&rclk=1
54.4690689,18.5030844,ksiegowa,"Biuro Usług Księgowych ""Laura""",https://www.google.com/maps/place/Biuro+Us%C5%82ug+Ksi%C4%99gowych+%22Laura%22/data=!4m7!3m6!1s0x46fda0f9b72ec761:0xf8450498175ff016!8m2!3d54.4690689!4d18.5030844!16s%2Fg%2F1tdy7rxw!19sChIJYccut_mg_UYRFvBfF5gERfg?authuser=0&hl=en&rclk=1
54.4690458,18.5035035,ksiegowa,"MoJe Biuro Rachunkowe - Gdynia, Trójmiasto","https://www.google.com/maps/place/MoJe+Biuro+Rachunkowe+-+Gdynia,+Tr%C3%B3jmiasto/data=!4m7!3m6!1s0x46fda0568e55494b:0x4b9db71acf2dc2bc!8m2!3d54.4690458!4d18.5035035!16s%2Fg%2F1hhjfd5yp!19sChIJS0lVjlag_UYRvMItzxq3nUs?authuser=0&hl=en&rclk=1"
54.4809809,18.5521779,ksiegowa,Biuro Rachunkowe Taxxa Przyjazna Księgowa Orłowo Zwycięstwa Gdynia,https://www.google.com/maps/place/Biuro+Rachunkowe+Taxxa+Przyjazna+Ksi%C4%99gowa+Or%C5%82owo+Zwyci%C4%99stwa+Gdynia/data=!4m7!3m6!1s0x46fda1a931285a2b:0xb8a4b6291bbd3d14!8m2!3d54.4809809!4d18.5521779!16s%2Fg%2F11fph89lr2!19sChIJK1ooMamh_UYRFD29Gym2pLg?authuser=0&hl=en&rclk=1
54.4273564,18.4811009,ksiegowa,Biuro Rachunkowe AFK,https://www.google.com/maps/place/Biuro+Rachunkowe+AFK/data=!4m7!3m6!1s0x46fda026f8b2f499:0x60cdffaf42bc0d87!8m2!3d54.4273564!4d18.4811009!16s%2Fg%2F1tj7crcb!19sChIJmfSy-Cag_UYRhw28Qq__zWA?authuser=0&hl=en&rclk=1
54.468155,18.484182,ksiegowa,Biuro Rachunkowe Gdynia - Vector,https://www.google.com/maps/place/Biuro+Rachunkowe+Gdynia+-+Vector/data=!4m7!3m6!1s0x46fda1aa8fefc0e5:0xc69e8f1b1ea93f82!8m2!3d54.468155!4d18.484182!16s%2Fg%2F11c602nkc6!19sChIJ5cDvj6qh_UYRgj-pHhuPnsY?authuser=0&hl=en&rclk=1
54.4925902,18.5534945,ksiegowa,Biuro rachunkowe Gdynia Kre@tywna Spółka z o.o.,https://www.google.com/maps/place/Biuro+rachunkowe+Gdynia+Kre@tywna+Sp%C3%B3%C5%82ka+z+o.o./data=!4m7!3m6!1s0x46fda67ef9581bef:0xdb1217022cf8d6c9!8m2!3d54.4925902!4d18.5534945!16s%2Fg%2F11bttky111!19sChIJ7xtY-X6m_UYRydb4LAIXEts?authuser=0&hl=en&rclk=1
54.4752987,18.5173195,ksiegowa,BIURO RACHUNKOWE MERITUM,https://www.google.com/maps/place/BIURO+RACHUNKOWE+MERITUM/data=!4m7!3m6!1s0x46fda0ee2296bac7:0xc8f4a29996a85456!8m2!3d54.4752987!4d18.5173195!16s%2Fg%2F11c529qfdp!19sChIJx7qWIu6g_UYRVlSolpmi9Mg?authuser=0&hl=en&rclk=1
54.471945,18.465388,ksiegowa,Biuro2plus1,https://www.google.com/maps/place/Biuro2plus1/data=!4m7!3m6!1s0x46fda109e1c5ccb1:0xda315fd8eab40d36!8m2!3d54.471945!4d18.465388!16s%2Fg%2F11j22ybrw_!19sChIJsczF4Qmh_UYRNg206thfMdo?authuser=0&hl=en&rclk=1
54.4661243,18.4864199,ksiegowa,„ANNA” BIURO RACHUNKOWE,https://www.google.com/maps/place/%E2%80%9EANNA%E2%80%9D+BIURO+RACHUNKOWE/data=!4m7!3m6!1s0x46fda0552c88a8af:0x6432d8fc3a86d02!8m2!3d54.4661243!4d18.4864199!16s%2Fg%2F11g0l9tyyj!19sChIJr6iILFWg_UYRAm2ow48tQwY?authuser=0&hl=en&rclk=1
54.446249,18.556648,ksiegowa,PERFECTA,https://www.google.com/maps/place/PERFECTA/data=!4m7!3m6!1s0x46fd0a920855f873:0x359d578d1394fb71!8m2!3d54.446249!4d18.556648!16s%2Fg%2F1tj883dc!19sChIJc_hVCJIK_UYRcfuUE41XnTU?authuser=0&hl=en&rclk=1
54.444764,18.56016,ksiegowa,Wyszyńska Agata. Biuro rachunkowe,https://www.google.com/maps/place/Wyszy%C5%84ska+Agata.+Biuro+rachunkowe/data=!4m7!3m6!1s0x46fd0a9ab07fb177:0x3f42ee2c40295157!8m2!3d54.444764!4d18.56016!16s%2Fg%2F1thf77wq!19sChIJd7F_sJoK_UYRV1EpQCzuQj8?authuser=0&hl=en&rclk=1
54.441747,18.5607541,ksiegowa,PROFIT - Biuro rachunkowe - Joanna Głowacka,https://www.google.com/maps/place/PROFIT+-+Biuro+rachunkowe+-+Joanna+G%C5%82owacka/data=!4m7!3m6!1s0x46fd0a90ed9f73df:0xe85f5ff2cb50ffcd!8m2!3d54.441747!4d18.5607541!16s%2Fg%2F1tcxnc5j!19sChIJ33Of7ZAK_UYRzf9Qy_JfX-g?authuser=0&hl=en&rclk=1
54.438365,18.572219,ksiegowa,"Biuro rachunkowe, Chodkowska Anna","https://www.google.com/maps/place/Biuro+rachunkowe,+Chodkowska+Anna/data=!4m7!3m6!1s0x46fd0a935a2d6f9f:0x16eb84bd4b6adcf2!8m2!3d54.438365!4d18.572219!16s%2Fg%2F1tfwc5r1!19sChIJn28tWpMK_UYR8txqS72E6xY?authuser=0&hl=en&rclk=1"
54.4186615,18.5747369,ksiegowa,Biuro Rachunkowe Beata Grabowska,https://www.google.com/maps/place/Biuro+Rachunkowe+Beata+Grabowska/data=!4m7!3m6!1s0x46fd0ace4c1fe865:0x2c0f5a988b161ba5!8m2!3d54.4186615!4d18.5747369!16s%2Fg%2F11cs2g_rk4!19sChIJZegfTM4K_UYRpRsWi5haDyw?authuser=0&hl=en&rclk=1
54.4479419,18.5643813,ksiegowa,Bugalter,https://www.google.com/maps/place/Bugalter/data=!4m7!3m6!1s0x46fd0bfb0ae810a9:0xb083f492399b2e17!8m2!3d54.4479419!4d18.5643813!16s%2Fg%2F11q2x78cbv!19sChIJqRDoCvsL_UYRFy6bOZL0g7A?authuser=0&hl=en&rclk=1
54.446249,18.556648,ksiegowa,Gierusz i wspólnicy biuro rachunkowe Sp. z o.o.,https://www.google.com/maps/place/Gierusz+i+wsp%C3%B3lnicy+biuro+rachunkowe+Sp.+z+o.o./data=!4m7!3m6!1s0x46fd0a9b4f4bc017:0xb4c97e2fe1afcaea!8m2!3d54.446249!4d18.556648!16s%2Fg%2F12qg8819q!19sChIJF8BLT5sK_UYR6sqv4S9-ybQ?authuser=0&hl=en&rclk=1
54.44576,18.5575161,ksiegowa,Kancelaria Rachunkowa SOWA,https://www.google.com/maps/place/Kancelaria+Rachunkowa+SOWA/data=!4m7!3m6!1s0x46fd0a9ad2f8353b:0x1ab8d2a1bf901e28!8m2!3d54.44576!4d18.5575161!16s%2Fg%2F1hc21j6yk!19sChIJOzX40poK_UYRKB6Qv6HSuBo?authuser=0&hl=en&rclk=1
54.4421009,18.5721929,ksiegowa,Audit. Biuro rachunkowe,https://www.google.com/maps/place/Audit.+Biuro+rachunkowe/data=!4m7!3m6!1s0x46fd0a92f492f0d9:0xc22c9ff8af56c0f0!8m2!3d54.4421009!4d18.5721929!16s%2Fg%2F1w04ht0f!19sChIJ2fCS9JIK_UYR8MBWr_ifLMI?authuser=0&hl=en&rclk=1
54.4430749,18.5707594,ksiegowa,J&K Usługi Księgowe,https://www.google.com/maps/place/J%26K+Us%C5%82ugi+Ksi%C4%99gowe/data=!4m7!3m6!1s0x46fd0a926e7408a5:0xcbf29e3fccff18ad!8m2!3d54.4430749!4d18.5707594!16s%2Fg%2F1tfwnncf!19sChIJpQh0bpIK_UYRrRj_zD-e8ss?authuser=0&hl=en&rclk=1
54.419274,18.453079,ksiegowa,Smart BackOffice - Nowoczesne Biuro Rachunkowe,https://www.google.com/maps/place/Smart+BackOffice+-+Nowoczesne+Biuro+Rachunkowe/data=!4m7!3m6!1s0x46fd9f3e0dd025f5:0x26d7a6a64aa0f064!8m2!3d54.419274!4d18.453079!16s%2Fg%2F11fk48g2y4!19sChIJ9SXQDT6f_UYRZPCgSqam1yY?authuser=0&hl=en&rclk=1
54.4332584,18.466026,ksiegowa,Biuro rachunkowe AMER Mariola Amer,https://www.google.com/maps/place/Biuro+rachunkowe+AMER+Mariola+Amer/data=!4m7!3m6!1s0x46fda02c923557f3:0x86d29ae7365db3b2!8m2!3d54.4332584!4d18.466026!16s%2Fg%2F11b6cgvr7v!19sChIJ81c1kiyg_UYRsrNdNuea0oY?authuser=0&hl=en&rclk=1
54.4297837,18.4699226,ksiegowa,Biuro rachunkowe Sylwia Sawaryn,https://www.google.com/maps/place/Biuro+rachunkowe+Sylwia+Sawaryn/data=!4m7!3m6!1s0x46fda1846d0de239:0x7914778cd75eded!8m2!3d54.4297837!4d18.4699226!16s%2Fg%2F11qvd41bk3!19sChIJOeINbYSh_UYR7e11zXhHkQc?authuser=0&hl=en&rclk=1
54.4305247,18.5557675,ksiegowa,Biuro rachunkowe Sopot - Accounting Sp. z o.o.,https://www.google.com/maps/place/Biuro+rachunkowe+Sopot+-+Accounting+Sp.+z+o.o./data=!4m7!3m6!1s0x46fd0abc6ab95639:0x4c8377a0660e1646!8m2!3d54.4305247!4d18.5557675!16s%2Fg%2F11xdz1kfg!19sChIJOVa5arwK_UYRRhYOZqB3g0w?authuser=0&hl=en&rclk=1
54.422797,18.562254,ksiegowa,Biuro Rachunkowe A&B,https://www.google.com/maps/place/Biuro+Rachunkowe+A%26B/data=!4m7!3m6!1s0x46fd0ab801200979:0x2264dd297ce087e7!8m2!3d54.422797!4d18.562254!16s%2Fg%2F11hyxn2y2q!19sChIJeQkgAbgK_UYR54fgfCndZCI?authuser=0&hl=en&rclk=1
54.419959,18.5625195,ksiegowa,PANI KSIĘGOWA.EU SP. Z O.O.,https://www.google.com/maps/place/PANI+KSI%C4%98GOWA.EU+SP.+Z+O.O./data=!4m7!3m6!1s0x46fd0b25d6830d6b:0x8399a6e19168897e!8m2!3d54.419959!4d18.5625195!16s%2Fg%2F11spljyc0y!19sChIJaw2D1iUL_UYRfolokeGmmYM?authuser=0&hl=en&rclk=1
54.4231207,18.5664896,ksiegowa,Po prostu Biuro Rachunkowe,https://www.google.com/maps/place/Po+prostu+Biuro+Rachunkowe/data=!4m7!3m6!1s0x46fd0ac7c9a40537:0x6f442fd97f4fb209!8m2!3d54.4231207!4d18.5664896!16s%2Fg%2F11c5s7hqnn!19sChIJNwWkyccK_UYRCbJPf9kvRG8?authuser=0&hl=en&rclk=1
54.440968,18.570002,ksiegowa,KPR-ka. Biuro rachunkowe. Pępek B.,https://www.google.com/maps/place/KPR-ka.+Biuro+rachunkowe.+P%C4%99pek+B./data=!4m7!3m6!1s0x46fd0a93ad70578f:0x6036ecd550c44d53!8m2!3d54.440968!4d18.570002!16s%2Fg%2F1tgvc9yg!19sChIJj1dwrZMK_UYRU03EUNXsNmA?authuser=0&hl=en&rclk=1
54.438306,18.557522,ksiegowa,Profinea Sp. z o.o.,https://www.google.com/maps/place/Profinea+Sp.+z+o.o./data=!4m7!3m6!1s0x46fd0a976dab0c3b:0x5a11293d0e4bb87b!8m2!3d54.438306!4d18.557522!16s%2Fg%2F1tdn7c6j!19sChIJOwyrbZcK_UYRe7hLDj0pEVo?authuser=0&hl=en&rclk=1
54.436474,18.570432,ksiegowa,Kancelaria Doradztwa Podatkowego Rembiałkowski Sp. Z o.o.,https://www.google.com/maps/place/Kancelaria+Doradztwa+Podatkowego+Rembia%C5%82kowski+Sp.+Z+o.o./data=!4m7!3m6!1s0x46fd0a94c3e1f62d:0x3d866bd86e1dfffb!8m2!3d54.436474!4d18.570432!16s%2Fg%2F1tfjpd5k!19sChIJLfbhw5QK_UYR-_8dbthrhj0?authuser=0&hl=en&rclk=1
54.439251,18.5608009,ksiegowa,"Magdalena Jutrzenka-Trzebiatowska, doradcy podatkowi, biuro rachunkowe","https://www.google.com/maps/place/Magdalena+Jutrzenka-Trzebiatowska,+doradcy+podatkowi,+biuro+rachunkowe/data=!4m7!3m6!1s0x46fd0b868b5f8f1d:0x2b4c7a6c8d0aa1c7!8m2!3d54.439251!4d18.5608009!16s%2Fg%2F11rbsh529y!19sChIJHY9fi4YL_UYRx6EKjWx6TCs?authuser=0&hl=en&rclk=1"
54.4407127,18.5590058,ksiegowa,Soprano Sp. z o. o.,https://www.google.com/maps/place/Soprano+Sp.+z+o.+o./data=!4m7!3m6!1s0x46fd0a90b0a012b3:0xaad15652e05f32b6!8m2!3d54.4407127!4d18.5590058!16s%2Fg%2F1tfsg2ph!19sChIJsxKgsJAK_UYRtjJf4FJW0ao?authuser=0&hl=en&rclk=1
54.4228239,18.5663616,ksiegowa,Księgowość Sp. z o.o.,https://www.google.com/maps/place/Ksi%C4%99gowo%C5%9B%C4%87+Sp.+z+o.o./data=!4m7!3m6!1s0x46fd0ac7e617c64d:0x6b2a2b994349a5fc!8m2!3d54.4228239!4d18.5663616!16s%2Fg%2F1tgfntv9!19sChIJTcYX5scK_UYR_KVJQ5krKms?authuser=0&hl=en&rclk=1
54.425217,18.591511,ksiegowa,Fidlin Finanse. Biuro rachunkowe,https://www.google.com/maps/place/Fidlin+Finanse.+Biuro+rachunkowe/data=!4m7!3m6!1s0x46fd74b95a7068af:0xadc09c2e1346c033!8m2!3d54.425217!4d18.591511!16s%2Fg%2F1tkjjx1v!19sChIJr2hwWrl0_UYRM8BGEy6cwK0?authuser=0&hl=en&rclk=1
54.4090532,18.586556,ksiegowa,Gajowniczek Magdalena. Biuro rachunkowe,https://www.google.com/maps/place/Gajowniczek+Magdalena.+Biuro+rachunkowe/data=!4m7!3m6!1s0x46fd0ad56b6aec9b:0x349eb97b94677f3f!8m2!3d54.4090532!4d18.586556!16s%2Fg%2F1wnd_rrl!19sChIJm-xqa9UK_UYRP39nlHu5njQ?authuser=0&hl=en&rclk=1
54.4044705,18.5763842,ksiegowa,Biuro Rachunkowe Maciej Godlewski,https://www.google.com/maps/place/Biuro+Rachunkowe+Maciej+Godlewski/data=!4m7!3m6!1s0x46fd752c05ee8a09:0x33927adb814b138e!8m2!3d54.4044705!4d18.5763842!16s%2Fg%2F1jky_tk7m!19sChIJCYruBSx1_UYRjhNLgdt6kjM?authuser=0&hl=en&rclk=1
54.3963596,18.5906562,ksiegowa,Biuro rachunkowe HEJNE Księgowość,https://www.google.com/maps/place/Biuro+rachunkowe+HEJNE+Ksi%C4%99gowo%C5%9B%C4%87/data=!4m7!3m6!1s0x46fd7529f2e077d9:0x9b065ab73a8ca278!8m2!3d54.3963596!4d18.5906562!16s%2Fg%2F11b6lmtfrr!19sChIJ2Xfg8il1_UYReKKMOrdaBps?authuser=0&hl=en&rclk=1
54.3847352,18.4011753,ksiegowa,Biuro rachunkowe OMEGA Elżbieta Borszcz,https://www.google.com/maps/place/Biuro+rachunkowe+OMEGA+El%C5%BCbieta+Borszcz/data=!4m7!3m6!1s0x46fd9ee224d91b43:0xe07056518fdeb806!8m2!3d54.3847352!4d18.4011753!16s%2Fg%2F11cs5ms0_f!19sChIJQxvZJOKe_UYRBrjej1FWcOA?authuser=0&hl=en&rclk=1
54.377699,18.506719,ksiegowa,PERFECTUM Kancelaria Finansowo-Księgowa,https://www.google.com/maps/place/PERFECTUM+Kancelaria+Finansowo-Ksi%C4%99gowa/data=!4m7!3m6!1s0x46fd75791c32bec7:0xd091284beba109f9!8m2!3d54.377699!4d18.506719!16s%2Fg%2F11fm16306w!19sChIJx74yHHl1_UYR-Qmh60sokdA?authuser=0&hl=en&rclk=1
54.4263185,18.4622467,ksiegowa,Biuro Rachunkowe Astra Irena Dubicka-Nieznalska,https://www.google.com/maps/place/Biuro+Rachunkowe+Astra+Irena+Dubicka-Nieznalska/data=!4m7!3m6!1s0x46fd9f8062d9e701:0x1b646871a5a83e8a!8m2!3d54.4263185!4d18.4622467!16s%2Fg%2F1tgnvxxh!19sChIJAefZYoCf_UYRij6opXFoZBs?authuser=0&hl=en&rclk=1
54.419794,18.4733403,ksiegowa,Usługi księgowe Damian Wójcikiewicz,https://www.google.com/maps/place/Us%C5%82ugi+ksi%C4%99gowe+Damian+W%C3%B3jcikiewicz/data=!4m7!3m6!1s0x46fd9f2aafae468f:0x3cd4ad1a1bbd68e!8m2!3d54.419794!4d18.4733403!16s%2Fg%2F11t1rglb_n!19sChIJj0auryqf_UYRjta7odFKzQM?authuser=0&hl=en&rclk=1
54.4231241,18.4722941,ksiegowa,Biuro Usług Viking sp. z o.o.,https://www.google.com/maps/place/Biuro+Us%C5%82ug+Viking+sp.+z+o.o./data=!4m7!3m6!1s0x46fd9f89b0469879:0x29a801e981ebd0a!8m2!3d54.4231241!4d18.4722941!16s%2Fg%2F1yfdqyfn3!19sChIJeZhGsImf_UYRCr0emB6AmgI?authuser=0&hl=en&rclk=1
54.4252151,18.4865464,ksiegowa,Biuro Rachunkowe SAE Elżbieta Sawaryn,https://www.google.com/maps/place/Biuro+Rachunkowe+SAE+El%C5%BCbieta+Sawaryn/data=!4m7!3m6!1s0x46fda020e8f40eeb:0x9fa4136cc5f4c522!8m2!3d54.4252151!4d18.4865464!16s%2Fg%2F11b6t28tb_!19sChIJ6w706CCg_UYRIsX0xWwTpJ8?authuser=0&hl=en&rclk=1
54.427636,18.5619709,ksiegowa,Biuro Rachunkowe Twój Nawigator,https://www.google.com/maps/place/Biuro+Rachunkowe+Tw%C3%B3j+Nawigator/data=!4m7!3m6!1s0x46fd0be87371f56d:0xa24274f3fbba4c15!8m2!3d54.427636!4d18.5619709!16s%2Fg%2F11h3g6x4wn!19sChIJbfVxc-gL_UYRFUy6-_N0QqI?authuser=0&hl=en&rclk=1
54.427102,18.5631129,ksiegowa,Biuro Rachunkowe Ewa Łuszcz,https://www.google.com/maps/place/Biuro+Rachunkowe+Ewa+%C5%81uszcz/data=!4m7!3m6!1s0x46fd0ab8c720361d:0xf332216a6dc8b087!8m2!3d54.427102!4d18.5631129!16s%2Fg%2F1wf20jvh!19sChIJHTYgx7gK_UYRh7DIbWohMvM?authuser=0&hl=en&rclk=1
54.415571,18.558728,ksiegowa,Wektor Jarosław Wróblewski,https://www.google.com/maps/place/Wektor+Jaros%C5%82aw+Wr%C3%B3blewski/data=!4m7!3m6!1s0x46fd0aca6e687ded:0xa3b89d3b1fbe7fe9!8m2!3d54.415571!4d18.558728!16s%2Fg%2F1tjdq0dh!19sChIJ7X1obsoK_UYR6X--HzuduKM?authuser=0&hl=en&rclk=1
54.4124731,18.5918896,ksiegowa,Bartiz Usługi Księgowe Izabela Wieluńska,https://www.google.com/maps/place/Bartiz+Us%C5%82ugi+Ksi%C4%99gowe+Izabela+Wielu%C5%84ska/data=!4m7!3m6!1s0x46fd0b29f1400bf3:0x48fc9281565219b4!8m2!3d54.4124731!4d18.5918896!16s%2Fg%2F1vf9b16r!19sChIJ8wtA8SkL_UYRtBlSVoGS_Eg?authuser=0&hl=en&rclk=1
54.4177862,18.5952433,ksiegowa,Biuro Rachunkowe PIT s.c.,https://www.google.com/maps/place/Biuro+Rachunkowe+PIT+s.c./data=!4m7!3m6!1s0x46fd0ae834cfe69f:0xfb5bd686a087cb57!8m2!3d54.4177862!4d18.5952433!16s%2Fg%2F1tqnk999!19sChIJn-bPNOgK_UYRV8uHoIbWW_s?authuser=0&hl=en&rclk=1
54.416348,18.5853812,ksiegowa,Biuro Rachunkowe Funkcja Monika Walczak,https://www.google.com/maps/place/Biuro+Rachunkowe+Funkcja+Monika+Walczak/data=!4m7!3m6!1s0x46fd0ad72eb5eebd:0xcc45052a57933c85!8m2!3d54.416348!4d18.5853812!16s%2Fg%2F1tg8hfcf!19sChIJve61LtcK_UYRhTyTVyoFRcw?authuser=0&hl=en&rclk=1
54.4094585,18.5845752,ksiegowa,Biuro rachunkowe Fin-El Consulting,https://www.google.com/maps/place/Biuro+rachunkowe+Fin-El+Consulting/data=!4m7!3m6!1s0x46fd0b32571a0d69:0x8b4ce60d1c5885cc!8m2!3d54.4094585!4d18.5845752!16s%2Fg%2F1ttdx41h!19sChIJaQ0aVzIL_UYRzIVYHA3mTIs?authuser=0&hl=en&rclk=1
54.3914366,18.5994912,ksiegowa,Biuro Rachunkowe Lea - usługi księgowe,https://www.google.com/maps/place/Biuro+Rachunkowe+Lea+-+us%C5%82ugi+ksi%C4%99gowe/data=!4m7!3m6!1s0x46fd74c5b2e62163:0xd586b0f9cc4010c9!8m2!3d54.3914366!4d18.5994912!16s%2Fg%2F11g9vs63gn!19sChIJYyHmssV0_UYRyRBAzPmwhtU?authuser=0&hl=en&rclk=1
54.4118424,18.5763451,ksiegowa,Biuro Rachunkowe Jelta,https://www.google.com/maps/place/Biuro+Rachunkowe+Jelta/data=!4m7!3m6!1s0x46fd0ad256192fb9:0xba99f488c95daf15!8m2!3d54.4118424!4d18.5763451!16s%2Fg%2F1trswplw!19sChIJuS8ZVtIK_UYRFa9dyYj0mbo?authuser=0&hl=en&rclk=1
54.400414,18.5918202,ksiegowa,Biuro Rachunkowe Elżbieta Wrycza,https://www.google.com/maps/place/Biuro+Rachunkowe+El%C5%BCbieta+Wrycza/data=!4m7!3m6!1s0x46fd74940b6b5981:0xf832e24ec492fa92!8m2!3d54.400414!4d18.5918202!16s%2Fg%2F1tfrfg5r!19sChIJgVlrC5R0_UYRkvqSxE7iMvg?authuser=0&hl=en&rclk=1
54.3972043,18.5797828,ksiegowa,Biuro rachunkowe Gdańsk - Petra usługi księgowe,https://www.google.com/maps/place/Biuro+rachunkowe+Gda%C5%84sk+-+Petra+us%C5%82ugi+ksi%C4%99gowe/data=!4m7!3m6!1s0x46fd7582244e08b1:0x4119b613f34816d1!8m2!3d54.3972043!4d18.5797828!16s%2Fg%2F11rhw09yq8!19sChIJsQhOJIJ1_UYR0RZI8xO2GUE?authuser=0&hl=en&rclk=1
54.3856179,18.3890249,ksiegowa,"Biuro rachunkowe ""Na Miodowej"" Wioletta Stencel",https://www.google.com/maps/place/Biuro+rachunkowe+%22Na+Miodowej%22+Wioletta+Stencel/data=!4m7!3m6!1s0x46fd9f04358a0b4b:0xe2ddf9afc47ec4c3!8m2!3d54.3856179!4d18.3890249!16s%2Fg%2F11h6crwz81!19sChIJSwuKNQSf_UYRw8R-xK_53eI?authuser=0&hl=en&rclk=1
54.3599827,18.3615457,ksiegowa,"Biuro Rachunkowe Księgowe na Obcasach Monika Bosz, Joanna Heimowska","https://www.google.com/maps/place/Biuro+Rachunkowe+Ksi%C4%99gowe+na+Obcasach+Monika+Bosz,+Joanna+Heimowska/data=!4m7!3m6!1s0x46fd9d74b43efdf3:0x7e7f37fa10dd56c6!8m2!3d54.3599827!4d18.3615457!16s%2Fg%2F11ghnflgcy!19sChIJ8_0-tHSd_UYRxlbdEPo3f34?authuser=0&hl=en&rclk=1"
54.3599827,18.3615457,ksiegowa,Księgowe na obcasach,https://www.google.com/maps/place/Ksi%C4%99gowe+na+obcasach/data=!4m7!3m6!1s0x46fd9e5b95d47947:0xb629141dd4a9e116!8m2!3d54.3599827!4d18.3615457!16s%2Fg%2F11h48whtcq!19sChIJR3nUlVue_UYRFuGp1B0UKbY?authuser=0&hl=en&rclk=1
54.4138525,18.4694327,ksiegowa,Rodo Start,https://www.google.com/maps/place/Rodo+Start/data=!4m7!3m6!1s0x46fd9f9022b4db95:0xce4e3d33605a530e!8m2!3d54.4138525!4d18.4694327!16s%2Fg%2F11hyxnpv5d!19sChIJldu0IpCf_UYRDlNaYDM9Ts4?authuser=0&hl=en&rclk=1
54.388259,18.578463,ksiegowa,Spółka Doradztwa Podatkowego HAGAW Gawrychowska i Wspólnicy Sp. z o.o.,https://www.google.com/maps/place/Sp%C3%B3%C5%82ka+Doradztwa+Podatkowego+HAGAW+Gawrychowska+i+Wsp%C3%B3lnicy+Sp.+z+o.o./data=!4m7!3m6!1s0x46fd74de5307e76b:0xcdf5cde502216cdd!8m2!3d54.388259!4d18.578463!16s%2Fg%2F1thx2qzd!19sChIJa-cHU950_UYR3WwhAuXN9c0?authuser=0&hl=en&rclk=1
54.3970336,18.5657484,ksiegowa,Biuro Rachunkowe MERY Maria Zalewska,https://www.google.com/maps/place/Biuro+Rachunkowe+MERY+Maria+Zalewska/data=!4m7!3m6!1s0x46fd752505da0f31:0x1848b5f024428aff!8m2!3d54.3970336!4d18.5657484!16s%2Fg%2F1wrtbk6q!19sChIJMQ_aBSV1_UYR_4pCJPC1SBg?authuser=0&hl=en&rclk=1
54.3993009,18.5764538,ksiegowa,LemonTax,https://www.google.com/maps/place/LemonTax/data=!4m7!3m6!1s0x46fd75159588808d:0xe84110886088944d!8m2!3d54.3993009!4d18.5764538!16s%2Fg%2F11j7dcjyxr!19sChIJjYCIlRV1_UYRTZSIYIgQQeg?authuser=0&hl=en&rclk=1
54.4090098,18.559651,ksiegowa,Finanse i Księgowość Sylwia Rodziewicz,https://www.google.com/maps/place/Finanse+i+Ksi%C4%99gowo%C5%9B%C4%87+Sylwia+Rodziewicz/data=!4m7!3m6!1s0x46fd75616f3fc331:0x39ee83d8ddd26009!8m2!3d54.4090098!4d18.559651!16s%2Fg%2F11fmdt8204!19sChIJMcM_b2F1_UYRCWDS3diD7jk?authuser=0&hl=en&rclk=1
54.4113071,18.5755976,ksiegowa,Księgowość,https://www.google.com/maps/place/Ksi%C4%99gowo%C5%9B%C4%87/data=!4m7!3m6!1s0x46fd0ad2fa9c0001:0x11b78e6bd1bc6ca4!8m2!3d54.4113071!4d18.5755976!16s%2Fg%2F11h7zf29bc!19sChIJAQCc-tIK_UYRpGy80WuOtxE?authuser=0&hl=en&rclk=1
54.4002339,18.592135,ksiegowa,Kancelaria Usług Księgowych Agnieszka Larysa Kubiak - Biuro rachunkowe Gdańsk,https://www.google.com/maps/place/Kancelaria+Us%C5%82ug+Ksi%C4%99gowych+Agnieszka+Larysa+Kubiak+-+Biuro+rachunkowe+Gda%C5%84sk/data=!4m7!3m6!1s0x46fd7503423eeca5:0xe9dd4985bdc9caf8!8m2!3d54.4002339!4d18.592135!16s%2Fg%2F11gzr_vvrl!19sChIJpew-QgN1_UYR-MrJvYVJ3ek?authuser=0&hl=en&rclk=1
54.4078317,18.6318648,ksiegowa,"Radtka Katarzyna. Doradztwo podatkowe, biuro rachunkowe","https://www.google.com/maps/place/Radtka+Katarzyna.+Doradztwo+podatkowe,+biuro+rachunkowe/data=!4m7!3m6!1s0x46fd0b4e5974b90d:0xd5cf44abfdab3735!8m2!3d54.4078317!4d18.6318648!16s%2Fg%2F1tc_pq2b!19sChIJDbl0WU4L_UYRNTer_atEz9U?authuser=0&hl=en&rclk=1"
54.397194,18.605779,ksiegowa,Kalkulus s.c. Biuro rachunkowe w Gdańsku,https://www.google.com/maps/place/Kalkulus+s.c.+Biuro+rachunkowe+w+Gda%C5%84sku/data=!4m7!3m6!1s0x46fd0b32162bf291:0x5ca7d8802fd592a2!8m2!3d54.397194!4d18.605779!16s%2Fg%2F1tg4_36v!19sChIJkfIrFjIL_UYRopLVL4DYp1w?authuser=0&hl=en&rclk=1
54.3778726,18.6056499,ksiegowa,twoje biuro rachunkowe mikosy sp. z o.o.,https://www.google.com/maps/place/twoje+biuro+rachunkowe+mikosy+sp.+z+o.o./data=!4m7!3m6!1s0x46fd73843ad5b7a5:0xab7aa140a5f82b3e!8m2!3d54.3778726!4d18.6056499!16s%2Fg%2F11cmmpkcvt!19sChIJpbfVOoRz_UYRPiv4pUCheqs?authuser=0&hl=en&rclk=1
54.3804252,18.6255175,ksiegowa,Biuro Rachunkowe zaksięgować.pl,https://www.google.com/maps/place/Biuro+Rachunkowe+zaksi%C4%99gowa%C4%87.pl/data=!4m7!3m6!1s0x46fd74a2f72cbc7b:0x155517906d26b515!8m2!3d54.3804252!4d18.6255175!16s%2Fg%2F11c6qs2y3m!19sChIJe7ws96J0_UYRFbUmbZAXVRU?authuser=0&hl=en&rclk=1
54.398245,18.667056,ksiegowa,Biuro Rachunkowe BDF,https://www.google.com/maps/place/Biuro+Rachunkowe+BDF/data=!4m7!3m6!1s0x46fd0cae5fc82c95:0x4cc97e4308f805e5!8m2!3d54.398245!4d18.667056!16s%2Fg%2F1thfd3lt!19sChIJlSzIX64M_UYR5QX4CEN-yUw?authuser=0&hl=en&rclk=1
54.370284,18.597524,ksiegowa,PERFEKT - Biuro Rachunkowe Gdańsk | Księgowa Gdańsk Monika Wiśniewska,https://www.google.com/maps/place/PERFEKT+-+Biuro+Rachunkowe+Gda%C5%84sk+%7C+Ksi%C4%99gowa+Gda%C5%84sk+Monika+Wi%C5%9Bniewska/data=!4m7!3m6!1s0x46fd748d37d04bd5:0x5b6291cab19923cb!8m2!3d54.370284!4d18.597524!16s%2Fg%2F1tg_vsm1!19sChIJ1UvQN410_UYRyyOZscqRYls?authuser=0&hl=en&rclk=1
54.3936472,18.6178202,ksiegowa,"TAX FREE Biuro Rachunkowe, Księgowość, Doradztwo podatkowe w Gdańsku","https://www.google.com/maps/place/TAX+FREE+Biuro+Rachunkowe,+Ksi%C4%99gowo%C5%9B%C4%87,+Doradztwo+podatkowe+w+Gda%C5%84sku/data=!4m7!3m6!1s0x46fd74b700f589ed:0xfd2ce73130a88fd4!8m2!3d54.3936472!4d18.6178202!16s%2Fg%2F11clt8ffrg!19sChIJ7Yn1ALd0_UYR1I-oMDHnLP0?authuser=0&hl=en&rclk=1"
54.3820316,18.6204247,ksiegowa,Doradca podatkowy Barbara Kulesz,https://www.google.com/maps/place/Doradca+podatkowy+Barbara+Kulesz/data=!4m7!3m6!1s0x46fd73715c08da37:0xc020cee19a8a22b4!8m2!3d54.3820316!4d18.6204247!16s%2Fg%2F1tdzk7sn!19sChIJN9oIXHFz_UYRtCKKmuHOIMA?authuser=0&hl=en&rclk=1
54.4029809,18.6685408,ksiegowa,Biuro Rachunkowe,https://www.google.com/maps/place/Biuro+Rachunkowe/data=!4m7!3m6!1s0x46fd0caed7e1d02b:0xbabe18d9158192d1!8m2!3d54.4029809!4d18.6685408!16s%2Fg%2F1pp2tl38l!19sChIJK9Dh164M_UYR0ZKBFdkYvro?authuser=0&hl=en&rclk=1
54.3518599,18.6632,ksiegowa,Activus Sp. z o.o. Kancelaria księgowa,https://www.google.com/maps/place/Activus+Sp.+z+o.o.+Kancelaria+ksi%C4%99gowa/data=!4m7!3m6!1s0x46fd730a289df1f7:0xb449dead971cf6ce!8m2!3d54.3518599!4d18.6632!16s%2Fg%2F1vg6sfc6!19sChIJ9_GdKApz_UYRzvYcl63eSbQ?authuser=0&hl=en&rclk=1
54.350309,18.6467089,ksiegowa,Biuro Rachunkowe w Gdańsku- Euromax- Kancelaria Księgowa,https://www.google.com/maps/place/Biuro+Rachunkowe+w+Gda%C5%84sku-+Euromax-+Kancelaria+Ksi%C4%99gowa/data=!4m7!3m6!1s0x46fd737602035d81:0xff8a709cca499179!8m2!3d54.350309!4d18.6467089!16s%2Fg%2F1trvk3gp!19sChIJgV0DAnZz_UYReZFJypxwiv8?authuser=0&hl=en&rclk=1
54.388312,18.4063858,ksiegowa,PATRONUS Biuro Usług Rachunkowych Dariusz Kreft,https://www.google.com/maps/place/PATRONUS+Biuro+Us%C5%82ug+Rachunkowych+Dariusz+Kreft/data=!4m7!3m6!1s0x46fda724d726e6eb:0x49e2853f255f2173!8m2!3d54.388312!4d18.4063858!16s%2Fg%2F1vzn47sn!19sChIJ6-Ym1ySn_UYRcyFfJT-F4kk?authuser=0&hl=en&rclk=1
54.388295,18.4046361,ksiegowa,AWES Edyta Staśkowiak,https://www.google.com/maps/place/AWES+Edyta+Sta%C5%9Bkowiak/data=!4m7!3m6!1s0x46fd9fb91d7c5929:0x37a37955928329c!8m2!3d54.388295!4d18.4046361!16s%2Fg%2F11qm0c3wtt!19sChIJKVl8Hbmf_UYRnDIoWZU3egM?authuser=0&hl=en&rclk=1
54.3684818,18.4805286,ksiegowa,TAX Usługi Rachunkowo-Księgowe,https://www.google.com/maps/place/TAX+Us%C5%82ugi+Rachunkowo-Ksi%C4%99gowe/data=!4m7!3m6!1s0x46fd9fb04b2e08c3:0xa883ee5b8b8f9388!8m2!3d54.3684818!4d18.4805286!16s%2Fg%2F11t54h63kb!19sChIJwwguS7Cf_UYRiJOPi1vug6g?authuser=0&hl=en&rclk=1
54.3571439,18.4907688,ksiegowa,KA BA BIURO RACHUNKOWE KATARZYNA BAŁACHOWSKA,https://www.google.com/maps/place/KA+BA+BIURO+RACHUNKOWE+KATARZYNA+BA%C5%81ACHOWSKA/data=!4m7!3m6!1s0x46fd752500e498e9:0xceb5dc1d1563d629!8m2!3d54.3571439!4d18.4907688!16s%2Fg%2F11r9ff9v17!19sChIJ6ZjkACV1_UYRKdZjFR3ctc4?authuser=0&hl=en&rclk=1
54.4009848,18.5711861,ksiegowa,Saldo s.c Biuro rachunkowe. Lindenau S.M.,https://www.google.com/maps/place/Saldo+s.c+Biuro+rachunkowe.+Lindenau+S.M./data=!4m7!3m6!1s0x46fd752e7edd1f35:0xd3478e085dc95d74!8m2!3d54.4009848!4d18.5711861!16s%2Fg%2F1tdshgt0!19sChIJNR_dfi51_UYRdF3JXQiOR9M?authuser=0&hl=en&rclk=1
54.4046776,18.5762206,ksiegowa,AbcGo,https://www.google.com/maps/place/AbcGo/data=!4m7!3m6!1s0x46fd752c0ad41c43:0x75bdbb187972eb46!8m2!3d54.4046776!4d18.5762206!16s%2Fg%2F11c5jb_1w_!19sChIJQxzUCix1_UYRRutyeRi7vXU?authuser=0&hl=en&rclk=1
54.38916,18.5876519,ksiegowa,TAX OFFICE,https://www.google.com/maps/place/TAX+OFFICE/data=!4m7!3m6!1s0x46fd74dc620c2feb:0x48098350574f7227!8m2!3d54.38916!4d18.5876519!16s%2Fg%2F11fm5ynllv!19sChIJ6y8MYtx0_UYRJ3JPV1CDCUg?authuser=0&hl=en&rclk=1
54.3905206,18.5719692,ksiegowa,Pomorskie Biuro Rachunkowe Sp. z o.o.,https://www.google.com/maps/place/Pomorskie+Biuro+Rachunkowe+Sp.+z+o.o./data=!4m7!3m6!1s0x46fd741c775960e5:0x4221412a51234cdb!8m2!3d54.3905206!4d18.5719692!16s%2Fg%2F1ptz044rn!19sChIJ5WBZdxx0_UYR20wjUSpBIUI?authuser=0&hl=en&rclk=1
54.3965875,18.5967163,ksiegowa,Biuro rachunkowe Mateo,https://www.google.com/maps/place/Biuro+rachunkowe+Mateo/data=!4m7!3m6!1s0x46fd732f800df577:0x97a01185d57f6526!8m2!3d54.3965875!4d18.5967163!16s%2Fg%2F11mv_ntk4w!19sChIJd_UNgC9z_UYRJmV_1YURoJc?authuser=0&hl=en&rclk=1
54.3969954,18.6079122,ksiegowa,Mh Biuro Rachunkowe,https://www.google.com/maps/place/Mh+Biuro+Rachunkowe/data=!4m7!3m6!1s0x46fd74c9a16dd165:0x74e332354b4cbfae!8m2!3d54.3969954!4d18.6079122!16s%2Fg%2F11lgy3ck89!19sChIJZdFtocl0_UYRrr9MSzUy43Q?authuser=0&hl=en&rclk=1
54.397743,18.59161,ksiegowa,Biuro Rachunkowe - Libertas - Barbara Neumann,https://www.google.com/maps/place/Biuro+Rachunkowe+-+Libertas+-+Barbara+Neumann/data=!4m7!3m6!1s0x46fd75928b3b3271:0xdb27eb6467e853c2!8m2!3d54.397743!4d18.59161!16s%2Fg%2F11p67nl37z!19sChIJcTI7i5J1_UYRwlPoZ2TrJ9s?authuser=0&hl=en&rclk=1
54.4004326,18.5919794,ksiegowa,Biuro Rachunkowe IKO Izabela Grzela,https://www.google.com/maps/place/Biuro+Rachunkowe+IKO+Izabela+Grzela/data=!4m7!3m6!1s0x46fd0ad474edbb2f:0xd626ffedf95c9f5!8m2!3d54.4004326!4d18.5919794!16s%2Fg%2F11f522zylb!19sChIJL7vtdNQK_UYR9cmV3_5vYg0?authuser=0&hl=en&rclk=1
54.3928076,18.6440261,ksiegowa,Saldo,https://www.google.com/maps/place/Saldo/data=!4m7!3m6!1s0x46fd74aa2dd57161:0x58684c5ab57d48a!8m2!3d54.3928076!4d18.6440261!16s%2Fg%2F1td1zz1x!19sChIJYXHVLap0_UYRitRXq8WEhgU?authuser=0&hl=en&rclk=1
54.4005613,18.6265741,ksiegowa,Usługi Administracyjno-Biurowe L.Z.,https://www.google.com/maps/place/Us%C5%82ugi+Administracyjno-Biurowe+L.Z./data=!4m7!3m6!1s0x46fd755a806a7bff:0x7315bb2fafa7a9ab!8m2!3d54.4005613!4d18.6265741!16s%2Fg%2F11h4c0fk28!19sChIJ_3tqgFp1_UYRq6mnry-7FXM?authuser=0&hl=en&rclk=1
54.387439,18.616233,ksiegowa,"Biuro Rachunkowe ""Help"" Danuta Sawicka",https://www.google.com/maps/place/Biuro+Rachunkowe+%22Help%22+Danuta+Sawicka/data=!4m7!3m6!1s0x46fd74b96e3a4709:0x46394191730673c2!8m2!3d54.387439!4d18.616233!16s%2Fg%2F1tgj_b2l!19sChIJCUc6brl0_UYRwnMGc5FBOUY?authuser=0&hl=en&rclk=1
54.3609731,18.7159982,ksiegowa,BIURO RACHUNKOWE Małgorzata Bielecka-Knut,https://www.google.com/maps/place/BIURO+RACHUNKOWE+Ma%C5%82gorzata+Bielecka-Knut/data=!4m7!3m6!1s0x46fd72e88862c36f:0x6cc7c13f0eb90487!8m2!3d54.3609731!4d18.7159982!16s%2Fg%2F11cjgcntrf!19sChIJb8NiiOhy_UYRhwS5Dj_Bx2w?authuser=0&hl=en&rclk=1
54.3545328,18.6477395,ksiegowa,Biuro Rachunkowo-Księgowe PLUS Ewa Choromańska,https://www.google.com/maps/place/Biuro+Rachunkowo-Ksi%C4%99gowe+PLUS+Ewa+Choroma%C5%84ska/data=!4m7!3m6!1s0x46fd73767ec359cf:0x3f58e74c5f2c80ee!8m2!3d54.3545328!4d18.6477395!16s%2Fg%2F1vh_7212!19sChIJz1nDfnZz_UYR7oAsX0znWD8?authuser=0&hl=en&rclk=1
54.347898,18.651939,ksiegowa,Usługi Księgowe,https://www.google.com/maps/place/Us%C5%82ugi+Ksi%C4%99gowe/data=!4m7!3m6!1s0x46fd739f6282b4db:0x2a7c3366343ae9cd!8m2!3d54.347898!4d18.651939!16s%2Fg%2F11fmxyzs51!19sChIJ27SCYp9z_UYRzek6NGYzfCo?authuser=0&hl=en&rclk=1
53.9391566,17.8792479,ksiegowa,Biuro Rachunkowe FAL-MAX sp.z o.o - Mobilna obsługa księgowa,https://www.google.com/maps/place/Biuro+Rachunkowe+FAL-MAX+sp.z+o.o+-+Mobilna+obs%C5%82uga+ksi%C4%99gowa/data=!4m7!3m6!1s0x46fd738b21be19c3:0x1d97193b4c181712!8m2!3d53.9391566!4d17.8792479!16s%2Fg%2F1tdwnsqc!19sChIJwxm-IYtz_UYREhcYTDsZlx0?authuser=0&hl=en&rclk=1
54.3524843,18.5306489,ksiegowa,NKUP. Biuro rachunkowe. Worobjew J.,https://www.google.com/maps/place/NKUP.+Biuro+rachunkowe.+Worobjew+J./data=!4m7!3m6!1s0x46fd75b9d1109c9b:0xe04ed89978185a25!8m2!3d54.3524843!4d18.5306489!16s%2Fg%2F1tfr_s3m!19sChIJm5wQ0bl1_UYRJVoYeJnYTuA?authuser=0&hl=en&rclk=1
54.3788992,18.5051147,ksiegowa,"Kancelaria Finansowo Księgowa, Projekty UE ""Perfectum""","https://www.google.com/maps/place/Kancelaria+Finansowo+Ksi%C4%99gowa,+Projekty+UE+%22Perfectum%22/data=!4m7!3m6!1s0x46fd7532cec1dacb:0x942671b4dc2d0fcb!8m2!3d54.3788992!4d18.5051147!16s%2Fg%2F11fdwzrfyk!19sChIJy9rBzjJ1_UYRyw8t3LRxJpQ?authuser=0&hl=en&rclk=1"
54.3610873,18.6900272,ksiegowa,Biuro rachunkowe Znany Ksiegowy Gdańsk,https://www.google.com/maps/place/Biuro+rachunkowe+Znany+Ksiegowy+Gda%C5%84sk/data=!4m7!3m6!1s0xa5d1566f6367c397:0x869c115c1939215b!8m2!3d54.3610873!4d18.6900272!16s%2Fg%2F11rj564vlr!19sChIJl8NnY29W0aURWyE5GVwRnIY?authuser=0&hl=en&rclk=1
54.3880112,18.5655788,ksiegowa,Biuro Rachunkowe MARGHE,https://www.google.com/maps/place/Biuro+Rachunkowe+MARGHE/data=!4m7!3m6!1s0x46fd7521fd339be1:0xfaab589286dc096d!8m2!3d54.3880112!4d18.5655788!16s%2Fg%2F11c3j5cgb3!19sChIJ4Zsz_SF1_UYRbQnchpJYq_o?authuser=0&hl=en&rclk=1
54.3872032,18.572101,ksiegowa,Gb Finance,https://www.google.com/maps/place/Gb+Finance/data=!4m7!3m6!1s0x46fd75200399fb8f:0x5fc6c3ff4cf1e864!8m2!3d54.3872032!4d18.572101!16s%2Fg%2F11h6g12psc!19sChIJj_uZAyB1_UYRZOjxTP_Dxl8?authuser=0&hl=en&rclk=1
54.3816182,18.6089171,ksiegowa,Księgowość,https://www.google.com/maps/place/Ksi%C4%99gowo%C5%9B%C4%87/data=!4m7!3m6!1s0x46fd74bfd31e85b3:0xb035f01d18d1b5ad!8m2!3d54.3816182!4d18.6089171!16s%2Fg%2F11h7zfd_cj!19sChIJs4Ue0790_UYRrbXRGB3wNbA?authuser=0&hl=en&rclk=1
54.3843301,18.5894688,ksiegowa,Aksjomat S.C.,https://www.google.com/maps/place/Aksjomat+S.C./data=!4m7!3m6!1s0x46fd74c1edeafb29:0x68a700e5af8bce94!8m2!3d54.3843301!4d18.5894688!16s%2Fg%2F1tfr8wv8!19sChIJKfvq7cF0_UYRlM6Lr-UAp2g?authuser=0&hl=en&rclk=1
54.3835122,18.5875998,ksiegowa,Kancelaria Prawno Rachunkowa,https://www.google.com/maps/place/Kancelaria+Prawno+Rachunkowa/data=!4m7!3m6!1s0x46fd74e7e3f50941:0x862b578b73833926!8m2!3d54.3835122!4d18.5875998!16s%2Fg%2F11j08b6v9j!19sChIJQQn14-d0_UYRJjmDc4tXK4Y?authuser=0&hl=en&rclk=1
54.384622,18.6250381,ksiegowa,AiM Biuro Rachunkowe S.C.,https://www.google.com/maps/place/AiM+Biuro+Rachunkowe+S.C./data=!4m7!3m6!1s0x46fd74a4b222e5ad:0x16b12bd81dd1119a!8m2!3d54.384622!4d18.6250381!16s%2Fg%2F11b7f3psyq!19sChIJreUisqR0_UYRmhHRHdgrsRY?authuser=0&hl=en&rclk=1
54.3828041,18.6402238,ksiegowa,"BZ-Consulting - biuro rachunkowe, kancelaria prawno-podatkowa.","https://www.google.com/maps/place/BZ-Consulting+-+biuro+rachunkowe,+kancelaria+prawno-podatkowa./data=!4m7!3m6!1s0x46fd74a75dbe2f99:0x70393e244e29a9a6!8m2!3d54.3828041!4d18.6402238!16s%2Fg%2F11bccjk771!19sChIJmS--Xad0_UYRpqkpTiQ-OXA?authuser=0&hl=en&rclk=1"
54.3880119,18.6159512,ksiegowa,Usługi Księgowe,https://www.google.com/maps/place/Us%C5%82ugi+Ksi%C4%99gowe/data=!4m7!3m6!1s0x46fd74b9733990cf:0x2e270c7fdfc38bdd!8m2!3d54.3880119!4d18.6159512!16s%2Fg%2F11hyn8c27l!19sChIJz5A5c7l0_UYR3YvD338MJy4?authuser=0&hl=en&rclk=1
54.3569699,18.6852765,ksiegowa,Obsługa kadrowo - księgowa firm,https://www.google.com/maps/place/Obs%C5%82uga+kadrowo+-+ksi%C4%99gowa+firm/data=!4m7!3m6!1s0x46fd730357da4ea7:0x34e77126d8d08ad6!8m2!3d54.3569699!4d18.6852765!16s%2Fg%2F1tnpd3l_!19sChIJp07aVwNz_UYR1orQ2CZx5zQ?authuser=0&hl=en&rclk=1
54.3484495,18.6496263,ksiegowa,Biuro Rachunkowe Gdańsk Katarzyna Wróblewska - doradca podatkowy,https://www.google.com/maps/place/Biuro+Rachunkowe+Gda%C5%84sk+Katarzyna+Wr%C3%B3blewska+-+doradca+podatkowy/data=!4m7!3m6!1s0x46fd739f0d8d90b3:0xe138a9d645c3016c!8m2!3d54.3484495!4d18.6496263!16s%2Fg%2F1td4szjh!19sChIJs5CNDZ9z_UYRbAHDRdapOOE?authuser=0&hl=en&rclk=1
54.3539109,18.6531979,ksiegowa,"Biuro Rachunkowe ""Tax"" Elżbieta Jachymczyk",https://www.google.com/maps/place/Biuro+Rachunkowe+%22Tax%22+El%C5%BCbieta+Jachymczyk/data=!4m7!3m6!1s0x46fd73751c63ee19:0x62bfc7726ff65529!8m2!3d54.3539109!4d18.6531979!16s%2Fg%2F11j08bdn_7!19sChIJGe5jHHVz_UYRKVX2b3LHv2I?authuser=0&hl=en&rclk=1
54.351476,18.633457,ksiegowa,Biuro Rachunkowe Bożena Senko,https://www.google.com/maps/place/Biuro+Rachunkowe+Bo%C5%BCena+Senko/data=!4m7!3m6!1s0x46fd73831cdd4013:0x13f72846be552060!8m2!3d54.351476!4d18.633457!16s%2Fg%2F11df6mdkm1!19sChIJE0DdHINz_UYRYCBVvkYo9xM?authuser=0&hl=en&rclk=1
54.3564161,18.6501469,ksiegowa,Biuro Rachunkowe Gdańsk - Optiofin sp. z o.o.,https://www.google.com/maps/place/Biuro+Rachunkowe+Gda%C5%84sk+-+Optiofin+sp.+z+o.o./data=!4m7!3m6!1s0x46fd73c589cf71a1:0xbdf3e582db30df27!8m2!3d54.3564161!4d18.6501469!16s%2Fg%2F11rd2wnyrf!19sChIJoXHPicVz_UYRJ98w24Ll870?authuser=0&hl=en&rclk=1
54.3675378,18.4661619,ksiegowa,BIURO RACHUNKOWE AKlux,https://www.google.com/maps/place/BIURO+RACHUNKOWE+AKlux/data=!4m7!3m6!1s0x46fd9fdaf4e96c9f:0x65f51224ac507e7a!8m2!3d54.3675378!4d18.4661619!16s%2Fg%2F11lh2vmbx4!19sChIJn2zp9Nqf_UYRen5QrCQS9WU?authuser=0&hl=en&rclk=1
54.3254355,18.6032604,ksiegowa,"De Facto - Biuro Rachunkowe Gdańsk. Księgowa, Księgowość, Doradztwo Podatkowe.","https://www.google.com/maps/place/De+Facto+-+Biuro+Rachunkowe+Gda%C5%84sk.+Ksi%C4%99gowa,+Ksi%C4%99gowo%C5%9B%C4%87,+Doradztwo+Podatkowe./data=!4m7!3m6!1s0x46fd73f9c0e3af1f:0x11058c84fbe3c75f!8m2!3d54.3254355!4d18.6032604!16s%2Fg%2F1v7px4_d!19sChIJH6_jwPlz_UYRX8fj-4SMBRE?authuser=0&hl=en&rclk=1"
54.3720805,18.5244513,ksiegowa,Biuro Usług Księgowych Adept Jadwiga Szczęśniak,https://www.google.com/maps/place/Biuro+Us%C5%82ug+Ksi%C4%99gowych+Adept+Jadwiga+Szcz%C4%99%C5%9Bniak/data=!4m7!3m6!1s0x46fd75755ff66d6b:0x6599e5bae3e5c597!8m2!3d54.3720805!4d18.5244513!16s%2Fg%2F11g7_g3hqm!19sChIJa232X3V1_UYRl8Xl47rlmWU?authuser=0&hl=en&rclk=1
54.3779894,18.523469,ksiegowa,Biuro rachunkowe CFC s.c.,https://www.google.com/maps/place/Biuro+rachunkowe+CFC+s.c./data=!4m7!3m6!1s0x46fd7573f6931909:0x421e49969abef8ea!8m2!3d54.3779894!4d18.523469!16s%2Fg%2F1tdy7rx8!19sChIJCRmT9nN1_UYR6vi-mpZJHkI?authuser=0&hl=en&rclk=1
54.376515,18.5641263,ksiegowa,Biuro Rachunkowe Ambactus,https://www.google.com/maps/place/Biuro+Rachunkowe+Ambactus/data=!4m7!3m6!1s0x46fd75fe6f33ce59:0xc738440310cf6462!8m2!3d54.376515!4d18.5641263!16s%2Fg%2F11g0g8pnhy!19sChIJWc4zb_51_UYRYmTPEANEOMc?authuser=0&hl=en&rclk=1
54.3407686,18.5791509,ksiegowa,Biuro Rachunkowe SAWO,https://www.google.com/maps/place/Biuro+Rachunkowe+SAWO/data=!4m7!3m6!1s0x46fd746ad188ad3f:0xa9844bd22bd92d6!8m2!3d54.3407686!4d18.5791509!16s%2Fg%2F11c2p5zcy_!19sChIJP62I0Wp0_UYR1pK9Ir1EmAo?authuser=0&hl=en&rclk=1
54.376532,18.607927,ksiegowa,"As Biuro Rachunkowe Gdańsk Wrzeszcz - Kadry i Płace, audyt i wdrożenie RODO, kursy księgowości","https://www.google.com/maps/place/As+Biuro+Rachunkowe+Gda%C5%84sk+Wrzeszcz+-+Kadry+i+P%C5%82ace,+audyt+i+wdro%C5%BCenie+RODO,+kursy+ksi%C4%99gowo%C5%9Bci/data=!4m7!3m6!1s0x46fd75e2656e040f:0xd78647b692cdb35!8m2!3d54.376532!4d18.607927!16s%2Fg%2F1vwlmv10!19sChIJDwRuZeJ1_UYRNdssaXtkeA0?authuser=0&hl=en&rclk=1"
54.3354721,18.6007,ksiegowa,Kancelaria Usług Księgowych LEX sp. z o.o.,https://www.google.com/maps/place/Kancelaria+Us%C5%82ug+Ksi%C4%99gowych+LEX+sp.+z+o.o./data=!4m7!3m6!1s0x46fd740b3fdfb78d:0x917d1d71d4903573!8m2!3d54.3354721!4d18.6007!16s%2Fg%2F11b6vb87tv!19sChIJjbffPwt0_UYRczWQ1HEdfZE?authuser=0&hl=en&rclk=1
54.3782231,18.6060208,ksiegowa,Omega. Biuro rachunkowe,https://www.google.com/maps/place/Omega.+Biuro+rachunkowe/data=!4m7!3m6!1s0x46fd7494e492292d:0x5cc31e6004d88088!8m2!3d54.3782231!4d18.6060208!16s%2Fg%2F1td6lbv1!19sChIJLSmS5JR0_UYRiIDYBGAew1w?authuser=0&hl=en&rclk=1
54.3772959,18.6056301,ksiegowa,Conseil Accounting Office,https://www.google.com/maps/place/Conseil+Accounting+Office/data=!4m7!3m6!1s0x46fd7495a5c7fb09:0x3e30ddbcfc9d12ae!8m2!3d54.3772959!4d18.6056301!16s%2Fg%2F1vg_bkcc!19sChIJCfvHpZV0_UYRrhKd_LzdMD4?authuser=0&hl=en&rclk=1
54.3768686,18.60821,ksiegowa,2+1 eksperci księgowości,https://www.google.com/maps/place/2%2B1+eksperci+ksi%C4%99gowo%C5%9Bci/data=!4m7!3m6!1s0x46fd7496b2dd6857:0x3e65278ea2831d1!8m2!3d54.3768686!4d18.60821!16s%2Fg%2F1tg85bnf!19sChIJV2jdspZ0_UYR0TEo6nhS5gM?authuser=0&hl=en&rclk=1
54.3753657,18.6060099,ksiegowa,Back-up Accounting Office,https://www.google.com/maps/place/Back-up+Accounting+Office/data=!4m7!3m6!1s0x46fd74942ee34a05:0x7ae317c574d0b76b!8m2!3d54.3753657!4d18.6060099!16s%2Fg%2F1tm0rvs6!19sChIJBUrjLpR0_UYRa7fQdMUX43o?authuser=0&hl=en&rclk=1
54.3774064,18.6070453,ksiegowa,Biuro Rachunkowe KRS-Office Justyna Lenart,https://www.google.com/maps/place/Biuro+Rachunkowe+KRS-Office+Justyna+Lenart/data=!4m7!3m6!1s0x46fd74dd5637fec9:0x6a36f5c11c36f0c!8m2!3d54.3774064!4d18.6070453!16s%2Fg%2F11c1s7s_0_!19sChIJyf43Vt10_UYRDG_DEVxvowY?authuser=0&hl=en&rclk=1
54.3771047,18.6089392,ksiegowa,Optiway Biuro Rachunkowe Sp. z o.o.,https://www.google.com/maps/place/Optiway+Biuro+Rachunkowe+Sp.+z+o.o./data=!4m7!3m6!1s0x46fd75d2333da043:0x457970da773caf4a!8m2!3d54.3771047!4d18.6089392!16s%2Fg%2F11g0vyzkr1!19sChIJQ6A9M9J1_UYRSq88d9pweUU?authuser=0&hl=en&rclk=1
54.376044,18.602884,ksiegowa,A&B Kancelaria Sp. z o.o.,https://www.google.com/maps/place/A%26B+Kancelaria+Sp.+z+o.o./data=!4m7!3m6!1s0x46fd7493607e1c4f:0xfa68f3743b6f12f3!8m2!3d54.376044!4d18.602884!16s%2Fg%2F1vs1qklb!19sChIJTxx-YJN0_UYR8xJvO3TzaPo?authuser=0&hl=en&rclk=1
54.3758699,18.6064627,ksiegowa,Biuro rachunkowe Komfort Sp. z o.o.,https://www.google.com/maps/place/Biuro+rachunkowe+Komfort+Sp.+z+o.o./data=!4m7!3m6!1s0x46fd7494766c0f25:0x7c3c96754721e562!8m2!3d54.3758699!4d18.6064627!16s%2Fg%2F1thsdmb8!19sChIJJQ9sdpR0_UYRYuUhR3WWPHw?authuser=0&hl=en&rclk=1
54.3739057,18.6253006,ksiegowa,Biuro Rachunkowe MGN Monika Graboń-Nawrocka,https://www.google.com/maps/place/Biuro+Rachunkowe+MGN+Monika+Grabo%C5%84-Nawrocka/data=!4m7!3m6!1s0x46fd74e89528d8eb:0xf62a84ab86dfe7cb!8m2!3d54.3739057!4d18.6253006!16s%2Fg%2F1tmxd7nf!19sChIJ69goleh0_UYRy-ffhquEKvY?authuser=0&hl=en&rclk=1
54.3759174,18.6188486,ksiegowa,ATUT Usługi Rachunkowo - Audytorskie Jolanta Orłowska,https://www.google.com/maps/place/ATUT+Us%C5%82ugi+Rachunkowo+-+Audytorskie+Jolanta+Or%C5%82owska/data=!4m7!3m6!1s0x46fd74bc28a2796b:0xec51fa551c22db7c!8m2!3d54.3759174!4d18.6188486!16s%2Fg%2F1td9tt7h!19sChIJa3miKLx0_UYRfNsiHFX6Uew?authuser=0&hl=en&rclk=1
54.3767507,18.6241368,ksiegowa,Michalak Mariusz. Biuro rachunkowe,https://www.google.com/maps/place/Michalak+Mariusz.+Biuro+rachunkowe/data=!4m7!3m6!1s0x46fd7498f123cc4b:0xde8aa9802e0f14a2!8m2!3d54.3767507!4d18.6241368!16s%2Fg%2F1v6p2zvn!19sChIJS8wj8Zh0_UYRohQPLoCpit4?authuser=0&hl=en&rclk=1
54.361111,18.7132768,ksiegowa,Biuro Rachunkowe Małgorzata Lisiewicz,https://www.google.com/maps/place/Biuro+Rachunkowe+Ma%C5%82gorzata+Lisiewicz/data=!4m7!3m6!1s0x46fd72e639c757ed:0xb27783a4f97392ad!8m2!3d54.361111!4d18.7132768!16s%2Fg%2F1wf378_7!19sChIJ7VfHOeZy_UYRrZJz-aSDd7I?authuser=0&hl=en&rclk=1
54.3444098,18.6484757,ksiegowa,Yard. Accounting Office. A. Malinowska,https://www.google.com/maps/place/Yard.+Accounting+Office.+A.+Malinowska/data=!4m7!3m6!1s0x46fd7398a031afa9:0xbf56bfb86a8c380f!8m2!3d54.3444098!4d18.6484757!16s%2Fg%2F1tfcrxtf!19sChIJqa8xoJhz_UYRDziMari_Vr8?authuser=0&hl=en&rclk=1
54.360892,18.7159549,ksiegowa,Biuro Rachunkowe Wioleta Odolińska,https://www.google.com/maps/place/Biuro+Rachunkowe+Wioleta+Odoli%C5%84ska/data=!4m7!3m6!1s0x46fd72e88862c37b:0xf2e55bee58f15093!8m2!3d54.360892!4d18.7159549!16s%2Fg%2F11bvt4b7pd!19sChIJe8NiiOhy_UYRk1DxWO5b5fI?authuser=0&hl=en&rclk=1
54.3305762,18.5572088,ksiegowa,HK Biuro Rachunkowe,https://www.google.com/maps/place/HK+Biuro+Rachunkowe/data=!4m7!3m6!1s0x46fd7424ed57d74b:0x2d9301acb584b206!8m2!3d54.3305762!4d18.5572088!16s%2Fg%2F11gxxhhmps!19sChIJS9dX7SR0_UYRBrKEtawBky0?authuser=0&hl=en&rclk=1
54.3546715,18.4980491,ksiegowa,Biuro Rachunkowe ESITO Joanna Jagiełło,https://www.google.com/maps/place/Biuro+Rachunkowe+ESITO+Joanna+Jagie%C5%82%C5%82o/data=!4m7!3m6!1s0x46fd7592bdb61035:0xaf2d6d141ff59869!8m2!3d54.3546715!4d18.4980491!16s%2Fg%2F1tdgt2ff!19sChIJNRC2vZJ1_UYRaZj1HxRtLa8?authuser=0&hl=en&rclk=1
54.351587,18.5723789,ksiegowa,Biuro Rachunkowe Zaksięgowani Małgorzata Nowaczyk,https://www.google.com/maps/place/Biuro+Rachunkowe+Zaksi%C4%99gowani+Ma%C5%82gorzata+Nowaczyk/data=!4m7!3m6!1s0x46fd75d461341981:0x61e0037fe27f8096!8m2!3d54.351587!4d18.5723789!16s%2Fg%2F11j67l886l!19sChIJgRk0YdR1_UYRloB_4n8D4GE?authuser=0&hl=en&rclk=1
54.3407838,18.5791873,ksiegowa,Księgowość - Professional Service,https://www.google.com/maps/place/Ksi%C4%99gowo%C5%9B%C4%87+-+Professional+Service/data=!4m7!3m6!1s0x46fd75ceea757a89:0xe1d9c3e2f616c318!8m2!3d54.3407838!4d18.5791873!16s%2Fg%2F11k7x4xnzl!19sChIJiXp16s51_UYRGMMW9uLD2eE?authuser=0&hl=en&rclk=1
54.3567859,18.5803831,ksiegowa,Biuro rachunkowe Rabat Marzena Krajweska,https://www.google.com/maps/place/Biuro+rachunkowe+Rabat+Marzena+Krajweska/data=!4m7!3m6!1s0x46fd75fdcaa1bc0f:0x44ab479ad2910953!8m2!3d54.3567859!4d18.5803831!16s%2Fg%2F11f5lylztv!19sChIJD7yhyv11_UYRUwmR0ppHq0Q?authuser=0&hl=en&rclk=1
54.3582647,18.5891735,ksiegowa,CRB sp. z o.o.,https://www.google.com/maps/place/CRB+sp.+z+o.o./data=!4m7!3m6!1s0x46fd74609002af47:0x7245b46ef1440129!8m2!3d54.3582647!4d18.5891735!16s%2Fg%2F12cp2czpt!19sChIJR68CkGB0_UYRKQFE8W60RXI?authuser=0&hl=en&rclk=1
54.3582216,18.5877953,ksiegowa,Delta Consulting,https://www.google.com/maps/place/Delta+Consulting/data=!4m7!3m6!1s0x46fd74d413edf3bb:0x9341676154d9fca4!8m2!3d54.3582216!4d18.5877953!16s%2Fg%2F11h6g17x8k!19sChIJu_PtE9R0_UYRpPzZVGFnQZM?authuser=0&hl=en&rclk=1
54.3638659,18.5994363,ksiegowa,Biuro Rachunkowe EXPERT,https://www.google.com/maps/place/Biuro+Rachunkowe+EXPERT/data=!4m7!3m6!1s0x46fd74598fe40007:0xcdc1427f7a7cee0c!8m2!3d54.3638659!4d18.5994363!16s%2Fg%2F11h3lx1z8v!19sChIJBwDkj1l0_UYRDO58en9Cwc0?authuser=0&hl=en&rclk=1
54.3590358,18.5967784,ksiegowa,KW Buchalteria Biuro Rachunkowe s.c. Monika Weiher i Gabriela Kołodziej,https://www.google.com/maps/place/KW+Buchalteria+Biuro+Rachunkowe+s.c.+Monika+Weiher+i+Gabriela+Ko%C5%82odziej/data=!4m7!3m6!1s0x46fd74618b491fc9:0x9d9645711db821b8!8m2!3d54.3590358!4d18.5967784!16s%2Fg%2F1vg_bkc9!19sChIJyR9Ji2F0_UYRuCG4HXFFlp0?authuser=0&hl=en&rclk=1
54.3543217,18.6058275,ksiegowa,Taurus Biuro Rachunkowe,https://www.google.com/maps/place/Taurus+Biuro+Rachunkowe/data=!4m7!3m6!1s0x46fd747c93fdbb53:0xa36d7c1ef1d282ee!8m2!3d54.3543217!4d18.6058275!16s%2Fg%2F1tdrd1nw!19sChIJU7v9k3x0_UYR7oLS8R58baM?authuser=0&hl=en&rclk=1
54.3484522,18.6123071,ksiegowa,Biuro Rachunkowe GevoX.pl,https://www.google.com/maps/place/Biuro+Rachunkowe+GevoX.pl/data=!4m7!3m6!1s0x46fd7543d2b48359:0x25d34412c78cf44e!8m2!3d54.3484522!4d18.6123071!16s%2Fg%2F11jpxw5qx5!19sChIJWYO00kN1_UYRTvSMxxJE0yU?authuser=0&hl=en&rclk=1
54.3667103,18.5895089,ksiegowa,Kancelaria Doradcy Podatkowego Elżbieta Kudrycka,https://www.google.com/maps/place/Kancelaria+Doradcy+Podatkowego+El%C5%BCbieta+Kudrycka/data=!4m7!3m6!1s0x46fd75251971cc75:0x67901879396427e0!8m2!3d54.3667103!4d18.5895089!16s%2Fg%2F11k6tgq16x!19sChIJdcxxGSV1_UYR4CdkOXkYkGc?authuser=0&hl=en&rclk=1
54.3550264,18.6132197,ksiegowa,Goc Ł. Biuro rachunkowe. Kompleksowa obsługa podatkowo - księgowa,https://www.google.com/maps/place/Goc+%C5%81.+Biuro+rachunkowe.+Kompleksowa+obs%C5%82uga+podatkowo+-+ksi%C4%99gowa/data=!4m7!3m6!1s0x46fd747e7c35d453:0xcc56903127389aab!8m2!3d54.3550264!4d18.6132197!16s%2Fg%2F11gzscmv7!19sChIJU9Q1fH50_UYRq5o4JzGQVsw?authuser=0&hl=en&rclk=1
54.3507561,18.5869388,ksiegowa,LemonTax,https://www.google.com/maps/place/LemonTax/data=!4m7!3m6!1s0x46fd759e6b290507:0xe48c6a6818a93857!8m2!3d54.3507561!4d18.5869388!16s%2Fg%2F11fj1th1cp!19sChIJBwUpa551_UYRVzipGGhqjOQ?authuser=0&hl=en&rclk=1
54.3564802,18.6404829,ksiegowa,Jaśniak Katarzyna. Rachunkowość podatki,https://www.google.com/maps/place/Ja%C5%9Bniak+Katarzyna.+Rachunkowo%C5%9B%C4%87+podatki/data=!4m7!3m6!1s0x46fd71b6f5632873:0x6f88525c3870c346!8m2!3d54.3564802!4d18.6404829!16s%2Fg%2F1thkqcy5!19sChIJcyhj9bZx_UYRRsNwOFxSiG8?authuser=0&hl=en&rclk=1
54.359925,18.645246,ksiegowa,Abvik Biuro Rachunkowe/Księgowe,https://www.google.com/maps/place/Abvik+Biuro+Rachunkowe%2FKsi%C4%99gowe/data=!4m7!3m6!1s0x46fd7370ea1b779d:0x7c076f556b7aa76d!8m2!3d54.359925!4d18.645246!16s%2Fg%2F11c0xd3cdm!19sChIJnXcb6nBz_UYRbad6a1VvB3w?authuser=0&hl=en&rclk=1
54.354685,18.6227043,ksiegowa,C.Mych. Biuro rachunkowe,https://www.google.com/maps/place/C.Mych.+Biuro+rachunkowe/data=!4m7!3m6!1s0x46fd73806d58d0b3:0xe4f623515dfef8c9!8m2!3d54.354685!4d18.6227043!16s%2Fg%2F1tncrlk6!19sChIJs9BYbYBz_UYRyfj-XVEj9uQ?authuser=0&hl=en&rclk=1
54.3585173,18.6465559,ksiegowa,Cirka s.c. Biuro rachunkowe,https://www.google.com/maps/place/Cirka+s.c.+Biuro+rachunkowe/data=!4m7!3m6!1s0x46fd737127f1c78f:0xe7fd1fc5335c4c1a!8m2!3d54.3585173!4d18.6465559!16s%2Fg%2F1tjwgfkg!19sChIJj8fxJ3Fz_UYRGkxcM8Uf_ec?authuser=0&hl=en&rclk=1
54.3564161,18.6501469,ksiegowa,Tutaj-Szutowicz Maria. Biuro rachunkowe. Księgowość,https://www.google.com/maps/place/Tutaj-Szutowicz+Maria.+Biuro+rachunkowe.+Ksi%C4%99gowo%C5%9B%C4%87/data=!4m7!3m6!1s0x46fd737419faa819:0x581a1a731cbf7f69!8m2!3d54.3564161!4d18.6501469!16s%2Fg%2F1tdvs_xf!19sChIJGaj6GXRz_UYRaX-_HHMaGlg?authuser=0&hl=en&rclk=1
54.3600635,18.6818541,ksiegowa,Wena. Biuro rachunkowe. Jaśkiewicz-Marciniak Marciniak,https://www.google.com/maps/place/Wena.+Biuro+rachunkowe.+Ja%C5%9Bkiewicz-Marciniak+Marciniak/data=!4m7!3m6!1s0x46fd7304fe016755:0x5dc2ef3f9be598b1!8m2!3d54.3600635!4d18.6818541!16s%2Fg%2F1trxhzlq!19sChIJVWcB_gRz_UYRsZjlmz_vwl0?authuser=0&hl=en&rclk=1
54.3575143,18.68647,ksiegowa,Ulpop Biuro rachunkowe,https://www.google.com/maps/place/Ulpop+Biuro+rachunkowe/data=!4m7!3m6!1s0x46fd731ca5572aeb:0xa454c8aa0b198a54!8m2!3d54.3575143!4d18.68647!16s%2Fg%2F1hc1347hw!19sChIJ6ypXpRxz_UYRVIoZC6rIVKQ?authuser=0&hl=en&rclk=1
54.349138,18.668398,ksiegowa,Biuro Rachunkowe Akcept,https://www.google.com/maps/place/Biuro+Rachunkowe+Akcept/data=!4m7!3m6!1s0x46fd73a1059c13bd:0x2b4fd99e8d64f081!8m2!3d54.349138!4d18.668398!16s%2Fg%2F1tfr_s36!19sChIJvROcBaFz_UYRgfBkjZ7ZTys?authuser=0&hl=en&rclk=1
54.3436412,18.648646,ksiegowa,Księga. Biuro rachunkowo - podatkowe. Karol A.,https://www.google.com/maps/place/Ksi%C4%99ga.+Biuro+rachunkowo+-+podatkowe.+Karol+A./data=!4m7!3m6!1s0x46fd739878d636e9:0x1e97960e780d8fb!8m2!3d54.3436412!4d18.648646!16s%2Fg%2F1tdn7c75!19sChIJ6TbWeJhz_UYR-9iA52B56QE?authuser=0&hl=en&rclk=1
54.3320238,18.6047654,ksiegowa,Agnes Usługi Księgowe Agnieszka Sobczak-Kurek,https://www.google.com/maps/place/Agnes+Us%C5%82ugi+Ksi%C4%99gowe+Agnieszka+Sobczak-Kurek/data=!4m7!3m6!1s0x46fd749a52225959:0x19942a7f567a581f!8m2!3d54.3320238!4d18.6047654!16s%2Fg%2F1tjrnn_t!19sChIJWVkiUpp0_UYRH1h6Vn8qlBk?authuser=0&hl=en&rclk=1
54.329579,18.5852499,ksiegowa,A & G Biuro rachunkowe,https://www.google.com/maps/place/A+%26+G+Biuro+rachunkowe/data=!4m7!3m6!1s0x46fd74101f999fb5:0x8362d0e2ee8c3283!8m2!3d54.329579!4d18.5852499!16s%2Fg%2F11h0vptsxb!19sChIJtZ-ZHxB0_UYRgzKM7uLQYoM?authuser=0&hl=en&rclk=1
54.349505,18.558841,ksiegowa,Clue Kancelaria Rachunkowa Magda Żółtowska,https://www.google.com/maps/place/Clue+Kancelaria+Rachunkowa+Magda+%C5%BB%C3%B3%C5%82towska/data=!4m7!3m6!1s0x46fda65feb807613:0xaa1d52cc6116b745!8m2!3d54.349505!4d18.558841!16s%2Fg%2F1hcb3ckz5!19sChIJE3aA61-m_UYRRbcWYcxSHao?authuser=0&hl=en&rclk=1
54.3470583,18.604508,ksiegowa,Abaks. Biuro rachunkowe,https://www.google.com/maps/place/Abaks.+Biuro+rachunkowe/data=!4m7!3m6!1s0x46fd7470bd810bb1:0x83fc248af5c28898!8m2!3d54.3470583!4d18.604508!16s%2Fg%2F1tlbmvkh!19sChIJsQuBvXB0_UYRmIjC9Yok_IM?authuser=0&hl=en&rclk=1
54.3474274,18.5888969,ksiegowa,BIURO RACHUNKOWE ALICJA ZAWADA,https://www.google.com/maps/place/BIURO+RACHUNKOWE+ALICJA+ZAWADA/data=!4m7!3m6!1s0x46fd74692a6fffff:0x6630462ce9691e15!8m2!3d54.3474274!4d18.5888969!16s%2Fg%2F11hzjyhk45!19sChIJ__9vKml0_UYRFR5p6SxGMGY?authuser=0&hl=en&rclk=1
54.3506854,18.6103492,ksiegowa,Biuro rachunkowe - Business Benefits Sp. z o.o.,https://www.google.com/maps/place/Biuro+rachunkowe+-+Business+Benefits+Sp.+z+o.o./data=!4m7!3m6!1s0x46fd747965c8d681:0x855632a79ba5da28!8m2!3d54.3506854!4d18.6103492!16s%2Fg%2F11hbgg6ffz!19sChIJgdbIZXl0_UYRKNqlm6cyVoU?authuser=0&hl=en&rclk=1
54.3413029,18.6058181,ksiegowa,Doradztwo księgowe,https://www.google.com/maps/place/Doradztwo+ksi%C4%99gowe/data=!4m7!3m6!1s0x46fd7506bc4deec9:0xdd248e633b496626!8m2!3d54.3413029!4d18.6058181!16s%2Fg%2F11fnyzlfj4!19sChIJye5NvAZ1_UYRJmZJO2OOJN0?authuser=0&hl=en&rclk=1
54.3526053,18.6381926,ksiegowa,Biuro Usług Księgowo-Prawnych Kamilla Kosmowska,https://www.google.com/maps/place/Biuro+Us%C5%82ug+Ksi%C4%99gowo-Prawnych+Kamilla+Kosmowska/data=!4m7!3m6!1s0x46fd739fc1a33f8f:0x28e9de7d079c48fa!8m2!3d54.3526053!4d18.6381926!16s%2Fg%2F1v3gqltc!19sChIJjz-jwZ9z_UYR-kicB33e6Sg?authuser=0&hl=en&rclk=1
54.3474222,18.624216,ksiegowa,Biuro Rachunkowe MERITUM,https://www.google.com/maps/place/Biuro+Rachunkowe+MERITUM/data=!4m7!3m6!1s0x46fd73867d97c38b:0x13d0e5c5bfcc0890!8m2!3d54.3474222!4d18.624216!16s%2Fg%2F11h48wr_n1!19sChIJi8OXfYZz_UYRkAjMv8Xl0BM?authuser=0&hl=en&rclk=1
54.344721,18.623713,ksiegowa,Biuro Rachunkowe Gdańsk | Buchalter | Ksieguje.eu,https://www.google.com/maps/place/Biuro+Rachunkowe+Gda%C5%84sk+%7C+Buchalter+%7C+Ksieguje.eu/data=!4m7!3m6!1s0x46fd738f56502fe9:0x88ab0812f0c01047!8m2!3d54.344721!4d18.623713!16s%2Fg%2F12hv4wcmv!19sChIJ6S9QVo9z_UYRRxDA8BIIq4g?authuser=0&hl=en&rclk=1
54.3446847,18.6239673,ksiegowa,Biuro Rachunkowe Private Business Dorota Michalik,https://www.google.com/maps/place/Biuro+Rachunkowe+Private+Business+Dorota+Michalik/data=!4m7!3m6!1s0x46fd738f588b989d:0x43b95c4998f1abec!8m2!3d54.3446847!4d18.6239673!16s%2Fg%2F1tdp89p_!19sChIJnZiLWI9z_UYR7KvxmElcuUM?authuser=0&hl=en&rclk=1
54.343849,18.6214715,ksiegowa,Punkt. Biuro rachunkowe,https://www.google.com/maps/place/Punkt.+Biuro+rachunkowe/data=!4m7!3m6!1s0x46fd7388a4a3c2b9:0x986f090080b09c11!8m2!3d54.343849!4d18.6214715!16s%2Fg%2F1tfhy8qf!19sChIJucKjpIhz_UYREZywgAAJb5g?authuser=0&hl=en&rclk=1
54.349168,18.620393,ksiegowa,Biuro Rachunkowe Tax Safe,https://www.google.com/maps/place/Biuro+Rachunkowe+Tax+Safe/data=!4m7!3m6!1s0x46fd738710caef0f:0x8b4e37e07e4ca55b!8m2!3d54.349168!4d18.620393!16s%2Fg%2F11f3vjccs8!19sChIJD-_KEIdz_UYRW6VMfuA3Tos?authuser=0&hl=en&rclk=1
54.3495854,18.6349926,ksiegowa,Księgowość MTR Sp. z o.o.,https://www.google.com/maps/place/Ksi%C4%99gowo%C5%9B%C4%87+MTR+Sp.+z+o.o./data=!4m7!3m6!1s0x46fd73dfcae034dd:0xc79360db3ddac4c7!8m2!3d54.3495854!4d18.6349926!16s%2Fg%2F11smhf7cwt!19sChIJ3TTgyt9z_UYRx8TaPdtgk8c?authuser=0&hl=en&rclk=1
54.3498546,18.6269502,ksiegowa,Zdunek Lucyna. Usługi księgowo - rachunkowe,https://www.google.com/maps/place/Zdunek+Lucyna.+Us%C5%82ugi+ksi%C4%99gowo+-+rachunkowe/data=!4m7!3m6!1s0x46fd738400c8ce71:0x71c6d0def7aff25e!8m2!3d54.3498546!4d18.6269502!16s%2Fg%2F1tdj2xh4!19sChIJcc7IAIRz_UYRXvKv997QxnE?authuser=0&hl=en&rclk=1
54.3473772,18.6578954,ksiegowa,Biuro Rachunkowe - Mariola Szykuła,https://www.google.com/maps/place/Biuro+Rachunkowe+-+Mariola+Szyku%C5%82a/data=!4m7!3m6!1s0x46fd73a11bd838f9:0x1e8b6d72fe4252b6!8m2!3d54.3473772!4d18.6578954!16s%2Fg%2F1td03r9b!19sChIJ-TjYG6Fz_UYRtlJC_nJtix4?authuser=0&hl=en&rclk=1
54.3503972,18.6496075,ksiegowa,Biuro rachunkowe Marta Janelt,https://www.google.com/maps/place/Biuro+rachunkowe+Marta+Janelt/data=!4m7!3m6!1s0x46fd74bd61d94df5:0x68b6e0e2a5dd6b86!8m2!3d54.3503972!4d18.6496075!16s%2Fg%2F11c5fyylq3!19sChIJ9U3ZYb10_UYRhmvdpeLgtmg?authuser=0&hl=en&rclk=1
54.3361014,18.5072269,ksiegowa,Borkowska Maria. Księgowość,https://www.google.com/maps/place/Borkowska+Maria.+Ksi%C4%99gowo%C5%9B%C4%87/data=!4m7!3m6!1s0x46fd75dc2370d083:0x8417b4dc08d87505!8m2!3d54.3361014!4d18.5072269!16s%2Fg%2F1wnd_rss!19sChIJg9BwI9x1_UYRBXXYCNy0F4Q?authuser=0&hl=en&rclk=1
54.340116,18.501916,ksiegowa,Biuro Rachunkowe Inkont,https://www.google.com/maps/place/Biuro+Rachunkowe+Inkont/data=!4m7!3m6!1s0x46fd75c3e11deeb9:0xc4e2a304046778e!8m2!3d54.340116!4d18.501916!16s%2Fg%2F11gy39bd95!19sChIJue4d4cN1_UYRjndGQDAqTgw?authuser=0&hl=en&rclk=1
54.3323495,18.5502341,ksiegowa,OMEGA Twoje Biuro Rachunkowe Online,https://www.google.com/maps/place/OMEGA+Twoje+Biuro+Rachunkowe+Online/data=!4m7!3m6!1s0x46fd75fcb08929ef:0x7b72d9a684774103!8m2!3d54.3323495!4d18.5502341!16s%2Fg%2F11pv41gzhn!19sChIJ7ymJsPx1_UYRA0F3hKbZcns?authuser=0&hl=en&rclk=1
54.3085887,18.5675726,ksiegowa,ATENA BIURO RACHUNKOWE ANNA KOWALSKA,https://www.google.com/maps/place/ATENA+BIURO+RACHUNKOWE+ANNA+KOWALSKA/data=!4m7!3m6!1s0x46fd76ba5da6fa2f:0x44aecfc44c0d846d!8m2!3d54.3085887!4d18.5675726!16s%2Fg%2F1tnl02rb!19sChIJL_qmXbp2_UYRbYQNTMTPrkQ?authuser=0&hl=en&rclk=1
54.3216545,18.5579611,ksiegowa,Biuro Rachunkowe Enter,https://www.google.com/maps/place/Biuro+Rachunkowe+Enter/data=!4m7!3m6!1s0x46fd74207c255555:0x93050e884b068e2!8m2!3d54.3216545!4d18.5579611!16s%2Fg%2F11h0vpwrxf!19sChIJVVUlfCB0_UYR4miwhOhQMAk?authuser=0&hl=en&rclk=1
54.3332234,18.5669976,ksiegowa,Tributum Mobilne Biuro Rachunkowe,https://www.google.com/maps/place/Tributum+Mobilne+Biuro+Rachunkowe/data=!4m7!3m6!1s0x46fd75b2ed9dd531:0x7a864889a8e02364!8m2!3d54.3332234!4d18.5669976!16s%2Fg%2F11rwqtqyk5!19sChIJMdWd7bJ1_UYRZCPgqIlIhno?authuser=0&hl=en&rclk=1
54.3313113,18.5574198,ksiegowa,Biuro Rachunkowe SOFIN,https://www.google.com/maps/place/Biuro+Rachunkowe+SOFIN/data=!4m7!3m6!1s0x46fd75a9038368a9:0x7bcfbca017fab362!8m2!3d54.3313113!4d18.5574198!16s%2Fg%2F11pq6tj5m0!19sChIJqWiDA6l1_UYRYrP6F6C8z3s?authuser=0&hl=en&rclk=1
54.327751,18.579971,ksiegowa,Biuro Rachunkowe AB Abakus,https://www.google.com/maps/place/Biuro+Rachunkowe+AB+Abakus/data=!4m7!3m6!1s0x46fd757e38c3f1af:0x9c87d946bf628046!8m2!3d54.327751!4d18.579971!16s%2Fg%2F11j0cv3h0l!19sChIJr_HDOH51_UYRRoBiv0bZh5w?authuser=0&hl=en&rclk=1
54.339294,18.564571,ksiegowa,Va Bis. Biuro rachunkowe,https://www.google.com/maps/place/Va+Bis.+Biuro+rachunkowe/data=!4m7!3m6!1s0x46fd7439303b853b:0x2bf4ee1c1a67c1e1!8m2!3d54.339294!4d18.564571!16s%2Fg%2F1tk9pg89!19sChIJO4U7MDl0_UYR4cFnGhzu9Cs?authuser=0&hl=en&rclk=1
54.3373062,18.6024384,ksiegowa,Biuro Usług Księgowych Izabela Staniszewska (OSCBR),https://www.google.com/maps/place/Biuro+Us%C5%82ug+Ksi%C4%99gowych+Izabela+Staniszewska+(OSCBR)/data=!4m7!3m6!1s0x46fd75bb7c334657:0x73043d81b8fb4fb0!8m2!3d54.3373062!4d18.6024384!16s%2Fg%2F11mhfsfd_c!19sChIJV0YzfLt1_UYRsE_7uIE9BHM?authuser=0&hl=en&rclk=1
54.3402028,18.6015915,ksiegowa,"BIURO RACHUNKOWE ""MARDO"" S.C.",https://www.google.com/maps/place/BIURO+RACHUNKOWE+%22MARDO%22+S.C./data=!4m7!3m6!1s0x46fd74738658310d:0x6635cefa24e24c6a!8m2!3d54.3402028!4d18.6015915!16s%2Fg%2F1tngnzmt!19sChIJDTFYhnN0_UYRakziJPrONWY?authuser=0&hl=en&rclk=1
54.3304651,18.6019246,ksiegowa,Biuro Rachunkowe Danuta Januszko,https://www.google.com/maps/place/Biuro+Rachunkowe+Danuta+Januszko/data=!4m7!3m6!1s0x46fd73f627659a41:0xa45aa67aad5e4af2!8m2!3d54.3304651!4d18.6019246!16s%2Fg%2F11bw7gp622!19sChIJQZplJ_Zz_UYR8kperXqmWqQ?authuser=0&hl=en&rclk=1
54.3404041,18.6059145,ksiegowa,Twój Księgowy. Zimny M.,https://www.google.com/maps/place/Tw%C3%B3j+Ksi%C4%99gowy.+Zimny+M./data=!4m7!3m6!1s0x46fd747449efcb1d:0xdbb814f11ad58e20!8m2!3d54.3404041!4d18.6059145!16s%2Fg%2F1tlnc3jr!19sChIJHcvvSXR0_UYRII7VGvEUuNs?authuser=0&hl=en&rclk=1
54.3303138,18.5941326,ksiegowa,Biuro Rachunkowe Michał Zieleniewski,https://www.google.com/maps/place/Biuro+Rachunkowe+Micha%C5%82+Zieleniewski/data=!4m7!3m6!1s0x46fd757d1e80d493:0x298f90f3275fea29!8m2!3d54.3303138!4d18.5941326!16s%2Fg%2F11p6hfnpfp!19sChIJk9SAHn11_UYRKepfJ_OQjyk?authuser=0&hl=en&rclk=1
54.3392376,18.6248792,ksiegowa,Livra. Usługi księgowe,https://www.google.com/maps/place/Livra.+Us%C5%82ugi+ksi%C4%99gowe/data=!4m7!3m6!1s0x46fd738e67a73d57:0x453ee2431fef0207!8m2!3d54.3392376!4d18.6248792!16s%2Fg%2F1tfbrl13!19sChIJVz2nZ45z_UYRBwLvH0PiPkU?authuser=0&hl=en&rclk=1
54.3385718,18.6219116,ksiegowa,Biuro Rachunkowe KD,https://www.google.com/maps/place/Biuro+Rachunkowe+KD/data=!4m7!3m6!1s0x46fd738c3bd145a3:0xa39f00e97ed0975a!8m2!3d54.3385718!4d18.6219116!16s%2Fg%2F1hjhchyl1!19sChIJo0XRO4xz_UYRWpfQfukAn6M?authuser=0&hl=en&rclk=1
54.3408709,18.6522229,ksiegowa,Kancelaria prawno-księgowa ABiuris,https://www.google.com/maps/place/Kancelaria+prawno-ksi%C4%99gowa+ABiuris/data=!4m7!3m6!1s0x46fd73a32f7860d1:0x36798cf0a2b2fae!8m2!3d54.3408709!4d18.6522229!16s%2Fg%2F11hd21p9sl!19sChIJ0WB4L6Nz_UYRri8rCs-YZwM?authuser=0&hl=en&rclk=1
54.3425359,18.6650502,ksiegowa,Tax Agencja Usług Finansowych,https://www.google.com/maps/place/Tax+Agencja+Us%C5%82ug+Finansowych/data=!4m7!3m6!1s0x46fd73a5f2fce8df:0xdf92fedab906cb38!8m2!3d54.3425359!4d18.6650502!16s%2Fg%2F1thd5cly!19sChIJ3-j88qVz_UYROMsGudr-kt8?authuser=0&hl=en&rclk=1
54.3216454,18.6015359,ksiegowa,Biuro Rachunkowe Gdańsk Karolina Mazur,https://www.google.com/maps/place/Biuro+Rachunkowe+Gda%C5%84sk+Karolina+Mazur/data=!4m7!3m6!1s0x46fd73c8b12869cb:0x629ca0acf7871a08!8m2!3d54.3216454!4d18.6015359!16s%2Fg%2F11f9y91jph!19sChIJy2koschz_UYRCBqH96ygnGI?authuser=0&hl=en&rclk=1
54.3117442,18.567916,ksiegowa,Abaco Biuro Rachunkowe Sp. z o.o.,https://www.google.com/maps/place/Abaco+Biuro+Rachunkowe+Sp.+z+o.o./data=!4m7!3m6!1s0x46fd76a4560f04e7:0x254820e9e25bef9d!8m2!3d54.3117442!4d18.567916!16s%2Fg%2F11bw4ycyqt!19sChIJ5wQPVqR2_UYRne9b4ukgSCU?authuser=0&hl=en&rclk=1
54.3263716,18.5912746,ksiegowa,Infakt Sp. z o.o. - Partner inFakt,https://www.google.com/maps/place/Infakt+Sp.+z+o.o.+-+Partner+inFakt/data=!4m7!3m6!1s0x46fd75cacb3ef7ff:0x21d189b1a21179e9!8m2!3d54.3263716!4d18.5912746!16s%2Fg%2F11f612w_r4!19sChIJ__c-y8p1_UYR6XkRorGJ0SE?authuser=0&hl=en&rclk=1
54.3205191,18.5949324,ksiegowa,Biuro rachunkowe Virtus,https://www.google.com/maps/place/Biuro+rachunkowe+Virtus/data=!4m7!3m6!1s0x46fd730214005e21:0xbb8a6e7eeb749d7e!8m2!3d54.3205191!4d18.5949324!16s%2Fg%2F11r_chcp54!19sChIJIV4AFAJz_UYRfp10635uirs?authuser=0&hl=en&rclk=1
54.320073,18.6103407,ksiegowa,Accounting Office Gdańsk Małgorzata Klimek,https://www.google.com/maps/place/Accounting+Office+Gda%C5%84sk+Ma%C5%82gorzata+Klimek/data=!4m7!3m6!1s0x46fd73e55221c817:0xb00901519bb33444!8m2!3d54.320073!4d18.6103407!16s%2Fg%2F12lw060d9!19sChIJF8ghUuVz_UYRRDSzm1EBCbA?authuser=0&hl=en&rclk=1
54.3200387,18.5949188,ksiegowa,Kancelaria Toboła i Partnerzy Sp. z o.o.,https://www.google.com/maps/place/Kancelaria+Tobo%C5%82a+i+Partnerzy+Sp.+z+o.o./data=!4m7!3m6!1s0x46fd7408a133e2f1:0x3c8a45a77be6e097!8m2!3d54.3200387!4d18.5949188!16s%2Fg%2F12vr_r5fc!19sChIJ8eIzoQh0_UYRl-Dme6dFijw?authuser=0&hl=en&rclk=1
54.3174989,18.5842639,ksiegowa,Biuro Rachunkowe TAX Elwira Żołnowska,https://www.google.com/maps/place/Biuro+Rachunkowe+TAX+Elwira+%C5%BBo%C5%82nowska/data=!4m7!3m6!1s0x46fd7402635586c5:0x6b1c2531b59eb5e!8m2!3d54.3174989!4d18.5842639!16s%2Fg%2F11gf9gfr0s!19sChIJxYZVYwJ0_UYRXutZG1PCsQY?authuser=0&hl=en&rclk=1
54.329075,18.627043,ksiegowa,Biuro Rachunkowe Diament Danuta Glińska,https://www.google.com/maps/place/Biuro+Rachunkowe+Diament+Danuta+Gli%C5%84ska/data=!4m7!3m6!1s0x46fd73ec45e05049:0x50e81b5a673c3a!8m2!3d54.329075!4d18.627043!16s%2Fg%2F1tk9pg88!19sChIJSVDgRexz_UYROjxnWhvoUAA?authuser=0&hl=en&rclk=1
54.3268448,18.6227181,ksiegowa,Biuro Rachunkowe KANIA,https://www.google.com/maps/place/Biuro+Rachunkowe+KANIA/data=!4m7!3m6!1s0x46fd7386d603b9e1:0x23bd84a7a633205a!8m2!3d54.3268448!4d18.6227181!16s%2Fg%2F11j4vxsd5n!19sChIJ4bkD1oZz_UYRWiAzpqeEvSM?authuser=0&hl=en&rclk=1
54.3138595,18.630878,ksiegowa,"Biuro Rachunkowe ""od A do Z""",https://www.google.com/maps/place/Biuro+Rachunkowe+%22od+A+do+Z%22/data=!4m7!3m6!1s0x46fd739a5ee260ad:0x3aac3020af2ae854!8m2!3d54.3138595!4d18.630878!16s%2Fg%2F11rhjddfsq!19sChIJrWDiXppz_UYRVOgqryAwrDo?authuser=0&hl=en&rclk=1
54.3231079,18.6178325,ksiegowa,Tributum - usługi księgowe Teresa Warska,https://www.google.com/maps/place/Tributum+-+us%C5%82ugi+ksi%C4%99gowe+Teresa+Warska/data=!4m7!3m6!1s0x46fd730d1df44ad3:0xc96cc093da2f4258!8m2!3d54.3231079!4d18.6178325!16s%2Fg%2F11jr6tv00y!19sChIJ00r0HQ1z_UYRWEIv2pPAbMk?authuser=0&hl=en&rclk=1
54.325691,18.629302,ksiegowa,Biuro Rachunkowe Kamila Narbut,https://www.google.com/maps/place/Biuro+Rachunkowe+Kamila+Narbut/data=!4m7!3m6!1s0x46fd73e941b89331:0x920173b17678bb02!8m2!3d54.325691!4d18.629302!16s%2Fg%2F11ggqhk9nx!19sChIJMZO4Qelz_UYRArt4drFzAZI?authuser=0&hl=en&rclk=1
54.2756998,18.5840124,ksiegowa,Twoja Księgowa,https://www.google.com/maps/place/Twoja+Ksi%C4%99gowa/data=!4m7!3m6!1s0x46fd71263d18611b:0xe36412a9cb3bfad9!8m2!3d54.2756998!4d18.5840124!16s%2Fg%2F11fylw4dt3!19sChIJG2EYPSZx_UYR2fo7y6kSZOM?authuser=0&hl=en&rclk=1
54.1636904,18.1734727,ksiegowa,Usługi Księgowe Agnieszka Cholewa-Gosz,https://www.google.com/maps/place/Us%C5%82ugi+Ksi%C4%99gowe+Agnieszka+Cholewa-Gosz/data=!4m7!3m6!1s0x46fd76b33f6cc599:0x88f5c8005576c2e3!8m2!3d54.1636904!4d18.1734727!16s%2Fg%2F11f3j07lx3!19sChIJmcVsP7N2_UYR48J2VQDI9Yg?authuser=0&hl=en&rclk=1
54.313222,18.6042411,ksiegowa,Usługi Księgowe Małgorzata Szatkowska,https://www.google.com/maps/place/Us%C5%82ugi+Ksi%C4%99gowe+Ma%C5%82gorzata+Szatkowska/data=!4m7!3m6!1s0x46fd71c4d4d5edd1:0x5b6962f64fd71d2!8m2!3d54.313222!4d18.6042411!16s%2Fg%2F11fm6t2bc0!19sChIJ0e3V1MRx_UYR0nH9ZC-WtgU?authuser=0&hl=en&rclk=1
54.3073919,18.5996097,ksiegowa,Biuro rachunkowe Srebrne rachunki,https://www.google.com/maps/place/Biuro+rachunkowe+Srebrne+rachunki/data=!4m7!3m6!1s0x46fd71d75952ec71:0x50effede2b548bef!8m2!3d54.3073919!4d18.5996097!16s%2Fg%2F11nmrmdhrm!19sChIJcexSWddx_UYR74tUK97-71A?authuser=0&hl=en&rclk=1
54.3046348,18.613052,ksiegowa,Jezierska Anna. Biuro rachunkowe,https://www.google.com/maps/place/Jezierska+Anna.+Biuro+rachunkowe/data=!4m7!3m6!1s0x46fd715cf4da673d:0x679afc8bde67a0f3!8m2!3d54.3046348!4d18.613052!16s%2Fg%2F1pty1hyj9!19sChIJPWfa9Fxx_UYR86Bn3ov8mmc?authuser=0&hl=en&rclk=1
54.302984,18.5878752,ksiegowa,Biuro Rachunkowe PROFIT,https://www.google.com/maps/place/Biuro+Rachunkowe+PROFIT/data=!4m7!3m6!1s0x46fd717a5a088d59:0x72820dad23a53069!8m2!3d54.302984!4d18.5878752!16s%2Fg%2F11qg3_xwr_!19sChIJWY0IWnpx_UYRaTClI60NgnI?authuser=0&hl=en&rclk=1
54.2819286,18.4905969,ksiegowa,Księgowość PERFECT Agnieszka Orłowska-Włoch,https://www.google.com/maps/place/Ksi%C4%99gowo%C5%9B%C4%87+PERFECT+Agnieszka+Or%C5%82owska-W%C5%82och/data=!4m7!3m6!1s0x46fd776d8578f551:0x9bedfba9a7e207f7!8m2!3d54.2819286!4d18.4905969!16s%2Fg%2F11qjk9d0fj!19sChIJUfV4hW13_UYR9wfip6n77Zs?authuser=0&hl=en&rclk=1
54.271947,18.4673184,ksiegowa,BIURO PODATKOWE A&Z ANNA ZABŁOCKA,https://www.google.com/maps/place/BIURO+PODATKOWE+A%26Z+ANNA+ZAB%C5%81OCKA/data=!4m7!3m6!1s0x46fd77bc41ce2af1:0xa4feb3b8c9178dda!8m2!3d54.271947!4d18.4673184!16s%2Fg%2F11fknmc8y_!19sChIJ8SrOQbx3_UYR2o0Xybiz_qQ?authuser=0&hl=en&rclk=1
54.3038725,18.5691162,ksiegowa,Beata Sowa,https://www.google.com/maps/place/Beata+Sowa/data=!4m7!3m6!1s0x46fd7fa2d12531b1:0xb6e199cd318997e0!8m2!3d54.3038725!4d18.5691162!16s%2Fg%2F11fk4qqj94!19sChIJsTEl0aJ__UYR4JeJMc2Z4bY?authuser=0&hl=en&rclk=1
54.2962858,18.5919016,ksiegowa,Biuro Rachunkowe i Ubezpieczenia Olga Kruczyńska,https://www.google.com/maps/place/Biuro+Rachunkowe+i+Ubezpieczenia+Olga+Kruczy%C5%84ska/data=!4m7!3m6!1s0x46fd71167949c063:0x2979faf0fc61b4a3!8m2!3d54.2962858!4d18.5919016!16s%2Fg%2F11ll6npd2l!19sChIJY8BJeRZx_UYRo7Rh_PD6eSk?authuser=0&hl=en&rclk=1
54.2607197,18.6514087,ksiegowa,Biuro Rachunkowe Kancelaria Księgowa Ogrodowscy,https://www.google.com/maps/place/Biuro+Rachunkowe+Kancelaria+Ksi%C4%99gowa+Ogrodowscy/data=!4m7!3m6!1s0x46fd7053a097cc2b:0x61bb8600b7c03c7!8m2!3d54.2607197!4d18.6514087!16s%2Fg%2F1v76ybbd!19sChIJK8yXoFNw_UYRxwN8C2C4GwY?authuser=0&hl=en&rclk=1
54.2637897,18.6609377,ksiegowa,Biuro Rachunkowe TAX FLOW Agnieszka Krause,https://www.google.com/maps/place/Biuro+Rachunkowe+TAX+FLOW+Agnieszka+Krause/data=!4m7!3m6!1s0x46fd7139275c69e7:0xdbd614c51394169b!8m2!3d54.2637897!4d18.6609377!16s%2Fg%2F11rrqdt1jg!19sChIJ52lcJzlx_UYRmxaUE8UU1ts?authuser=0&hl=en&rclk=1
54.266059,18.6264189,ksiegowa,TWOJE BIURO RACHUNKOWE AGNIESZKA KORDALSKA,https://www.google.com/maps/place/TWOJE+BIURO+RACHUNKOWE+AGNIESZKA+KORDALSKA/data=!4m7!3m6!1s0x46fd70535b839da1:0xa9779f9d86007f97!8m2!3d54.266059!4d18.6264189!16s%2Fg%2F11dxkdcj7w!19sChIJoZ2DW1Nw_UYRl38Ahp2fd6k?authuser=0&hl=en&rclk=1
54.2842409,18.5043985,ksiegowa,SOLIDA Biuro Rachunkowe. Mirosława Urbańska-Baloul,https://www.google.com/maps/place/SOLIDA+Biuro+Rachunkowe.+Miros%C5%82awa+Urba%C5%84ska-Baloul/data=!4m7!3m6!1s0x46fd77002e8c6fa9:0x2486c6c4975eeeb8!8m2!3d54.2842409!4d18.5043985!16s%2Fg%2F1vysv6y_!19sChIJqW-MLgB3_UYRuO5el8TGhiQ?authuser=0&hl=en&rclk=1
54.275849,18.5839839,ksiegowa,Księgowość PLUS - TOMASZ KRÜGER Biuro Rachunkowe,https://www.google.com/maps/place/Ksi%C4%99gowo%C5%9B%C4%87+PLUS+-+TOMASZ+KR%C3%9CGER+Biuro+Rachunkowe/data=!4m7!3m6!1s0x46fd71e038a83ce3:0x3316dc9bd65baa51!8m2!3d54.275849!4d18.5839839!16s%2Fg%2F11j1sm61f7!19sChIJ4zyoOOBx_UYRUapb1pvcFjM?authuser=0&hl=en&rclk=1
54.273619,18.5833849,ksiegowa,ATT Poland Biuro Rachunkowe,https://www.google.com/maps/place/ATT+Poland+Biuro+Rachunkowe/data=!4m7!3m6!1s0x46fd7127c0c20467:0x538b76ad6c7f6051!8m2!3d54.273619!4d18.5833849!16s%2Fg%2F11hcds7nmz!19sChIJZwTCwCdx_UYRUWB_bK12i1M?authuser=0&hl=en&rclk=1
54.2847486,18.5731502,ksiegowa,Biuro Rachunkowe Skytax24,https://www.google.com/maps/place/Biuro+Rachunkowe+Skytax24/data=!4m7!3m6!1s0x46fd71b05b9bf62f:0x88bf854b5979ac4e!8m2!3d54.2847486!4d18.5731502!16s%2Fg%2F11h5h8_wk5!19sChIJL_abW7Bx_UYRTqx5WUuFv4g?authuser=0&hl=en&rclk=1
54.2742509,18.590361,ksiegowa,Biuro rachunkowe Va Bis Dagmara Kubiak,https://www.google.com/maps/place/Biuro+rachunkowe+Va+Bis+Dagmara+Kubiak/data=!4m7!3m6!1s0x46fd711eb568843d:0x7e90ce6c7c34e990!8m2!3d54.2742509!4d18.590361!16s%2Fg%2F11r9tjk8ph!19sChIJPYRotR5x_UYRkOk0fGzOkH4?authuser=0&hl=en&rclk=1
54.2703957,18.6269743,ksiegowa,Twój Partner Biuro Rachunkowe,https://www.google.com/maps/place/Tw%C3%B3j+Partner+Biuro+Rachunkowe/data=!4m7!3m6!1s0x46fd71012dbe78eb:0x573248841b377f34!8m2!3d54.2703957!4d18.6269743!16s%2Fg%2F11ghp3dstp!19sChIJ63i-LQFx_UYRNH83G4RIMlc?authuser=0&hl=en&rclk=1
54.2703641,18.6257913,ksiegowa,Biuro Rachunkowe Bips Centrum Usług dla Biznesu,https://www.google.com/maps/place/Biuro+Rachunkowe+Bips+Centrum+Us%C5%82ug+dla+Biznesu/data=!4m7!3m6!1s0x46fd71b1812ee31b:0x5c0a40172685e534!8m2!3d54.2703641!4d18.6257913!16s%2Fg%2F11jrg2msjm!19sChIJG-MugbFx_UYRNOWFJhdAClw?authuser=0&hl=en&rclk=1
54.2570623,18.6601737,ksiegowa,Biuro Rachunkowe FORUM,https://www.google.com/maps/place/Biuro+Rachunkowe+FORUM/data=!4m7!3m6!1s0x46fd71d2ff3a4825:0x2ac9277062dc6b4b!8m2!3d54.2570623!4d18.6601737!16s%2Fg%2F1tqcjxm8!19sChIJJUg6_9Jx_UYRS2vcYnAnySo?authuser=0&hl=en&rclk=1
54.2509692,18.6411504,ksiegowa,Fiskus SC. Biuro rachunkowe. Woronowicz T.J.,https://www.google.com/maps/place/Fiskus+SC.+Biuro+rachunkowe.+Woronowicz+T.J./data=!4m7!3m6!1s0x46fd70456926603d:0xe3b9086e4dfaaf68!8m2!3d54.2509692!4d18.6411504!16s%2Fg%2F1tdkkxvd!19sChIJPWAmaUVw_UYRaK_6TW4IueM?authuser=0&hl=en&rclk=1
54.2509979,18.6326438,ksiegowa,BIURO RACHUNKOWE PRUSZCZ GDAŃSKI - JT OFFICE,https://www.google.com/maps/place/BIURO+RACHUNKOWE+PRUSZCZ+GDA%C5%83SKI+-+JT+OFFICE/data=!4m7!3m6!1s0x46fd70ff5b182747:0xac032c74fb55641a!8m2!3d54.2509979!4d18.6326438!16s%2Fg%2F1tdp3r6v!19sChIJRycYW_9w_UYRGmRV-3QsA6w?authuser=0&hl=en&rclk=1
54.250934,18.633557,ksiegowa,Biuro Rachunkowe Mitra,https://www.google.com/maps/place/Biuro+Rachunkowe+Mitra/data=!4m7!3m6!1s0x46fd7053ebe8d7ed:0x4e3d6c32209e0dcc!8m2!3d54.250934!4d18.633557!16s%2Fg%2F1tdw24yk!19sChIJ7dfo61Nw_UYRzA2eIDJsPU4?authuser=0&hl=en&rclk=1
54.274892,18.472996,ksiegowa,Kowalczyk Urszula. Biuro rachunkowe,https://www.google.com/maps/place/Kowalczyk+Urszula.+Biuro+rachunkowe/data=!4m7!3m6!1s0x46fd77bb16316d4d:0x2c3aa24625cb4619!8m2!3d54.274892!4d18.472996!16s%2Fg%2F1ptx4d719!19sChIJTW0xFrt3_UYRGUbLJUaiOiw?authuser=0&hl=en&rclk=1
54.2691603,18.4588309,ksiegowa,Certyfikowane Biuro Rachunkowe Żaneta Kielan-Moskwa,https://www.google.com/maps/place/Certyfikowane+Biuro+Rachunkowe+%C5%BBaneta+Kielan-Moskwa/data=!4m7!3m6!1s0x46fd77be2a16accd:0xf6ec7a5cbecab44d!8m2!3d54.2691603!4d18.4588309!16s%2Fg%2F11hbv8qs7c!19sChIJzawWKr53_UYRTbTKvlx67PY?authuser=0&hl=en&rclk=1
54.267499,18.569708,ksiegowa,AJS Biuro Rachunkowe,https://www.google.com/maps/place/AJS+Biuro+Rachunkowe/data=!4m7!3m6!1s0x46fd70d1443cdecf:0x39a9d7cd55f739a9!8m2!3d54.267499!4d18.569708!16s%2Fg%2F11byttvj1w!19sChIJz948RNFw_UYRqTn3Vc3XqTk?authuser=0&hl=en&rclk=1
54.2715978,18.5918625,ksiegowa,Biuro usług księgowych Msd s.c.,https://www.google.com/maps/place/Biuro+us%C5%82ug+ksi%C4%99gowych+Msd+s.c./data=!4m7!3m6!1s0x46fd71287c7b7c05:0x368c5dd8b2a74aa9!8m2!3d54.2715978!4d18.5918625!16s%2Fg%2F1tfvfxn2!19sChIJBXx7fChx_UYRqUqnsthdjDY?authuser=0&hl=en&rclk=1
54.2525317,18.6344889,ksiegowa,Abak s.c. Linsztet M.A.,https://www.google.com/maps/place/Abak+s.c.+Linsztet+M.A./data=!4m7!3m6!1s0x46fd705031ca686f:0xb8dc7d6294e53e2e!8m2!3d54.2525317!4d18.6344889!16s%2Fg%2F1tmbttf9!19sChIJb2jKMVBw_UYRLj7llGJ93Lg?authuser=0&hl=en&rclk=1
54.2717522,18.5897434,ksiegowa,"PPU ""FERRUM"" Sp. Z o.o.",https://www.google.com/maps/place/PPU+%22FERRUM%22+Sp.+Z+o.o./data=!4m7!3m6!1s0x46fd71287c8a2c85:0x72783f4c8272da06!8m2!3d54.2717522!4d18.5897434!16s%2Fg%2F1tpln_tf!19sChIJhSyKfChx_UYRBtpygkw_eHI?authuser=0&hl=en&rclk=1
54.2708196,18.612348,ksiegowa,Figura Ludwika. Biuro rachunkowe. Pełna księgowość,https://www.google.com/maps/place/Figura+Ludwika.+Biuro+rachunkowe.+Pe%C5%82na+ksi%C4%99gowo%C5%9B%C4%87/data=!4m7!3m6!1s0x46fd711c6ca2c3b5:0xb014ce3a3200c095!8m2!3d54.2708196!4d18.612348!16s%2Fg%2F1tqtwl1c!19sChIJtcOibBxx_UYRlcAAMjrOFLA?authuser=0&hl=en&rclk=1
54.2667263,18.6086002,ksiegowa,Biuro Rachunkowe Sylwia Formela,https://www.google.com/maps/place/Biuro+Rachunkowe+Sylwia+Formela/data=!4m7!3m6!1s0x46fd7174283f8a25:0xf4a689b7324acf3d!8m2!3d54.2667263!4d18.6086002!16s%2Fg%2F11h95292jv!19sChIJJYo_KHRx_UYRPc9KMreJpvQ?authuser=0&hl=en&rclk=1
54.275849,18.5839839,ksiegowa,Basileus Księgowość,https://www.google.com/maps/place/Basileus+Ksi%C4%99gowo%C5%9B%C4%87/data=!4m7!3m6!1s0x46fd71126697fb03:0x2fc1e7b535c7b96b!8m2!3d54.275849!4d18.5839839!16s%2Fg%2F11fd4tfmsy!19sChIJA_uXZhJx_UYRa7nHNbXnwS8?authuser=0&hl=en&rclk=1
54.2700439,18.642071,ksiegowa,Argo Agnieszka Ciesielska,https://www.google.com/maps/place/Argo+Agnieszka+Ciesielska/data=!4m7!3m6!1s0x46fd71aecf5a94cf:0x26c011cb887312e6!8m2!3d54.2700439!4d18.642071!16s%2Fg%2F11f086vbry!19sChIJz5Raz65x_UYR5hJziMsRwCY?authuser=0&hl=en&rclk=1
54.2677006,18.6315186,ksiegowa,Biuro Rachunkowe Sylwia Formela,https://www.google.com/maps/place/Biuro+Rachunkowe+Sylwia+Formela/data=!4m7!3m6!1s0x46fd7187c22ccd95:0xe5c91de501224902!8m2!3d54.2677006!4d18.6315186!16s%2Fg%2F11hkgdmfvv!19sChIJlc0swodx_UYRAkkiAeUdyeU?authuser=0&hl=en&rclk=1
54.2599603,18.6359621,ksiegowa,"Biuro Rachunkowe ""Renoma"" S.C. Renata Rozkwitalska, Marzena Ogórek","https://www.google.com/maps/place/Biuro+Rachunkowe+%22Renoma%22+S.C.+Renata+Rozkwitalska,+Marzena+Og%C3%B3rek/data=!4m7!3m6!1s0x46fd7053987187eb:0x5b2a880db86a8921!8m2!3d54.2599603!4d18.6359621!16s%2Fg%2F11b7hff0vt!19sChIJ64dxmFNw_UYRIYlquA2IKls?authuser=0&hl=en&rclk=1"
54.2605975,18.63677,ksiegowa,TiKK. Biuro Rachunkowe. Tukalski Bogusław,https://www.google.com/maps/place/TiKK.+Biuro+Rachunkowe.+Tukalski+Bogus%C5%82aw/data=!4m7!3m6!1s0x46fd7053a097cc27:0xc78128ffc44830ec!8m2!3d54.2605975!4d18.63677!16s%2Fg%2F1tj7v215!19sChIJJ8yXoFNw_UYR7DBIxP8ogcc?authuser=0&hl=en&rclk=1
54.2616547,18.6308878,ksiegowa,Biuro Rachunkowe Partner,https://www.google.com/maps/place/Biuro+Rachunkowe+Partner/data=!4m7!3m6!1s0x46fd7054ffb9a30f:0xd98539f57178a050!8m2!3d54.2616547!4d18.6308878!16s%2Fg%2F11fp1t88hs!19sChIJD6O5_1Rw_UYRUKB4cfU5hdk?authuser=0&hl=en&rclk=1
54.2702208,18.6419528,ksiegowa,Urban S. Biuro rachunkowe,https://www.google.com/maps/place/Urban+S.+Biuro+rachunkowe/data=!4m7!3m6!1s0x46fd71aeb5f7f6ab:0x23f3b3ed31a4c7a7!8m2!3d54.2702208!4d18.6419528!16s%2Fg%2F1vpfh79y!19sChIJq_b3ta5x_UYRp8ekMe2z8yM?authuser=0&hl=en&rclk=1
54.2597867,18.6641432,ksiegowa,Renoma. Biuro rachunkowe,https://www.google.com/maps/place/Renoma.+Biuro+rachunkowe/data=!4m7!3m6!1s0x46fd71cada72acfb:0x3845e2f810afb1e0!8m2!3d54.2597867!4d18.6641432!16s%2Fg%2F1tdx7ddz!19sChIJ-6xy2spx_UYR4LGvEPjiRTg?authuser=0&hl=en&rclk=1
54.26733,18.6624489,ksiegowa,Biuro Rachunkowe Bgl,https://www.google.com/maps/place/Biuro+Rachunkowe+Bgl/data=!4m7!3m6!1s0x46fd71b64e272abb:0x3a8fb5d7e6e27f!8m2!3d54.26733!4d18.6624489!16s%2Fg%2F11hzwbzvrj!19sChIJuyonTrZx_UYRf-Lm17WPOgA?authuser=0&hl=en&rclk=1
54.2669077,18.6729457,ksiegowa,Biuro Rachunkowe Ilona Azarewicz,https://www.google.com/maps/place/Biuro+Rachunkowe+Ilona+Azarewicz/data=!4m7!3m6!1s0x46fd71f0179597ff:0xee5cbee2793f5318!8m2!3d54.2669077!4d18.6729457!16s%2Fg%2F11f716mvr8!19sChIJ_5eVF_Bx_UYRGFM_eeK-XO4?authuser=0&hl=en&rclk=1
54.2598846,18.6500418,ksiegowa,"Biuro Rachunkowe ""K&W"" Katarzyna Spyra",https://www.google.com/maps/place/Biuro+Rachunkowe+%22K%26W%22+Katarzyna+Spyra/data=!4m7!3m6!1s0x46fd719b33f30f9d:0x4fd926c8e2f26659!8m2!3d54.2598846!4d18.6500418!16s%2Fg%2F11f66qlgyv!19sChIJnQ_zM5tx_UYRWWby4sgm2U8?authuser=0&hl=en&rclk=1
54.264448,18.6709041,ksiegowa,KPM FINANCE Biuro rachunkowe,https://www.google.com/maps/place/KPM+FINANCE+Biuro+rachunkowe/data=!4m7!3m6!1s0x46fd7181fe2dac4d:0x23c11a7bae0ebbd0!8m2!3d54.264448!4d18.6709041!16s%2Fg%2F11fq_l1fz4!19sChIJTawt_oFx_UYR0LsOrnsawSM?authuser=0&hl=en&rclk=1
54.2634778,18.6569882,ksiegowa,"Biuro rachunkowe ""JECHNA""",https://www.google.com/maps/place/Biuro+rachunkowe+%22JECHNA%22/data=!4m7!3m6!1s0x46fd71b4416f5071:0xad85f3b1a69d37e5!8m2!3d54.2634778!4d18.6569882!16s%2Fg%2F1v42dh36!19sChIJcVBvQbRx_UYR5TedprHzha0?authuser=0&hl=en&rclk=1
54.2137505,19.11476,ksiegowa,"Usługi Księgowe ""Pasatax""",https://www.google.com/maps/place/Us%C5%82ugi+Ksi%C4%99gowe+%22Pasatax%22/data=!4m7!3m6!1s0x46fd44151efadfc5:0xa727b1209c6c1a48!8m2!3d54.2137505!4d19.11476!16s%2Fg%2F11h53w5sdk!19sChIJxd_6HhVE_UYRSBpsnCCxJ6c?authuser=0&hl=en&rclk=1
