lat,lon,type,title,link
54.4431489,18.4208008,monopolowy,Sklep spożywczo - monopolowy GS Samopomoc Chłopska,https://www.google.com/maps/place/Sklep+spo%C5%BCywczo+-+monopolowy+GS+Samopomoc+Ch%C5%82opska/data=!4m7!3m6!1s0x46fda1e4e0f9c3c5:0xdd20c2109ed8fffe!8m2!3d54.4431489!4d18.4208008!16s%2Fg%2F1tgw8lvf!19sChIJxcP54OSh_UYR_v_YnhDCIN0?authuser=0&hl=en&rclk=1
54.4423049,18.4184605,monopolowy,Alkohole Świata,https://www.google.com/maps/place/Alkohole+%C5%9Awiata/data=!4m7!3m6!1s0x46fda1e4dfbf2777:0xc9bb641c5c5cfa1b!8m2!3d54.4423049!4d18.4184605!16s%2Fg%2F11c32gtwmj!19sChIJdye_3-Sh_UYRG_pcXBxku8k?authuser=0&hl=en&rclk=1
54.442363,18.4179555,monopolowy,Napoleon Alkohole,https://www.google.com/maps/place/Napoleon+Alkohole/data=!4m7!3m6!1s0x46fda1e4dfb273fd:0xe6128f8c63553a95!8m2!3d54.442363!4d18.4179555!16s%2Fg%2F11hcmlxq_l!19sChIJ_XOy3-Sh_UYRlTpVY4yPEuY?authuser=0&hl=en&rclk=1
54.4683043,18.4634764,monopolowy,"Liquor Store ""Thirsty Camel""",https://www.google.com/maps/place/Liquor+Store+%22Thirsty+Camel%22/data=!4m7!3m6!1s0x46fda1a6e981c489:0xfe9ecbf2d83d8753!8m2!3d54.4683043!4d18.4634764!16s%2Fg%2F1wz51dnc!19sChIJicSB6aah_UYRU4c92PLLnv4?authuser=0&hl=en&rclk=1
54.430858,18.474167,monopolowy,Sklep Monopolowy,https://www.google.com/maps/place/Sklep+Monopolowy/data=!4m7!3m6!1s0x46fda13cd341761f:0x2c4b2da921b0b65f!8m2!3d54.430858!4d18.474167!16s%2Fg%2F11h3sj_0sx!19sChIJH3ZB0zyh_UYRX7awIaktSyw?authuser=0&hl=en&rclk=1
54.4721358,18.4893438,monopolowy,"0,7 Store","https://www.google.com/maps/place/0,7+Store/data=!4m7!3m6!1s0x46fda1a6109bd4c9:0x5938a0774c647d4f!8m2!3d54.4721358!4d18.4893438!16s%2Fg%2F11pctnws17!19sChIJydSbEKah_UYRT31kTHegOFk?authuser=0&hl=en&rclk=1"
54.4927347,18.4353198,monopolowy,WORLD OF SPIRITS Sklep alkoholowy,https://www.google.com/maps/place/WORLD+OF+SPIRITS+Sklep+alkoholowy/data=!4m7!3m6!1s0x46fda16217a6efdf:0x6a62c5b00dd9dc3a!8m2!3d54.4927347!4d18.4353198!16s%2Fg%2F11gdmft825!19sChIJ3--mF2Kh_UYROtzZDbDFYmo?authuser=0&hl=en&rclk=1
54.3935263,18.4007094,monopolowy,Al.Capone,https://www.google.com/maps/place/Al.Capone/data=!4m7!3m6!1s0x46fd9f59897b7cf5:0x87dd01f16ec8539d!8m2!3d54.3935263!4d18.4007094!16s%2Fg%2F11mv574jrv!19sChIJ9Xx7iVmf_UYRnVPIbvEB3Yc?authuser=0&hl=en&rclk=1
54.4508587,18.4569672,monopolowy,Żabka,https://www.google.com/maps/place/%C5%BBabka/data=!4m7!3m6!1s0x46fda1f39f382935:0x4f899c908f4ac4f8!8m2!3d54.4508587!4d18.4569672!16s%2Fg%2F11p5rfj0v3!19sChIJNSk4n_Oh_UYR-MRKj5CciU8?authuser=0&hl=en&rclk=1
54.4544113,18.5532101,monopolowy,Borys Monopolowy Sopot,https://www.google.com/maps/place/Borys+Monopolowy+Sopot/data=!4m7!3m6!1s0x46fd0a81a6040001:0x2528da71d03a22f3!8m2!3d54.4544113!4d18.5532101!16s%2Fg%2F11fmxzcgjn!19sChIJAQAEpoEK_UYR8yI60HHaKCU?authuser=0&hl=en&rclk=1
54.4705502,18.4965867,monopolowy,Alkohole Winoteka,https://www.google.com/maps/place/Alkohole+Winoteka/data=!4m7!3m6!1s0x46fda0ff1df4687d:0x64bd79cb4116e6f9!8m2!3d54.4705502!4d18.4965867!16s%2Fg%2F1hc5xc5xr!19sChIJfWj0Hf-g_UYR-eYWQct5vWQ?authuser=0&hl=en&rclk=1
54.434349,18.560999,monopolowy,Sklep monopolowy | piwo kraftowe | BIMBEER Sopot,https://www.google.com/maps/place/Sklep+monopolowy+%7C+piwo+kraftowe+%7C+BIMBEER+Sopot/data=!4m7!3m6!1s0x46fd0ba7dafa984b:0xafe7240a51e2c271!8m2!3d54.434349!4d18.560999!16s%2Fg%2F11f6cyjgcz!19sChIJS5j62qcL_UYRccLiUQok568?authuser=0&hl=en&rclk=1
54.4451724,18.5653616,monopolowy,Sklep Alcatraz,https://www.google.com/maps/place/Sklep+Alcatraz/data=!4m7!3m6!1s0x46fd0a8e2c5fcf2b:0x5d7ea3633c62309!8m2!3d54.4451724!4d18.5653616!16s%2Fg%2F11bw5j8t65!19sChIJK89fLI4K_UYRCSPGMzbq1wU?authuser=0&hl=en&rclk=1
54.44235,18.570795,monopolowy,Kamme,https://www.google.com/maps/place/Kamme/data=!4m7!3m6!1s0x46fd0a9242b68a59:0xacf213d7595184eb!8m2!3d54.44235!4d18.570795!16s%2Fg%2F11h0vqf_7y!19sChIJWYq2QpIK_UYR64RRWdcT8qw?authuser=0&hl=en&rclk=1
54.4388202,18.5737895,monopolowy,Delikatesy Monopolowe Total,https://www.google.com/maps/place/Delikatesy+Monopolowe+Total/data=!4m7!3m6!1s0x46fd0a934b43adf5:0x5108d0bf655ff392!8m2!3d54.4388202!4d18.5737895!16s%2Fg%2F11c191hpt_!19sChIJ9a1DS5MK_UYRkvNfZb_QCFE?authuser=0&hl=en&rclk=1
54.4454546,18.5659928,monopolowy,Festus. Sklep winiarski,https://www.google.com/maps/place/Festus.+Sklep+winiarski/data=!4m7!3m6!1s0x46fd0a8e3175f2b1:0x9ef04c5bccb3fbb5!8m2!3d54.4454546!4d18.5659928!16s%2Fg%2F11gzjm8dr!19sChIJsfJ1MY4K_UYRtfuzzFtM8J4?authuser=0&hl=en&rclk=1
54.4300914,18.4764504,monopolowy,Sklep spożywczo monopolowy u Wioli i Joli,https://www.google.com/maps/place/Sklep+spo%C5%BCywczo+monopolowy+u+Wioli+i+Joli/data=!4m7!3m6!1s0x46fda1f24b727975:0x38a3a356094ddc4d!8m2!3d54.4300914!4d18.4764504!16s%2Fg%2F11n0f5cbpt!19sChIJdXlyS_Kh_UYRTdxNCVajozg?authuser=0&hl=en&rclk=1
54.4317332,18.4704782,monopolowy,Biedronka,https://www.google.com/maps/place/Biedronka/data=!4m7!3m6!1s0x46fda1b4a09278e5:0xaf0cfd41b10ea184!8m2!3d54.4317332!4d18.4704782!16s%2Fg%2F11qpvqcwz_!19sChIJ5XiSoLSh_UYRhKEOsUH9DK8?authuser=0&hl=en&rclk=1
54.4300055,18.4694158,monopolowy,Żabka,https://www.google.com/maps/place/%C5%BBabka/data=!4m7!3m6!1s0x46fda1b7e9a0474d:0xa635d400025c06ad!8m2!3d54.4300055!4d18.4694158!16s%2Fg%2F11grpt4sdq!19sChIJTUeg6beh_UYRrQZcAgDUNaY?authuser=0&hl=en&rclk=1
54.423039,18.478407,monopolowy,Al.Capone,https://www.google.com/maps/place/Al.Capone/data=!4m7!3m6!1s0x46fd9fa818a9d15b:0x7b37589173d3cc6a!8m2!3d54.423039!4d18.478407!16s%2Fg%2F11s_xqvt5s!19sChIJW9GpGKif_UYRaszTc5FYN3s?authuser=0&hl=en&rclk=1
54.418309,18.5646439,monopolowy,Borys monopolowy,https://www.google.com/maps/place/Borys+monopolowy/data=!4m7!3m6!1s0x46fd0b4d232e4c85:0x3caa262d9121d712!8m2!3d54.418309!4d18.5646439!16s%2Fg%2F11jv78phwz!19sChIJhUwuI00L_UYREtchkS0mqjw?authuser=0&hl=en&rclk=1
54.4180416,18.5659024,monopolowy,"MARKET TEQUILA ""LEWIATAN""",https://www.google.com/maps/place/MARKET+TEQUILA+%22LEWIATAN%22/data=!4m7!3m6!1s0x46fd0ac955bb9739:0x96464d78396b47d4!8m2!3d54.4180416!4d18.5659024!16s%2Fg%2F11c2l3zln_!19sChIJOZe7VckK_UYR1EdrOXhNRpY?authuser=0&hl=en&rclk=1
54.4086609,18.5560619,monopolowy,Fiks. Sklep monopolowo - spożywczy,https://www.google.com/maps/place/Fiks.+Sklep+monopolowo+-+spo%C5%BCywczy/data=!4m7!3m6!1s0x46fd7535baa730ad:0x6c4455c1376f9f33!8m2!3d54.4086609!4d18.5560619!16s%2Fg%2F1tjf8z98!19sChIJrTCnujV1_UYRM59vN8FVRGw?authuser=0&hl=en&rclk=1
54.4210238,18.5826993,monopolowy,Sklep Monopolowy Jaś,https://www.google.com/maps/place/Sklep+Monopolowy+Ja%C5%9B/data=!4m7!3m6!1s0x46fd0adaf22ec9c7:0x515fe42ac6763f25!8m2!3d54.4210238!4d18.5826993!16s%2Fg%2F11cssxpvkc!19sChIJx8ku8toK_UYRJT92xirkX1E?authuser=0&hl=en&rclk=1
54.430952,18.562198,monopolowy,Shop All-day Goshia,https://www.google.com/maps/place/Shop+All-day+Goshia/data=!4m7!3m6!1s0x46fd0abef6787671:0xf0b9b8d50f8b2c3b!8m2!3d54.430952!4d18.562198!16s%2Fg%2F1tj29q0m!19sChIJcXZ49r4K_UYROyyLD9W4ufA?authuser=0&hl=en&rclk=1
54.4204399,18.5841982,monopolowy,Galeria Alkoholi 24/7,https://www.google.com/maps/place/Galeria+Alkoholi+24%2F7/data=!4m7!3m6!1s0x46fd0b1eedf818dd:0xc5a5613cf514ae79!8m2!3d54.4204399!4d18.5841982!16s%2Fg%2F11f5jn7yym!19sChIJ3Rj47R4L_UYRea4U9TxhpcU?authuser=0&hl=en&rclk=1
54.4210163,18.6038091,monopolowy,Alkohole Świata,https://www.google.com/maps/place/Alkohole+%C5%9Awiata/data=!4m7!3m6!1s0x46fd0ba393f0bf8d:0x163633b6cf8320f!8m2!3d54.4210163!4d18.6038091!16s%2Fg%2F11m_r6wv17!19sChIJjb_wk6ML_UYRDzL4bDtjYwE?authuser=0&hl=en&rclk=1
54.4136757,18.5983133,monopolowy,"Sklep Monopolowy Całodobowy ""Kristo""",https://www.google.com/maps/place/Sklep+Monopolowy+Ca%C5%82odobowy+%22Kristo%22/data=!4m7!3m6!1s0x46fd0b291f44afc7:0x202fb190feec63ec!8m2!3d54.4136757!4d18.5983133!16s%2Fg%2F12hm8v0_p!19sChIJx69EHykL_UYR7GPs_pCxLyA?authuser=0&hl=en&rclk=1
54.4119552,18.586943,monopolowy,"Całodobowy Sklep Monopolowy BUBI ""Lechia""",https://www.google.com/maps/place/Ca%C5%82odobowy+Sklep+Monopolowy+BUBI+%22Lechia%22/data=!4m7!3m6!1s0x46fd0ad5cf1b9e51:0x30d4065060e6e30c!8m2!3d54.4119552!4d18.586943!16s%2Fg%2F1hf4m3rsn!19sChIJUZ4bz9UK_UYRDOPmYFAG1DA?authuser=0&hl=en&rclk=1
54.3940266,18.4045939,monopolowy,Piwniczka,https://www.google.com/maps/place/Piwniczka/data=!4m7!3m6!1s0x46fd9ff517885f3d:0x48c7c717f1ba69f4!8m2!3d54.3940266!4d18.4045939!16s%2Fg%2F11fkyx03x1!19sChIJPV-IF_Wf_UYR9Gm68RfHx0g?authuser=0&hl=en&rclk=1
54.418793,18.4578022,monopolowy,Żabka,https://www.google.com/maps/place/%C5%BBabka/data=!4m7!3m6!1s0x46fd9f7c66e09415:0x385100abf4c9d7f9!8m2!3d54.418793!4d18.4578022!16s%2Fg%2F11t6zbdk1n!19sChIJFZTgZnyf_UYR-dfJ9KsAUTg?authuser=0&hl=en&rclk=1
54.4225649,18.4727523,monopolowy,BARCELONA wino / sery / delikatesy,https://www.google.com/maps/place/BARCELONA+wino+%2F+sery+%2F+delikatesy/data=!4m7!3m6!1s0x46fd9ffb5e6ce9cd:0xa0d3d8a99df7d056!8m2!3d54.4225649!4d18.4727523!16s%2Fg%2F11ry58mxmz!19sChIJzelsXvuf_UYRVtD3nanY06A?authuser=0&hl=en&rclk=1
54.4194793,18.469284,monopolowy,Biedronka,https://www.google.com/maps/place/Biedronka/data=!4m7!3m6!1s0x46fd9fe1592660df:0x209f2cd1dd3aef7f!8m2!3d54.4194793!4d18.469284!16s%2Fg%2F11ptptmzxj!19sChIJ32AmWeGf_UYRf-863dEsnyA?authuser=0&hl=en&rclk=1
54.425639,18.473127,monopolowy,Żabka,https://www.google.com/maps/place/%C5%BBabka/data=!4m7!3m6!1s0x46fda1ed2ead1825:0x3a6c70c17c3e13d7!8m2!3d54.425639!4d18.473127!16s%2Fg%2F11gg_t313y!19sChIJJRitLu2h_UYR1xM-fMFwbDo?authuser=0&hl=en&rclk=1
54.422606,18.471776,monopolowy,Żabka,https://www.google.com/maps/place/%C5%BBabka/data=!4m7!3m6!1s0x46fd9f670bebf073:0x92ce624cba0b3e1d!8m2!3d54.422606!4d18.471776!16s%2Fg%2F11nh3vz3vp!19sChIJc_DrC2ef_UYRHT4LukxizpI?authuser=0&hl=en&rclk=1
54.4238631,18.5945746,monopolowy,Sklep Zajezdnia,https://www.google.com/maps/place/Sklep+Zajezdnia/data=!4m7!3m6!1s0x46fd0aded819a967:0xeea6d0c677caaf8e!8m2!3d54.4238631!4d18.5945746!16s%2Fg%2F11b_2trnld!19sChIJZ6kZ2N4K_UYRjq_Kd8bQpu4?authuser=0&hl=en&rclk=1
54.418511,18.592464,monopolowy,Żabka,https://www.google.com/maps/place/%C5%BBabka/data=!4m7!3m6!1s0x46fd0b2d3896c693:0x166104b8c9e454c5!8m2!3d54.418511!4d18.592464!16s%2Fg%2F11fkpvd4p7!19sChIJk8aWOC0L_UYRxVTkybgEYRY?authuser=0&hl=en&rclk=1
54.4084527,18.5952931,monopolowy,Zielone Jabłuszko | Sklep Spożywczo - Monopolowy,https://www.google.com/maps/place/Zielone+Jab%C5%82uszko+%7C+Sklep+Spo%C5%BCywczo+-+Monopolowy/data=!4m7!3m6!1s0x46fd0b0a6e1a0d6d:0xf9765a84c7f79696!8m2!3d54.4084527!4d18.5952931!16s%2Fg%2F11q4m3hb3g!19sChIJbQ0abgoL_UYRlpb3x4Radvk?authuser=0&hl=en&rclk=1
54.3940632,18.3954822,monopolowy,Alkohole Lord,https://www.google.com/maps/place/Alkohole+Lord/data=!4m7!3m6!1s0x46fd9f806fced9e3:0x4c16be93841e27a9!8m2!3d54.3940632!4d18.3954822!16s%2Fg%2F11hsqllql2!19sChIJ49nOb4Cf_UYRqScehJO-Fkw?authuser=0&hl=en&rclk=1
54.4110343,18.4849824,monopolowy,Biedronka,https://www.google.com/maps/place/Biedronka/data=!4m7!3m6!1s0x46fd9fed41f0004f:0x81e81a72be49d33d!8m2!3d54.4110343!4d18.4849824!16s%2Fg%2F1hdzcknmp!19sChIJTwDwQe2f_UYRPdNJvnIa6IE?authuser=0&hl=en&rclk=1
54.418244,18.4803399,monopolowy,Żabka,https://www.google.com/maps/place/%C5%BBabka/data=!4m7!3m6!1s0x46fd9f448ce86291:0x3a60014b3b11422a!8m2!3d54.418244!4d18.4803399!16s%2Fg%2F11s_vctk4y!19sChIJkWLojESf_UYRKkIRO0sBYDo?authuser=0&hl=en&rclk=1
54.4086379,18.5563434,monopolowy,M&P Alkohole Wina Cygara,https://www.google.com/maps/place/M%26P+Alkohole+Wina+Cygara/data=!4m7!3m6!1s0x46fd7535add4ac8f:0x5bec8c0f98499f!8m2!3d54.4086379!4d18.5563434!16s%2Fg%2F11c60pds4x!19sChIJj6zUrTV1_UYRn0mYD4zsWwA?authuser=0&hl=en&rclk=1
54.4064495,18.5694834,monopolowy,Sklep spożywczo-monopolowy Tośka,https://www.google.com/maps/place/Sklep+spo%C5%BCywczo-monopolowy+To%C5%9Bka/data=!4m7!3m6!1s0x46fd752d8f68586b:0xcef64c223982897f!8m2!3d54.4064495!4d18.5694834!16s%2Fg%2F1tj7zntc!19sChIJa1hojy11_UYRf4mCOSJM9s4?authuser=0&hl=en&rclk=1
54.4028837,18.5818444,monopolowy,Sklep Spozywczo Monopolowy,https://www.google.com/maps/place/Sklep+Spozywczo+Monopolowy/data=!4m7!3m6!1s0x46fd75f4cb7f6c2f:0xca26602e4efbc23!8m2!3d54.4028837!4d18.5818444!16s%2Fg%2F11fplz4y0r!19sChIJL2x_y_R1_UYRI7zv5AJmogw?authuser=0&hl=en&rclk=1
54.4053126,18.6018358,monopolowy,Sklep Spożywczo-Monopolowy,https://www.google.com/maps/place/Sklep+Spo%C5%BCywczo-Monopolowy/data=!4m7!3m6!1s0x46fd0b2d4942175f:0x52fce59bc4f66956!8m2!3d54.4053126!4d18.6018358!16s%2Fg%2F11gl2t721h!19sChIJXxdCSS0L_UYRVmn2xJvl_FI?authuser=0&hl=en&rclk=1
54.410115,18.595154,monopolowy,Alkohole Winoteka,https://www.google.com/maps/place/Alkohole+Winoteka/data=!4m7!3m6!1s0x46fd0b03aaddc447:0xaa3337a7d0b558d5!8m2!3d54.410115!4d18.595154!16s%2Fg%2F11k8fsy0v1!19sChIJR8TdqgML_UYR1Vi10Kc3M6o?authuser=0&hl=en&rclk=1
54.409475,18.600989,monopolowy,Żabka,https://www.google.com/maps/place/%C5%BBabka/data=!4m7!3m6!1s0x46fd0ba6abd3c81f:0xee7a1d4aec182957!8m2!3d54.409475!4d18.600989!16s%2Fg%2F11tmp5n5yc!19sChIJH8jTq6YL_UYRVykY7Eodeu4?authuser=0&hl=en&rclk=1
54.4053292,18.5984413,monopolowy,Delikatesy Monopolowe,https://www.google.com/maps/place/Delikatesy+Monopolowe/data=!4m7!3m6!1s0x46fd74d32ce8dec3:0xd952d0dc66a7ad02!8m2!3d54.4053292!4d18.5984413!16s%2Fg%2F11g0h2r616!19sChIJw97oLNN0_UYRAq2nZtzQUtk?authuser=0&hl=en&rclk=1
54.4060704,18.6396536,monopolowy,Bimbeer,https://www.google.com/maps/place/Bimbeer/data=!4m7!3m6!1s0x46fd0be6976c023f:0xa34b827ccf537f22!8m2!3d54.4060704!4d18.6396536!16s%2Fg%2F11mtfryp_7!19sChIJPwJsl-YL_UYRIn9Tz3yCS6M?authuser=0&hl=en&rclk=1
54.4051677,18.629021,monopolowy,Monopolowy NON STOP,https://www.google.com/maps/place/Monopolowy+NON+STOP/data=!4m7!3m6!1s0x46fd0b4bee75fdaf:0x565cf2d0457c6a57!8m2!3d54.4051677!4d18.629021!16s%2Fg%2F11dzx90wzy!19sChIJr_117ksL_UYRV2p8RdDyXFY?authuser=0&hl=en&rclk=1
54.4051603,18.6290356,monopolowy,Tyskie Monopolowy,https://www.google.com/maps/place/Tyskie+Monopolowy/data=!4m7!3m6!1s0x46fd0b4beddf9b1f:0x7864c98101fea34c!8m2!3d54.4051603!4d18.6290356!16s%2Fg%2F11ghp3dwb_!19sChIJH5vf7UsL_UYRTKP-AYHJZHg?authuser=0&hl=en&rclk=1
54.3953773,18.6432326,monopolowy,Sklep monopolowy | piwo kraftowe | BIMBEER Letnica,https://www.google.com/maps/place/Sklep+monopolowy+%7C+piwo+kraftowe+%7C+BIMBEER+Letnica/data=!4m7!3m6!1s0x46fd7532c501c55d:0x8285164a13efea78!8m2!3d54.3953773!4d18.6432326!16s%2Fg%2F11rfvztxjd!19sChIJXcUBxTJ1_UYReOrvE0oWhYI?authuser=0&hl=en&rclk=1
54.4005261,18.6678605,monopolowy,Sklep Monopolowy,https://www.google.com/maps/place/Sklep+Monopolowy/data=!4m7!3m6!1s0x46fd0d2e349c6dd9:0xfb31e506b378f7a3!8m2!3d54.4005261!4d18.6678605!16s%2Fg%2F11pv35tgn7!19sChIJ2W2cNC4N_UYRo_d4swblMfs?authuser=0&hl=en&rclk=1
54.392866,18.605657,monopolowy,Sklep spożywczo monopolowy,https://www.google.com/maps/place/Sklep+spo%C5%BCywczo+monopolowy/data=!4m7!3m6!1s0x46fd74c61e419dd1:0x4c0d1823844198eb!8m2!3d54.392866!4d18.605657!16s%2Fg%2F11c5h33jwp!19sChIJ0Z1BHsZ0_UYR65hBhCMYDUw?authuser=0&hl=en&rclk=1
54.4000504,18.6675398,monopolowy,Full. Grocery store,https://www.google.com/maps/place/Full.+Grocery+store/data=!4m7!3m6!1s0x46fd0cae7f367e47:0xbd746f4231d4ba4f!8m2!3d54.4000504!4d18.6675398!16s%2Fg%2F1tdxjkfy!19sChIJR342f64M_UYRT7rUMUJvdL0?authuser=0&hl=en&rclk=1
54.3803827,18.6262955,monopolowy,Spożywczo-Monopolowy Kristo,https://www.google.com/maps/place/Spo%C5%BCywczo-Monopolowy+Kristo/data=!4m7!3m6!1s0x46fd74a25837598d:0x9d374c32b42d12b3!8m2!3d54.3803827!4d18.6262955!16s%2Fg%2F11g0h2rrvn!19sChIJjVk3WKJ0_UYRsxIttDJMN50?authuser=0&hl=en&rclk=1
54.38345,18.6141939,monopolowy,"Sklep całodobowy ""ANKOR""",https://www.google.com/maps/place/Sklep+ca%C5%82odobowy+%22ANKOR%22/data=!4m7!3m6!1s0x46fd75b2e4fa88e1:0x8b853dd9e6af0d1c!8m2!3d54.38345!4d18.6141939!16s%2Fg%2F11g22_0sf7!19sChIJ4Yj65LJ1_UYRHA2v5tk9hYs?authuser=0&hl=en&rclk=1
54.401699,18.5621919,monopolowy,Żabka,https://www.google.com/maps/place/%C5%BBabka/data=!4m7!3m6!1s0x46fd753044bd8065:0x79a1f388990b7b55!8m2!3d54.401699!4d18.5621919!16s%2Fg%2F11cltp2fdd!19sChIJZYC9RDB1_UYRVXsLmYjzoXk?authuser=0&hl=en&rclk=1
54.3921946,18.5967717,monopolowy,Kaja,https://www.google.com/maps/place/Kaja/data=!4m7!3m6!1s0x46fd754e8a01a3e7:0xcc61a589c95342aa!8m2!3d54.3921946!4d18.5967717!16s%2Fg%2F11h4w9t4zh!19sChIJ56MBik51_UYRqkJTyYmlYcw?authuser=0&hl=en&rclk=1
54.3911194,18.6002909,monopolowy,Mike sklep nocny,https://www.google.com/maps/place/Mike+sklep+nocny/data=!4m7!3m6!1s0x46fd74c5ca8fc5d9:0x869b7365d48c599d!8m2!3d54.3911194!4d18.6002909!16s%2Fg%2F11c48m2zw2!19sChIJ2cWPysV0_UYRnVmM1GVzm4Y?authuser=0&hl=en&rclk=1
54.3887081,18.5962313,monopolowy,Al.Capone,https://www.google.com/maps/place/Al.Capone/data=!4m7!3m6!1s0x46fd7570946e87ff:0x616428d208d5b3dc!8m2!3d54.3887081!4d18.5962313!16s%2Fg%2F11rkg8hsmm!19sChIJ_4dulHB1_UYR3LPVCNIoZGE?authuser=0&hl=en&rclk=1
54.38777,18.6047237,monopolowy,Sklep spożywczo-monopolowy Ewi - całodobowy,https://www.google.com/maps/place/Sklep+spo%C5%BCywczo-monopolowy+Ewi+-+ca%C5%82odobowy/data=!4m7!3m6!1s0x46fd75412d220e15:0x81ff691039446267!8m2!3d54.38777!4d18.6047237!16s%2Fg%2F11gnrlprxl!19sChIJFQ4iLUF1_UYRZ2JEORBp_4E?authuser=0&hl=en&rclk=1
54.3945728,18.6436161,monopolowy,Duży Ben,https://www.google.com/maps/place/Du%C5%BCy+Ben/data=!4m7!3m6!1s0x46fd753a0bb5d831:0xf982217c38d3ec4!8m2!3d54.3945728!4d18.6436161!16s%2Fg%2F11tmz8t58y!19sChIJMdi1Czp1_UYRxD6NwxcimA8?authuser=0&hl=en&rclk=1
54.400632,18.661641,monopolowy,FHU Waldemar Czechowski (Lewiatan),https://www.google.com/maps/place/FHU+Waldemar+Czechowski+(Lewiatan)/data=!4m7!3m6!1s0x46fd0cabfca6f4af:0x4642c82765f01d02!8m2!3d54.400632!4d18.661641!16s%2Fg%2F11y0hnh0h!19sChIJr_Sm_KsM_UYRAh3wZSfIQkY?authuser=0&hl=en&rclk=1
54.3995149,18.6684182,monopolowy,"Sklep Monopolowy ""Warka Libero""",https://www.google.com/maps/place/Sklep+Monopolowy+%22Warka+Libero%22/data=!4m7!3m6!1s0x46fd0de8026665d5:0xbec8776ba560471!8m2!3d54.3995149!4d18.6684182!16s%2Fg%2F11smty91jn!19sChIJ1WVmAugN_UYRcQRWunaH7As?authuser=0&hl=en&rclk=1
54.3613514,18.7156073,monopolowy,Neutrino 24h,https://www.google.com/maps/place/Neutrino+24h/data=!4m7!3m6!1s0x46fd72e87e79728d:0x3b0640f40b325181!8m2!3d54.3613514!4d18.7156073!16s%2Fg%2F11g8gs0lxw!19sChIJjXJ5fuhy_UYRgVEyC_RABjs?authuser=0&hl=en&rclk=1
54.3690238,18.7318187,monopolowy,Sklep Spożywczo-Monopolowy Kula,https://www.google.com/maps/place/Sklep+Spo%C5%BCywczo-Monopolowy+Kula/data=!4m7!3m6!1s0x46fd73dedb578c8d:0xf86f4a8aa2007c36!8m2!3d54.3690238!4d18.7318187!16s%2Fg%2F11ny380h9h!19sChIJjYxX295z_UYRNnwAoopKb_g?authuser=0&hl=en&rclk=1
54.358984,18.7079404,monopolowy,Gerejczyk Krzysztof. Sklep z art. monopolowymi,https://www.google.com/maps/place/Gerejczyk+Krzysztof.+Sklep+z+art.+monopolowymi/data=!4m7!3m6!1s0x46fd72e42f955059:0xb8904bdf72a3063a!8m2!3d54.358984!4d18.7079404!16s%2Fg%2F1tffn0s2!19sChIJWVCVL-Ry_UYROgajct9LkLg?authuser=0&hl=en&rclk=1
54.3608485,18.7101083,monopolowy,Sklep spożywczo - monopolowy,https://www.google.com/maps/place/Sklep+spo%C5%BCywczo+-+monopolowy/data=!4m7!3m6!1s0x46fd738ffd729245:0x673e9e63d5ec0fdb!8m2!3d54.3608485!4d18.7101083!16s%2Fg%2F11s76bsspd!19sChIJRZJy_Y9z_UYR2w_s1WOePmc?authuser=0&hl=en&rclk=1
54.3412152,18.3747691,monopolowy,Żuczek-Monopolowy,https://www.google.com/maps/place/%C5%BBuczek-Monopolowy/data=!4m7!3m6!1s0x46fd9d5debd22c0b:0x43e801af441fd1f5!8m2!3d54.3412152!4d18.3747691!16s%2Fg%2F11jmbt3d5d!19sChIJCyzS612d_UYR9dEfRK8B6EM?authuser=0&hl=en&rclk=1
54.3356333,18.403999,monopolowy,Sklep Spożywczo Monopolowy,https://www.google.com/maps/place/Sklep+Spo%C5%BCywczo+Monopolowy/data=!4m7!3m6!1s0x46fd9dd1f2e71077:0x25074df5e01f8d5d!8m2!3d54.3356333!4d18.403999!16s%2Fg%2F11fqs4jmwq!19sChIJdxDn8tGd_UYRXY0f4PVNByU?authuser=0&hl=en&rclk=1
54.3505924,18.5326922,monopolowy,Delikatesy Monopolowe,https://www.google.com/maps/place/Delikatesy+Monopolowe/data=!4m7!3m6!1s0x46fd75b7a83a7a8b:0x213644eee491c56f!8m2!3d54.3505924!4d18.5326922!16s%2Fg%2F11c5fz3h5n!19sChIJi3o6qLd1_UYRb8WR5O5ENiE?authuser=0&hl=en&rclk=1
54.38944,18.483263,monopolowy,Żabka,https://www.google.com/maps/place/%C5%BBabka/data=!4m7!3m6!1s0x46fd9f7ceabeaa15:0xf6b91c9cc5a536d5!8m2!3d54.38944!4d18.483263!16s%2Fg%2F11q8jdb1bn!19sChIJFaq-6nyf_UYR1TalxZwcufY?authuser=0&hl=en&rclk=1
54.3505726,18.5654199,monopolowy,"Panda Migowo, sklep spozywczy, monopolowy, przemysłowy","https://www.google.com/maps/place/Panda+Migowo,+sklep+spozywczy,+monopolowy,+przemys%C5%82owy/data=!4m7!3m6!1s0x46fd750a2f37d847:0x6c7be61ec9ebdf01!8m2!3d54.3505726!4d18.5654199!16s%2Fg%2F11j0ttm494!19sChIJR9g3Lwp1_UYRAd_ryR7me2w?authuser=0&hl=en&rclk=1"
54.3600469,18.5806934,monopolowy,Sklep Spozywczy Monopolowy,https://www.google.com/maps/place/Sklep+Spozywczy+Monopolowy/data=!4m7!3m6!1s0x46fd74592bea0181:0x671c4ca48f72be6c!8m2!3d54.3600469!4d18.5806934!16s%2Fg%2F11c1qsj8vz!19sChIJgQHqK1l0_UYRbL5yj6RMHGc?authuser=0&hl=en&rclk=1
54.3556264,18.5770427,monopolowy,"Sklep ""Promil""",https://www.google.com/maps/place/Sklep+%22Promil%22/data=!4m7!3m6!1s0x46fd745b87b7660b:0x4307bf596455f00b!8m2!3d54.3556264!4d18.5770427!16s%2Fg%2F11fy1dq4gs!19sChIJC2a3h1t0_UYRC_BVZFm_B0M?authuser=0&hl=en&rclk=1
54.3800928,18.5992595,monopolowy,Garix III,https://www.google.com/maps/place/Garix+III/data=!4m7!3m6!1s0x46fd74eaff3eabf5:0x5a57afeb198d72bd!8m2!3d54.3800928!4d18.5992595!16s%2Fg%2F11f61xdn37!19sChIJ9as-_-p0_UYRvXKNGeuvV1o?authuser=0&hl=en&rclk=1
54.3806846,18.6042807,monopolowy,Brzoskowska-Hańska Izabela. sklep monopolowy,https://www.google.com/maps/place/Brzoskowska-Ha%C5%84ska+Izabela.+sklep+monopolowy/data=!4m7!3m6!1s0x46fd74954b0d5655:0x73e2d986f358e9e8!8m2!3d54.3806846!4d18.6042807!16s%2Fg%2F113k705q3!19sChIJVVYNS5V0_UYR6OlY84bZ4nM?authuser=0&hl=en&rclk=1
54.3786525,18.6073922,monopolowy,Filip sklep monopolowy,https://www.google.com/maps/place/Filip+sklep+monopolowy/data=!4m7!3m6!1s0x46fd7495ab7fa44b:0xec65c8d16ed53267!8m2!3d54.3786525!4d18.6073922!16s%2Fg%2F11g8v2vrt3!19sChIJS6R_q5V0_UYRZzLVbtHIZew?authuser=0&hl=en&rclk=1
54.3825508,18.6014608,monopolowy,Distillers Limited,https://www.google.com/maps/place/Distillers+Limited/data=!4m7!3m6!1s0x46fd75b877a6ad01:0x556b7b4461d302de!8m2!3d54.3825508!4d18.6014608!16s%2Fg%2F11n5s3fzbn!19sChIJAa2md7h1_UYR3gLTYUR7a1U?authuser=0&hl=en&rclk=1
54.3845808,18.5890672,monopolowy,DOLIO VINI,https://www.google.com/maps/place/DOLIO+VINI/data=!4m7!3m6!1s0x46fd74c2aa471cb1:0x57e190e77c9d791a!8m2!3d54.3845808!4d18.5890672!16s%2Fg%2F11csqjbvw4!19sChIJsRxHqsJ0_UYRGnmdfOeQ4Vc?authuser=0&hl=en&rclk=1
54.3878055,18.6257067,monopolowy,Iks,https://www.google.com/maps/place/Iks/data=!4m7!3m6!1s0x46fd74bac5789b5d:0x8f98f6cc33dc14d2!8m2!3d54.3878055!4d18.6257067!16s%2Fg%2F11ckvlntb3!19sChIJXZt4xbp0_UYR0hTcM8z2mI8?authuser=0&hl=en&rclk=1
54.3801436,18.6166934,monopolowy,Sklep Zefirek,https://www.google.com/maps/place/Sklep+Zefirek/data=!4m7!3m6!1s0x46fd74bd81e8c0dd:0xa8e8c844aa643ab4!8m2!3d54.3801436!4d18.6166934!16s%2Fg%2F11bxd7qmww!19sChIJ3cDogb10_UYRtDpkqkTI6Kg?authuser=0&hl=en&rclk=1
54.3780907,18.6201122,monopolowy,Promil,https://www.google.com/maps/place/Promil/data=!4m7!3m6!1s0x46fd74981e4bb471:0xa969c5babe3d8bd5!8m2!3d54.3780907!4d18.6201122!16s%2Fg%2F12hp2130n!19sChIJcbRLHph0_UYR1Ys9vrrFaak?authuser=0&hl=en&rclk=1
54.373705,18.6266628,monopolowy,sklepy Klosek,https://www.google.com/maps/place/sklepy+Klosek/data=!4m7!3m6!1s0x46fd749eb2013043:0x95f00b2846f53b48!8m2!3d54.373705!4d18.6266628!16s%2Fg%2F11c6y9dtzc!19sChIJQzABsp50_UYRSDv1RigL8JU?authuser=0&hl=en&rclk=1
54.361197,18.6465521,monopolowy,Warka Monopolowy,https://www.google.com/maps/place/Warka+Monopolowy/data=!4m7!3m6!1s0x46fd7370596b5659:0xeba40b8e2188b39f!8m2!3d54.361197!4d18.6465521!16s%2Fg%2F11ghp3fr25!19sChIJWVZrWXBz_UYRn7OIIY4LpOs?authuser=0&hl=en&rclk=1
54.3632318,18.6322085,monopolowy,U Arka. Sklep spożywczo - monopolowy. Bublewicz A.,https://www.google.com/maps/place/U+Arka.+Sklep+spo%C5%BCywczo+-+monopolowy.+Bublewicz+A./data=!4m7!3m6!1s0x46fd737cf8aaaf45:0x46871a7c72f5c72d!8m2!3d54.3632318!4d18.6322085!16s%2Fg%2F11h1llzg1!19sChIJRa-q-Hxz_UYRLcf1cnwah0Y?authuser=0&hl=en&rclk=1
54.360285,18.7228019,monopolowy,Sklep spożywczo-monopolowy,https://www.google.com/maps/place/Sklep+spo%C5%BCywczo-monopolowy/data=!4m7!3m6!1s0x46fd72e9816c511b:0x98d0f414a503ea93!8m2!3d54.360285!4d18.7228019!16s%2Fg%2F11c1tbfz2l!19sChIJG1Fsgely_UYRk-oDpRT00Jg?authuser=0&hl=en&rclk=1
54.3473204,18.6581774,monopolowy,DONA 24 liquor store Convenience,https://www.google.com/maps/place/DONA+24+liquor+store+Convenience/data=!4m7!3m6!1s0x46fd73a11f16665f:0xdd399e6c7dfc73e!8m2!3d54.3473204!4d18.6581774!16s%2Fg%2F1q5bmp_20!19sChIJX2YWH6Fz_UYRPsffx-aZ0w0?authuser=0&hl=en&rclk=1
54.3504776,18.5637007,monopolowy,ALKO OUTLET Morena,https://www.google.com/maps/place/ALKO+OUTLET+Morena/data=!4m7!3m6!1s0x46fd744f6f5d6f45:0xdf6497ee5ed1bbe2!8m2!3d54.3504776!4d18.5637007!16s%2Fg%2F11c20zbzfn!19sChIJRW9db090_UYR4rvRXu6XZN8?authuser=0&hl=en&rclk=1
54.3559129,18.5794192,monopolowy,Sklep spożywczo-monopolowy Zielone Jabłuszko,https://www.google.com/maps/place/Sklep+spo%C5%BCywczo-monopolowy+Zielone+Jab%C5%82uszko/data=!4m7!3m6!1s0x46fd745c6afdba95:0x53a9763479267389!8m2!3d54.3559129!4d18.5794192!16s%2Fg%2F11g6ntxl_g!19sChIJlbr9alx0_UYRiXMmeTR2qVM?authuser=0&hl=en&rclk=1
54.3504917,18.5865427,monopolowy,Sklep Monopolowy PIEKARNICZA,https://www.google.com/maps/place/Sklep+Monopolowy+PIEKARNICZA/data=!4m7!3m6!1s0x46fd75a1d992a241:0xfcd500eb2040a76f!8m2!3d54.3504917!4d18.5865427!16s%2Fg%2F11nz43nw6p!19sChIJQaKS2aF1_UYRb6dAIOsA1fw?authuser=0&hl=en&rclk=1
54.372201,18.523028,monopolowy,Żabka,https://www.google.com/maps/place/%C5%BBabka/data=!4m7!3m6!1s0x46fd7506f3e7ab71:0xe055c772b3c23157!8m2!3d54.372201!4d18.523028!16s%2Fg%2F11qpxrp_6v!19sChIJcavn8wZ1_UYRVzHCs3LHVeA?authuser=0&hl=en&rclk=1
54.377144,18.5257029,monopolowy,Żabka,https://www.google.com/maps/place/%C5%BBabka/data=!4m7!3m6!1s0x46fd7574807b3629:0xfafe3c69645eacc!8m2!3d54.377144!4d18.5257029!16s%2Fg%2F11c3sqdmwy!19sChIJKTZ7gHR1_UYRzOpFlsbjrw8?authuser=0&hl=en&rclk=1
54.3785578,18.5993837,monopolowy,Libero Heineken,https://www.google.com/maps/place/Libero+Heineken/data=!4m7!3m6!1s0x46fd74eb1253d983:0x2dc5d0749be6b8f8!8m2!3d54.3785578!4d18.5993837!16s%2Fg%2F11g0h2rkfy!19sChIJg9lTEut0_UYR-Ljmm3TQxS0?authuser=0&hl=en&rclk=1
54.3638766,18.596926,monopolowy,Grocery store - Iza,https://www.google.com/maps/place/Grocery+store+-+Iza/data=!4m7!3m6!1s0x46fd748bae31329b:0x4b37cd1a37013a78!8m2!3d54.3638766!4d18.596926!16s%2Fg%2F1tfnx8nz!19sChIJmzIxrot0_UYReDoBNxrNN0s?authuser=0&hl=en&rclk=1
54.3804537,18.6039006,monopolowy,Sklep Spożywczo Monopolowy 24h,https://www.google.com/maps/place/Sklep+Spo%C5%BCywczo+Monopolowy+24h/data=!4m7!3m6!1s0x46fd7495355b910d:0x49c9e36ab03edf8e!8m2!3d54.3804537!4d18.6039006!16s%2Fg%2F11g8wkrtnr!19sChIJDZFbNZV0_UYRjt8-sGrjyUk?authuser=0&hl=en&rclk=1
54.3806808,18.6042329,monopolowy,Rafix,https://www.google.com/maps/place/Rafix/data=!4m7!3m6!1s0x46fd74954b0d5655:0xc87254f75f78008!8m2!3d54.3806808!4d18.6042329!16s%2Fg%2F1tkp3p5l!19sChIJVVYNS5V0_UYRCID3dU8lhww?authuser=0&hl=en&rclk=1
54.3702235,18.6112173,monopolowy,Convenience store ABI,https://www.google.com/maps/place/Convenience+store+ABI/data=!4m7!3m6!1s0x46fd74903b4ea4d3:0x4c6135f44d93c60e!8m2!3d54.3702235!4d18.6112173!16s%2Fg%2F11c60jd_8_!19sChIJ06ROO5B0_UYRDsaTTfQ1YUw?authuser=0&hl=en&rclk=1
54.3592612,18.6492653,monopolowy,Sklep Spożywczo-Monopolowy U Gacka,https://www.google.com/maps/place/Sklep+Spo%C5%BCywczo-Monopolowy+U+Gacka/data=!4m7!3m6!1s0x46fd7303f5603c1b:0x35a2201bf71c6888!8m2!3d54.3592612!4d18.6492653!16s%2Fg%2F11hyxmvw03!19sChIJGzxg9QNz_UYRiGgc9xsgojU?authuser=0&hl=en&rclk=1
54.3541978,18.6505748,monopolowy,Ostoja Press,https://www.google.com/maps/place/Ostoja+Press/data=!4m7!3m6!1s0x46fd73e0f640198f:0x4ebbd823569a7685!8m2!3d54.3541978!4d18.6505748!16s%2Fg%2F11h6v4p9df!19sChIJjxlA9uBz_UYRhXaaViPYu04?authuser=0&hl=en&rclk=1
54.3506809,18.6615236,monopolowy,AlkoSpot,https://www.google.com/maps/place/AlkoSpot/data=!4m7!3m6!1s0x46fd73ad5d6896d7:0x961e6a2d855dc464!8m2!3d54.3506809!4d18.6615236!16s%2Fg%2F11qt408nrg!19sChIJ15ZoXa1z_UYRZMRdhS1qHpY?authuser=0&hl=en&rclk=1
54.3508768,18.6540049,monopolowy,Gryf - sklep spożywczo-monopolowy,https://www.google.com/maps/place/Gryf+-+sklep+spo%C5%BCywczo-monopolowy/data=!4m7!3m6!1s0x46fd739fff3e1b87:0x4b21dccb18a2f23d!8m2!3d54.3508768!4d18.6540049!16s%2Fg%2F1ydpvcl3p!19sChIJhxs-_59z_UYRPfKiGMvcIUs?authuser=0&hl=en&rclk=1
54.3371144,18.6746038,monopolowy,P.I.JACEK general store liquor,https://www.google.com/maps/place/P.I.JACEK+general+store+liquor/data=!4m7!3m6!1s0x46fd73ad8453ad5b:0x12a24b3425cb766c!8m2!3d54.3371144!4d18.6746038!16s%2Fg%2F1tdkqh6l!19sChIJW61ThK1z_UYRbHbLJTRLohI?authuser=0&hl=en&rclk=1
54.3461444,18.4551255,monopolowy,GS Samopomoc Chłopska,https://www.google.com/maps/place/GS+Samopomoc+Ch%C5%82opska/data=!4m7!3m6!1s0x46fd9e74c7ecf319:0xe0f8d3088bbb7801!8m2!3d54.3461444!4d18.4551255!16s%2Fg%2F1v82_syq!19sChIJGfPsx3Se_UYRAXi7iwjT-OA?authuser=0&hl=en&rclk=1
54.3471714,18.3651488,monopolowy,Sklep U Michała,https://www.google.com/maps/place/Sklep+U+Micha%C5%82a/data=!4m7!3m6!1s0x46fd9d9aeb574617:0x7ee426131da2079a!8m2!3d54.3471714!4d18.3651488!16s%2Fg%2F11gr5r5lrq!19sChIJF0ZX65qd_UYRmgeiHRMm5H4?authuser=0&hl=en&rclk=1
54.3232506,18.342759,monopolowy,Sklep Spożywczo - Monopolowy,https://www.google.com/maps/place/Sklep+Spo%C5%BCywczo+-+Monopolowy/data=!4m7!3m6!1s0x46fd9c68c4fa2af9:0xdac63591337dd0e8!8m2!3d54.3232506!4d18.342759!16s%2Fg%2F11gbf8q2t7!19sChIJ-Sr6xGic_UYR6NB9M5E1xto?authuser=0&hl=en&rclk=1
54.3584332,18.4916702,monopolowy,Żabka,https://www.google.com/maps/place/%C5%BBabka/data=!4m7!3m6!1s0x46fd758c6dc8a161:0xe67e0da4af4cfb60!8m2!3d54.3584332!4d18.4916702!16s%2Fg%2F11fzf6n07d!19sChIJYaHIbYx1_UYRYPtMr6QNfuY?authuser=0&hl=en&rclk=1
54.366685,18.489019,monopolowy,Żabka,https://www.google.com/maps/place/%C5%BBabka/data=!4m7!3m6!1s0x46fd755fee5baf23:0x3bbea2fbbcbd84e9!8m2!3d54.366685!4d18.489019!16s%2Fg%2F11tc3w61yr!19sChIJI69b7l91_UYR6YS9vPuivjs?authuser=0&hl=en&rclk=1
54.3486958,18.6195339,monopolowy,Garix II Sklep Monopolowy,https://www.google.com/maps/place/Garix+II+Sklep+Monopolowy/data=!4m7!3m6!1s0x46fd73870c3e2fe3:0x63615cc1090b167d!8m2!3d54.3486958!4d18.6195339!16s%2Fg%2F11f61xg7ht!19sChIJ4y8-DIdz_UYRfRYLCcFcYWM?authuser=0&hl=en&rclk=1
54.3593999,18.5891746,monopolowy,Żabka,https://www.google.com/maps/place/%C5%BBabka/data=!4m7!3m6!1s0x46fd7548c7d4511f:0xbdbe2f19f0d1cdd4!8m2!3d54.3593999!4d18.5891746!16s%2Fg%2F11j81dlnmy!19sChIJH1HUx0h1_UYR1M3R8Bkvvr0?authuser=0&hl=en&rclk=1
54.3586733,18.6270254,monopolowy,ALKO OUTLET Suchanino,https://www.google.com/maps/place/ALKO+OUTLET+Suchanino/data=!4m7!3m6!1s0x46fd737e4ea7e9cf:0xf7118faeb91cbeba!8m2!3d54.3586733!4d18.6270254!16s%2Fg%2F11c1w0_0_k!19sChIJz-mnTn5z_UYRur4cua6PEfc?authuser=0&hl=en&rclk=1
54.3536404,18.6332005,monopolowy,Sklep Monopolowy,https://www.google.com/maps/place/Sklep+Monopolowy/data=!4m7!3m6!1s0x46fd738263870f5d:0x8a5dcc84294b5419!8m2!3d54.3536404!4d18.6332005!16s%2Fg%2F11s7tfz3fv!19sChIJXQ-HY4Jz_UYRGVRLKYTMXYo?authuser=0&hl=en&rclk=1
54.355014,18.649164,monopolowy,M&P Alkohole Wina Cygara,https://www.google.com/maps/place/M%26P+Alkohole+Wina+Cygara/data=!4m7!3m6!1s0x46fd73dc63c95d9d:0x2504c51a9e036bc0!8m2!3d54.355014!4d18.649164!16s%2Fg%2F11k6tyyl95!19sChIJnV3JY9xz_UYRwGsDnhrFBCU?authuser=0&hl=en&rclk=1
54.3554539,18.6620542,monopolowy,Chamagne Club & Store,https://www.google.com/maps/place/Chamagne+Club+%26+Store/data=!4m7!3m6!1s0x46fd73324e332b33:0x81c466b21f5d652c!8m2!3d54.3554539!4d18.6620542!16s%2Fg%2F11f7h0s5r_!19sChIJMyszTjJz_UYRLGVdH7JmxIE?authuser=0&hl=en&rclk=1
54.3487154,18.6578498,monopolowy,AlkoSpot,https://www.google.com/maps/place/AlkoSpot/data=!4m7!3m6!1s0x46fd730ae5053d0f:0xa73a1166d8916c23!8m2!3d54.3487154!4d18.6578498!16s%2Fg%2F11j8_7k9q2!19sChIJDz0F5Qpz_UYRI2yR2GYROqc?authuser=0&hl=en&rclk=1
54.360321,18.709194,monopolowy,Żabka,https://www.google.com/maps/place/%C5%BBabka/data=!4m7!3m6!1s0x46fd732253663e6d:0xad24d6c926f8acb4!8m2!3d54.360321!4d18.709194!16s%2Fg%2F11p_2dndk4!19sChIJbT5mUyJz_UYRtKz4JsnWJK0?authuser=0&hl=en&rclk=1
54.3234927,18.816111,monopolowy,Grocery Store,https://www.google.com/maps/place/Grocery+Store/data=!4m7!3m6!1s0x46fd6c55123c1c85:0x6d23360cd9bafef!8m2!3d54.3234927!4d18.816111!16s%2Fg%2F11cn669y_t!19sChIJhRw8ElVs_UYR76-bzWAz0gY?authuser=0&hl=en&rclk=1
54.2937001,18.8102279,monopolowy,Sklep spożywczo-monopolowy,https://www.google.com/maps/place/Sklep+spo%C5%BCywczo-monopolowy/data=!4m7!3m6!1s0x46fd6c3a9855ac67:0x4f53ae271f8a8b5!8m2!3d54.2937001!4d18.8102279!16s%2Fg%2F11f3zyn727!19sChIJZ6xVmDps_UYRtaj4ceI69QQ?authuser=0&hl=en&rclk=1
54.358984,18.7079404,monopolowy,Sklep spożywczo-monopolowy,https://www.google.com/maps/place/Sklep+spo%C5%BCywczo-monopolowy/data=!4m7!3m6!1s0x46fd72e42f8b3b25:0xe13fc4e1f17bd7fa!8m2!3d54.358984!4d18.7079404!16s%2Fg%2F11bzrpdhh3!19sChIJJTuLL-Ry_UYR-td78eHEP-E?authuser=0&hl=en&rclk=1
54.344158,18.830226,monopolowy,Żabka,https://www.google.com/maps/place/%C5%BBabka/data=!4m7!3m6!1s0x46fd6d80c0c002cf:0x3990a4098d94ba51!8m2!3d54.344158!4d18.830226!16s%2Fg%2F11gk8v28cj!19sChIJzwLAwIBt_UYRUbqUjQmkkDk?authuser=0&hl=en&rclk=1
54.3427855,19.03614,monopolowy,"Sklep Spożywczo-Monopolowy ""Bałtyk""",https://www.google.com/maps/place/Sklep+Spo%C5%BCywczo-Monopolowy+%22Ba%C5%82tyk%22/data=!4m7!3m6!1s0x46fd1556ebb29527:0x2c77f31e906ae966!8m2!3d54.3427855!4d19.03614!16s%2Fg%2F11f61xgf23!19sChIJJ5Wy61YV_UYRZulqkB7zdyw?authuser=0&hl=en&rclk=1
54.3463299,19.114036,monopolowy,Sklep Spożywczo Monopolowy,https://www.google.com/maps/place/Sklep+Spo%C5%BCywczo+Monopolowy/data=!4m7!3m6!1s0x46fd3fa06ba63cd9:0x18e8dc0d28748299!8m2!3d54.3463299!4d19.114036!16s%2Fg%2F11b806pj2g!19sChIJ2Tyma6A__UYRmYJ0KA3c6Bg?authuser=0&hl=en&rclk=1
54.3533736,18.496889,monopolowy,Biedronka,https://www.google.com/maps/place/Biedronka/data=!4m7!3m6!1s0x46fd75ed523f5bfb:0x378099505c61ef71!8m2!3d54.3533736!4d18.496889!16s%2Fg%2F11c1xqcphr!19sChIJ-1s_Uu11_UYRce9hXFCZgDc?authuser=0&hl=en&rclk=1
54.3450744,18.534854,monopolowy,Żabka,https://www.google.com/maps/place/%C5%BBabka/data=!4m7!3m6!1s0x46fd75b1c6d32adf:0xdaf3c716395409!8m2!3d54.3450744!4d18.534854!16s%2Fg%2F11nn2dd5gh!19sChIJ3yrTxrF1_UYRCVQ5Fsfz2gA?authuser=0&hl=en&rclk=1
54.3498304,18.5345427,monopolowy,Żabka,https://www.google.com/maps/place/%C5%BBabka/data=!4m7!3m6!1s0x46fd7589777d77d5:0x6d1c407f7bb9278!8m2!3d54.3498304!4d18.5345427!16s%2Fg%2F11gkb5l8p9!19sChIJ1Xd9d4l1_UYReJK79wfE0QY?authuser=0&hl=en&rclk=1
54.3313578,18.5651272,monopolowy,ALKO OUTLET Jasień,https://www.google.com/maps/place/ALKO+OUTLET+Jasie%C5%84/data=!4m7!3m6!1s0x46fd743d2de6922f:0x603dce293cf7c72!8m2!3d54.3313578!4d18.5651272!16s%2Fg%2F1q69q82yz!19sChIJL5LmLT10_UYRcnzPk-LcAwY?authuser=0&hl=en&rclk=1
54.350467,18.5625821,monopolowy,Żabka,https://www.google.com/maps/place/%C5%BBabka/data=!4m7!3m6!1s0x46fd744f6b4d9963:0x397ab34c165f0fb3!8m2!3d54.350467!4d18.5625821!16s%2Fg%2F11c0r58srp!19sChIJY5lNa090_UYRsw9fFkyzejk?authuser=0&hl=en&rclk=1
54.340243,18.601638,monopolowy,Sklep Spożywczo Monopolowy Paweł Siatkowski,https://www.google.com/maps/place/Sklep+Spo%C5%BCywczo+Monopolowy+Pawe%C5%82+Siatkowski/data=!4m7!3m6!1s0x46fd75d65605add9:0x147e8526c5845217!8m2!3d54.340243!4d18.601638!16s%2Fg%2F11f0_gf3gw!19sChIJ2a0FVtZ1_UYRF1KExSaFfhQ?authuser=0&hl=en&rclk=1
54.3433767,18.6109103,monopolowy,Gryf - sklep spozywczo - monopolowy,https://www.google.com/maps/place/Gryf+-+sklep+spozywczo+-+monopolowy/data=!4m7!3m6!1s0x46fd75904a53ff29:0x9eb41feb42dfa958!8m2!3d54.3433767!4d18.6109103!16s%2Fg%2F11ppfhd_rz!19sChIJKf9TSpB1_UYRWKnfQusftJ4?authuser=0&hl=en&rclk=1
54.3511076,18.587805,monopolowy,Żabka,https://www.google.com/maps/place/%C5%BBabka/data=!4m7!3m6!1s0x46fd7527c9fc1fab:0xadcf934c4176a73f!8m2!3d54.3511076!4d18.587805!16s%2Fg%2F11h04n4n1s!19sChIJqx_8ySd1_UYRP6d2QUyTz60?authuser=0&hl=en&rclk=1
54.349646,18.6447142,monopolowy,Distillers Limited,https://www.google.com/maps/place/Distillers+Limited/data=!4m7!3m6!1s0x46fd7337e192605d:0xeddf4552fe7fc2a5!8m2!3d54.349646!4d18.6447142!16s%2Fg%2F11lrp952hy!19sChIJXWCS4Tdz_UYRpcJ__lJF3-0?authuser=0&hl=en&rclk=1
54.3438802,18.6625971,monopolowy,Sklep Spożywczo-Monopolowy,https://www.google.com/maps/place/Sklep+Spo%C5%BCywczo-Monopolowy/data=!4m7!3m6!1s0x46fd73a5d49b9093:0xa95c078101fae0cf!8m2!3d54.3438802!4d18.6625971!16s%2Fg%2F11jwt1wr1p!19sChIJk5Cb1KVz_UYRz-D6AYEHXKk?authuser=0&hl=en&rclk=1
54.3432901,18.6545196,monopolowy,AlkoSpot,https://www.google.com/maps/place/AlkoSpot/data=!4m7!3m6!1s0x46fd73a3a5ba233d:0x3a7afbc1cd722a0c!8m2!3d54.3432901!4d18.6545196!16s%2Fg%2F11f3m9kj5b!19sChIJPSO6paNz_UYRDCpyzcH7ejo?authuser=0&hl=en&rclk=1
54.3500175,18.706346,monopolowy,Sklep spożywczo-monopolowy,https://www.google.com/maps/place/Sklep+spo%C5%BCywczo-monopolowy/data=!4m7!3m6!1s0x46fd73d4a60cc41b:0x68b450c1d215501f!8m2!3d54.3500175!4d18.706346!16s%2Fg%2F11sddhf2x1!19sChIJG8QMptRz_UYRH1AV0sFQtGg?authuser=0&hl=en&rclk=1
54.3462727,18.8189709,monopolowy,Shop Paweł Szymkowiak,https://www.google.com/maps/place/Shop+Pawe%C5%82+Szymkowiak/data=!4m7!3m6!1s0x46fd6d18b9064ad3:0x3182914a607b7558!8m2!3d54.3462727!4d18.8189709!16s%2Fg%2F1tfll3q3!19sChIJ00oGuRht_UYRWHV7YEqRgjE?authuser=0&hl=en&rclk=1
54.3153906,18.5693975,monopolowy,Sklep Spożywczo Monopolowy Kama,https://www.google.com/maps/place/Sklep+Spo%C5%BCywczo+Monopolowy+Kama/data=!4m7!3m6!1s0x46fd779a5159fee5:0x61b76292aa0dd9b!8m2!3d54.3153906!4d18.5693975!16s%2Fg%2F11lpdw84qv!19sChIJ5f5ZUZp3_UYRm92gKil2GwY?authuser=0&hl=en&rclk=1
54.3017113,18.5794419,monopolowy,Delikatesy Monopolowe Johnnie W,https://www.google.com/maps/place/Delikatesy+Monopolowe+Johnnie+W/data=!4m7!3m6!1s0x46fd76b37719035f:0xef5c4e8fe354c51f!8m2!3d54.3017113!4d18.5794419!16s%2Fg%2F11_sydnl5!19sChIJXwMZd7N2_UYRH8VU449OXO8?authuser=0&hl=en&rclk=1
54.3406019,18.5664023,monopolowy,Dom Piwa,https://www.google.com/maps/place/Dom+Piwa/data=!4m7!3m6!1s0x46fd7438cd1d32dd:0x91c558284e51e069!8m2!3d54.3406019!4d18.5664023!16s%2Fg%2F11cjrbp99l!19sChIJ3TIdzTh0_UYRaeBRTihYxZE?authuser=0&hl=en&rclk=1
54.32811,18.5982972,monopolowy,Sklep spożywczo monopolowy Promile,https://www.google.com/maps/place/Sklep+spo%C5%BCywczo+monopolowy+Promile/data=!4m7!3m6!1s0x46fd752c1659c419:0x36dda2d187e39194!8m2!3d54.32811!4d18.5982972!16s%2Fg%2F11fd4nzdqk!19sChIJGcRZFix1_UYRlJHjh9Gi3TY?authuser=0&hl=en&rclk=1
54.33713,18.61211,monopolowy,Duży Ben,https://www.google.com/maps/place/Du%C5%BCy+Ben/data=!4m7!3m6!1s0x46fd73d5e772bd39:0xd8fa237d875b473d!8m2!3d54.33713!4d18.61211!16s%2Fg%2F11k3pcsmg_!19sChIJOb1y59Vz_UYRPUdbh30j-tg?authuser=0&hl=en&rclk=1
54.324925,18.6118527,monopolowy,Sklep spożywczo-monopolowy,https://www.google.com/maps/place/Sklep+spo%C5%BCywczo-monopolowy/data=!4m7!3m6!1s0x46fd736254682017:0xd8d2dee74ad7267a!8m2!3d54.324925!4d18.6118527!16s%2Fg%2F11t8dc7gbr!19sChIJFyBoVGJz_UYReibXSufe0tg?authuser=0&hl=en&rclk=1
54.3261375,18.6188628,monopolowy,Skot. Sklep monopolowy,https://www.google.com/maps/place/Skot.+Sklep+monopolowy/data=!4m7!3m6!1s0x46fd73ee29a190dd:0xe536340bfc0b55eb!8m2!3d54.3261375!4d18.6188628!16s%2Fg%2F1tdxczpn!19sChIJ3ZChKe5z_UYR61UL_As0NuU?authuser=0&hl=en&rclk=1
54.3246052,18.6068605,monopolowy,ALKO OUTLET Orunia,https://www.google.com/maps/place/ALKO+OUTLET+Orunia/data=!4m7!3m6!1s0x46fd73f9e103fd5f:0xfb37a34157e65356!8m2!3d54.3246052!4d18.6068605!16s%2Fg%2F11c2jn2hqt!19sChIJX_0D4flz_UYRVlPmV0GjN_s?authuser=0&hl=en&rclk=1
54.340943,18.628257,monopolowy,Nasz Sklep,https://www.google.com/maps/place/Nasz+Sklep/data=!4m7!3m6!1s0x46fd738e2c3309e1:0xf7764b0728d3b773!8m2!3d54.340943!4d18.628257!16s%2Fg%2F11xcdfqxw!19sChIJ4QkzLI5z_UYRc7fTKAdLdvc?authuser=0&hl=en&rclk=1
54.3260321,18.6332963,monopolowy,Warka Sklep Monopolowy,https://www.google.com/maps/place/Warka+Sklep+Monopolowy/data=!4m7!3m6!1s0x46fd73e988fadb75:0x5014995321eb4d9f!8m2!3d54.3260321!4d18.6332963!16s%2Fg%2F11gmy8lxs8!19sChIJddv6iOlz_UYRn03rIVOZFFA?authuser=0&hl=en&rclk=1
54.325259,18.631503,monopolowy,Sklep spożywczo-monopolowy 24 h,https://www.google.com/maps/place/Sklep+spo%C5%BCywczo-monopolowy+24+h/data=!4m7!3m6!1s0x46fd73e99fca1d27:0x4f58c5b4adf475e2!8m2!3d54.325259!4d18.631503!16s%2Fg%2F11f2dv5wk2!19sChIJJx3Kn-lz_UYR4nX0rbTFWE8?authuser=0&hl=en&rclk=1
54.3282176,18.6340274,monopolowy,SKLEP SPOŻYWCZO-MONOPOLOWY ODIDO,https://www.google.com/maps/place/SKLEP+SPO%C5%BBYWCZO-MONOPOLOWY+ODIDO/data=!4m7!3m6!1s0x46fd734a640dd8d7:0x66b72161597f8721!8m2!3d54.3282176!4d18.6340274!16s%2Fg%2F11r_mkkdwv!19sChIJ19gNZEpz_UYRIYd_WWEht2Y?authuser=0&hl=en&rclk=1
54.3358882,18.7997369,monopolowy,"Wojdyr Danuta, Edward. Sklep spożywczo - przemysłowy","https://www.google.com/maps/place/Wojdyr+Danuta,+Edward.+Sklep+spo%C5%BCywczo+-+przemys%C5%82owy/data=!4m7!3m6!1s0x46fd6d0fd35b6501:0x380b1623a24fbfaa!8m2!3d54.3358882!4d18.7997369!16s%2Fg%2F1hc1wwknb!19sChIJAWVb0w9t_UYRqr9PoiMWCzg?authuser=0&hl=en&rclk=1"
54.3299604,19.1149496,monopolowy,Galeria Alkoholi REKIN,https://www.google.com/maps/place/Galeria+Alkoholi+REKIN/data=!4m7!3m6!1s0x46fd3f7bcc651235:0xef6ea885dce0ffec!8m2!3d54.3299604!4d19.1149496!16s%2Fg%2F11g9k1yhff!19sChIJNRJlzHs__UYR7P_g3IWobu8?authuser=0&hl=en&rclk=1
54.3227191,18.5115885,monopolowy,Delikatesy Paweł,https://www.google.com/maps/place/Delikatesy+Pawe%C5%82/data=!4m7!3m6!1s0x46fd767a1f6b01cf:0xdaa9fde464109dc8!8m2!3d54.3227191!4d18.5115885!16s%2Fg%2F12mkvn2xw!19sChIJzwFrH3p2_UYRyJ0QZOT9qdo?authuser=0&hl=en&rclk=1
54.3159727,18.5915814,monopolowy,Sklep spożywczo-monopolowy Zielony Domek,https://www.google.com/maps/place/Sklep+spo%C5%BCywczo-monopolowy+Zielony+Domek/data=!4m7!3m6!1s0x46fd75440a8b39af:0xbd21f3f9b5c5bc4d!8m2!3d54.3159727!4d18.5915814!16s%2Fg%2F11jds651fs!19sChIJrzmLCkR1_UYRTbzFtfnzIb0?authuser=0&hl=en&rclk=1
54.3220612,18.5613485,monopolowy,Żabka,https://www.google.com/maps/place/%C5%BBabka/data=!4m7!3m6!1s0x46fd75a07f0acfad:0xa2de09682bf6b80d!8m2!3d54.3220612!4d18.5613485!16s%2Fg%2F11h3xc6t_m!19sChIJrc8Kf6B1_UYRDbj2K2gJ3qI?authuser=0&hl=en&rclk=1
54.3142126,18.6025057,monopolowy,Sklep monopolowy ABO,https://www.google.com/maps/place/Sklep+monopolowy+ABO/data=!4m7!3m6!1s0x46fd73320c1ea9bd:0x4082c0d4eed77627!8m2!3d54.3142126!4d18.6025057!16s%2Fg%2F11qptxq0xl!19sChIJvakeDDJz_UYRJ3bX7tTAgkA?authuser=0&hl=en&rclk=1
54.3261697,18.6107594,monopolowy,Al.Capone,https://www.google.com/maps/place/Al.Capone/data=!4m7!3m6!1s0x46fd739ebf2cfc1d:0xd370741bcee40b68!8m2!3d54.3261697!4d18.6107594!16s%2Fg%2F11kcbgsvpx!19sChIJHfwsv55z_UYRaAvkzht0cNM?authuser=0&hl=en&rclk=1
54.326009,18.633346,monopolowy,Żabka,https://www.google.com/maps/place/%C5%BBabka/data=!4m7!3m6!1s0x46fd7316bc541afb:0x15afe091ab4e4140!8m2!3d54.326009!4d18.633346!16s%2Fg%2F11t5twthz9!19sChIJ-xpUvBZz_UYRQEFOq5HgrxU?authuser=0&hl=en&rclk=1
54.3287792,18.6352354,monopolowy,Zieliński Witold. Sklep monopolowy,https://www.google.com/maps/place/Zieli%C5%84ski+Witold.+Sklep+monopolowy/data=!4m7!3m6!1s0x46fd73eaf7c80bd1:0xc0f000181437688d!8m2!3d54.3287792!4d18.6352354!16s%2Fg%2F1tmz5mvw!19sChIJ0QvI9-pz_UYRjWg3FBgA8MA?authuser=0&hl=en&rclk=1
54.3259366,18.7463405,monopolowy,Biedronka,https://www.google.com/maps/place/Biedronka/data=!4m7!3m6!1s0x46fd6d87dca63eff:0xf3f59e7ad8f3ee16!8m2!3d54.3259366!4d18.7463405!16s%2Fg%2F11b5wn5kq2!19sChIJ_z6m3Idt_UYRFu7z2Hqe9fM?authuser=0&hl=en&rclk=1
54.3412566,18.3745703,monopolowy,Alkonet,https://www.google.com/maps/place/Alkonet/data=!4m7!3m6!1s0x6cea9d995f43ba5d:0xbcf5dfc5f89f56f2!8m2!3d54.3412566!4d18.3745703!16s%2Fg%2F11sp957v11!19sChIJXbpDX5md6mwR8laf-MXf9bw?authuser=0&hl=en&rclk=1
54.265558,18.538279,monopolowy,"Sklep spożywczo-monopolowy ""Fenix""",https://www.google.com/maps/place/Sklep+spo%C5%BCywczo-monopolowy+%22Fenix%22/data=!4m7!3m6!1s0x46fd773a8db997bf:0xa8bbc55bd3b302a9!8m2!3d54.265558!4d18.538279!16s%2Fg%2F11f4kp94b5!19sChIJv5e5jTp3_UYRqQKz01vFu6g?authuser=0&hl=en&rclk=1
54.2698601,18.4688159,monopolowy,Al.Capone,https://www.google.com/maps/place/Al.Capone/data=!4m7!3m6!1s0x46fd771f5eb9dd97:0x7e966cc652f055b4!8m2!3d54.2698601!4d18.4688159!16s%2Fg%2F11r_thcjxy!19sChIJl925Xh93_UYRtFXwUsZsln4?authuser=0&hl=en&rclk=1
54.314413,18.569996,monopolowy,Żabka,https://www.google.com/maps/place/%C5%BBabka/data=!4m7!3m6!1s0x46fd741fe036ce0d:0xfd048bf81be674ca!8m2!3d54.314413!4d18.569996!16s%2Fg%2F1tf06c3j!19sChIJDc424B90_UYRynTmG_iLBP0?authuser=0&hl=en&rclk=1
54.3107381,18.5666953,monopolowy,Biedronka,https://www.google.com/maps/place/Biedronka/data=!4m7!3m6!1s0x46fd76a4fa70e147:0x926b66a949d4f848!8m2!3d54.3107381!4d18.5666953!16s%2Fg%2F1hg4rc1wr!19sChIJR-Fw-qR2_UYRSPjUSalma5I?authuser=0&hl=en&rclk=1
54.308784,18.5854201,monopolowy,Żabka,https://www.google.com/maps/place/%C5%BBabka/data=!4m7!3m6!1s0x46fd773c6404eb5d:0x7e1f917380aef8c3!8m2!3d54.308784!4d18.5854201!16s%2Fg%2F11sr0_jsdd!19sChIJXesEZDx3_UYRw_iugHORH34?authuser=0&hl=en&rclk=1
54.2138298,18.9502401,monopolowy,"Sklep Spozywczo-monopolowy ,,roma""","https://www.google.com/maps/place/Sklep+Spozywczo-monopolowy+,,roma%22/data=!4m7!3m6!1s0x46fd427fc26dcf9d:0x130ddb3f1f9fbc88!8m2!3d54.2138298!4d18.9502401!16s%2Fg%2F11g9qh7vzy!19sChIJnc9twn9C_UYRiLyfHz_bDRM?authuser=0&hl=en&rclk=1"
54.272657,18.5700729,monopolowy,Sklep Spożywczo Monopolowy,https://www.google.com/maps/place/Sklep+Spo%C5%BCywczo+Monopolowy/data=!4m7!3m6!1s0x46fd70d5e98c81b3:0xf09257b76f6d971b!8m2!3d54.272657!4d18.5700729!16s%2Fg%2F11j4t6r20z!19sChIJs4GM6dVw_UYRG5dtb7dXkvA?authuser=0&hl=en&rclk=1
54.2982949,18.5972622,monopolowy,Akacja. Sklep spożywczo - przemysłowy. Bolewska Agnieszka,https://www.google.com/maps/place/Akacja.+Sklep+spo%C5%BCywczo+-+przemys%C5%82owy.+Bolewska+Agnieszka/data=!4m7!3m6!1s0x46fd7145fa0177cb:0x257fc95575e9699d!8m2!3d54.2982949!4d18.5972622!16s%2Fg%2F1ptys5ytg!19sChIJy3cB-kVx_UYRnWnpdVXJfyU?authuser=0&hl=en&rclk=1
54.2652319,18.6635925,monopolowy,Sklep Monopolowo - Spożywczy,https://www.google.com/maps/place/Sklep+Monopolowo+-+Spo%C5%BCywczy/data=!4m7!3m6!1s0x46fd71b6046ae497:0xd0c02f029447692a!8m2!3d54.2652319!4d18.6635925!16s%2Fg%2F11g8zy0w1f!19sChIJl-RqBLZx_UYRKmlHlAIvwNA?authuser=0&hl=en&rclk=1
54.2836034,18.4976646,monopolowy,Lewiatan,https://www.google.com/maps/place/Lewiatan/data=!4m7!3m6!1s0x46fd77003eeeea85:0xf0f0908a6dcee561!8m2!3d54.2836034!4d18.4976646!16s%2Fg%2F11d_83v57w!19sChIJheruPgB3_UYRYeXObYqQ8PA?authuser=0&hl=en&rclk=1
54.2878231,18.5059526,monopolowy,Biedronka,https://www.google.com/maps/place/Biedronka/data=!4m7!3m6!1s0x46fd77aa8d73df75:0x26f376c5aa8c2cda!8m2!3d54.2878231!4d18.5059526!16s%2Fg%2F11b5wjr_dx!19sChIJdd9zjap3_UYR2iyMqsV28yY?authuser=0&hl=en&rclk=1
54.2615738,18.639035,monopolowy,Sklep Monopolowy,https://www.google.com/maps/place/Sklep+Monopolowy/data=!4m7!3m6!1s0x46fd70531f69867f:0x47ba437bb5eece70!8m2!3d54.2615738!4d18.639035!16s%2Fg%2F11fqpbzr73!19sChIJf4ZpH1Nw_UYRcM7utXtDukc?authuser=0&hl=en&rclk=1
54.2565392,18.6521114,monopolowy,Warka Spożywczo Monopolowy,https://www.google.com/maps/place/Warka+Spo%C5%BCywczo+Monopolowy/data=!4m7!3m6!1s0x46fd704bc6e01b27:0x496779dae973a035!8m2!3d54.2565392!4d18.6521114!16s%2Fg%2F11j7xrsfh7!19sChIJJxvgxktw_UYRNaBz6dp5Z0k?authuser=0&hl=en&rclk=1
54.2614365,18.6397463,monopolowy,Galeria Alkoholi,https://www.google.com/maps/place/Galeria+Alkoholi/data=!4m7!3m6!1s0x46fd71e49e4dac95:0x109cf0696176a81b!8m2!3d54.2614365!4d18.6397463!16s%2Fg%2F11h57xwhjy!19sChIJlaxNnuRx_UYRG6h2YWnwnBA?authuser=0&hl=en&rclk=1
54.2717647,18.467599,monopolowy,Żabka,https://www.google.com/maps/place/%C5%BBabka/data=!4m7!3m6!1s0x46fd7789cdc40d0f:0xe2f3705b1de6cbdb!8m2!3d54.2717647!4d18.467599!16s%2Fg%2F11j81f0pwc!19sChIJDw3EzYl3_UYR28vmHVtw8-I?authuser=0&hl=en&rclk=1
54.26964,18.6100599,monopolowy,Delikatesy Centrum Rotmanka,https://www.google.com/maps/place/Delikatesy+Centrum+Rotmanka/data=!4m7!3m6!1s0x46fd711d08d8bd47:0x6af7dda8e92ea9f2!8m2!3d54.26964!4d18.6100599!16s%2Fg%2F11crzjp18b!19sChIJR73YCB1x_UYR8qku6ajd92o?authuser=0&hl=en&rclk=1
54.2760349,18.6373728,monopolowy,Bartex Wine&Spirits,https://www.google.com/maps/place/Bartex+Wine%26Spirits/data=!4m7!3m6!1s0x46fd71a7f2b5b93b:0x4fdcf446a99bb05e!8m2!3d54.2760349!4d18.6373728!16s%2Fg%2F11h53vwgxx!19sChIJO7m18qdx_UYRXrCbqUb03E8?authuser=0&hl=en&rclk=1
54.270095,18.6265165,monopolowy,Farma Chmielu Craft Beer,https://www.google.com/maps/place/Farma+Chmielu+Craft+Beer/data=!4m7!3m6!1s0x46fd71013aab5a87:0xf788dfd6fd17c71a!8m2!3d54.270095!4d18.6265165!16s%2Fg%2F11c2n9xzby!19sChIJh1qrOgFx_UYRGscX_dbfiPc?authuser=0&hl=en&rclk=1
54.2703534,18.6259187,monopolowy,Żabka,https://www.google.com/maps/place/%C5%BBabka/data=!4m7!3m6!1s0x46fd7101369a3f51:0x9c7c47f03c1db8f!8m2!3d54.2703534!4d18.6259187!16s%2Fg%2F11g03mtk0x!19sChIJUT-aNgFx_UYRj9vBA3_Exwk?authuser=0&hl=en&rclk=1
