lat,lon,type,title,link
54.439997,18.5760431,muzeum,Sopot Museum,https://www.google.com/maps/place/Sopot+Museum/data=!4m7!3m6!1s0x46fd0aecd84cb1ef:0xa63acfe4a19a30a5!8m2!3d54.439997!4d18.5760431!16s%2Fg%2F1216f54m!19sChIJ77FM2OwK_UYRpTCaoeTPOqY?authuser=0&hl=en&rclk=1
54.411003,18.5602019,muzeum,"Department of Modern Art, the National Museum in Gdansk","https://www.google.com/maps/place/Department+of+Modern+Art,+the+National+Museum+in+Gdansk/data=!4m7!3m6!1s0x46fd753518568d51:0x72a984c2b9adaf97!8m2!3d54.411003!4d18.5602019!16s%2Fg%2F1wnd_rsr!19sChIJUY1WGDV1_UYRl6-tucKEqXI?authuser=0&hl=en&rclk=1"
54.5161667,18.5471363,muzeum,Gdynia City Museum,https://www.google.com/maps/place/Gdynia+City+Museum/data=!4m7!3m6!1s0x46fda73a07b0b431:0x89a9c14646e07ca7!8m2!3d54.5161667!4d18.5471363!16s%2Fg%2F1235ks2g!19sChIJMbSwBzqn_UYRp3zgRkbBqYk?authuser=0&hl=en&rclk=1
54.502096,18.53557,muzeum,Magia Kaszub. Muzeum baśni,https://www.google.com/maps/place/Magia+Kaszub.+Muzeum+ba%C5%9Bni/data=!4m7!3m6!1s0x46fda0cc19444c45:0x3a626d6357b31059!8m2!3d54.502096!4d18.53557!16s%2Fg%2F1tg_857g!19sChIJRUxEGcyg_UYRWRCzV2NtYjo?authuser=0&hl=en&rclk=1
54.4519844,18.5606441,muzeum,Grodzisko w Sopocie - oddział Muzeum Archeologicznego w Gdańsku,https://www.google.com/maps/place/Grodzisko+w+Sopocie+-+oddzia%C5%82+Muzeum+Archeologicznego+w+Gda%C5%84sku/data=!4m7!3m6!1s0x46fd0a869094445d:0x96522732a8ab731e!8m2!3d54.4519844!4d18.5606441!16s%2Fg%2F1tz94flv!19sChIJXUSUkIYK_UYRHnOrqDInUpY?authuser=0&hl=en&rclk=1
54.4115474,18.5593249,muzeum,Spichlerz Opacki - Muzeum Etnograficzne,https://www.google.com/maps/place/Spichlerz+Opacki+-+Muzeum+Etnograficzne/data=!4m7!3m6!1s0x46fd7534d4e8a73f:0xd025a115b50362ac!8m2!3d54.4115474!4d18.5593249!16s%2Fg%2F12321ghc!19sChIJP6fo1DR1_UYRrGIDtRWhJdA?authuser=0&hl=en&rclk=1
54.5195615,18.5511764,muzeum,"Ship Museum ORP ""Błyskawica""",https://www.google.com/maps/place/Ship+Museum+ORP+%22B%C5%82yskawica%22/data=!4m7!3m6!1s0x46fda73920563239:0x96e9dbf0ecdf66f5!8m2!3d54.5195615!4d18.5511764!16zL20vMDIyMzhx!19sChIJOTJWIDmn_UYR9Wbf7PDb6ZY?authuser=0&hl=en&rclk=1
54.515768,18.5482399,muzeum,Naval Museum in Gdynia,https://www.google.com/maps/place/Naval+Museum+in+Gdynia/data=!4m7!3m6!1s0x46fda73a03bd319d:0x3726e1d40ffeeb39!8m2!3d54.515768!4d18.5482399!16s%2Fg%2F11b60rwzt2!19sChIJnTG9Azqn_UYROev-D9ThJjc?authuser=0&hl=en&rclk=1
54.4375254,18.5796025,muzeum,Muzeum rybactwa,https://www.google.com/maps/place/Muzeum+rybactwa/data=!4m7!3m6!1s0x46fd0b484d8dae6f:0x520bfa86b2e011e9!8m2!3d54.4375254!4d18.5796025!16s%2Fg%2F11fsk18cx4!19sChIJb66NTUgL_UYR6RHgsob6C1I?authuser=0&hl=en&rclk=1
54.4371855,18.5800083,muzeum,Mini Fishing Museum,https://www.google.com/maps/place/Mini+Fishing+Museum/data=!4m7!3m6!1s0x46fd0aec0da27fa9:0x13f7848d1fdbc514!8m2!3d54.4371855!4d18.5800083!16s%2Fg%2F11cmdrl3qp!19sChIJqX-iDewK_UYRFMXbH42E9xM?authuser=0&hl=en&rclk=1
54.4947068,18.538626,muzeum,Experyment Science Centre,https://www.google.com/maps/place/Experyment+Science+Centre/data=!4m7!3m6!1s0x46fda0c8f6a33105:0x942e03e63885c086!8m2!3d54.4947068!4d18.538626!16s%2Fg%2F11b6b4q2hd!19sChIJBTGj9sig_UYRhsCFOOYDLpQ?authuser=0&hl=en&rclk=1
54.445435,18.568097,muzeum,Sopot Wax Museum,https://www.google.com/maps/place/Sopot+Wax+Museum/data=!4m7!3m6!1s0x46fd0a8e139306f9:0x137a703f91e4f956!8m2!3d54.445435!4d18.568097!16s%2Fg%2F11g8llj9mx!19sChIJ-QaTE44K_UYRVvnkkT9wehM?authuser=0&hl=en&rclk=1
54.4453973,18.569428,muzeum,State Gallery of Art,https://www.google.com/maps/place/State+Gallery+of+Art/data=!4m7!3m6!1s0x43d8ab214f2e4d05:0x21308000088f0620!8m2!3d54.4453973!4d18.569428!16s%2Fg%2F122918z_!19sChIJBU0uTyGr2EMRIAaPCACAMCE?authuser=0&hl=en&rclk=1
54.3950615,18.5763766,muzeum,Muzeum Inkluzji w Bursztynie,https://www.google.com/maps/place/Muzeum+Inkluzji+w+Bursztynie/data=!4m7!3m6!1s0x46fd75279ec523b1:0x91cc7020ac944393!8m2!3d54.3950615!4d18.5763766!16s%2Fg%2F11c6mdksry!19sChIJsSPFnid1_UYRk0OUrCBwzJE?authuser=0&hl=en&rclk=1
54.3987763,18.5717103,muzeum,Muzeum Kryminalistyki w Gdańsku,https://www.google.com/maps/place/Muzeum+Kryminalistyki+w+Gda%C5%84sku/data=!4m7!3m6!1s0x46fd752f53e3e1bf:0x3b47ecf17a8d3df!8m2!3d54.3987763!4d18.5717103!16s%2Fg%2F1203nftqd!19sChIJv-HjUy91_UYR39OoF89-tAM?authuser=0&hl=en&rclk=1
54.4390625,18.5559699,muzeum,Pomnik niczego,https://www.google.com/maps/place/Pomnik+niczego/data=!4m7!3m6!1s0x46fd0b127f78ee1b:0x5537d53588f5a7f9!8m2!3d54.4390625!4d18.5559699!16s%2Fg%2F11fhzqqdb4!19sChIJG-54fxIL_UYR-af1iDXVN1U?authuser=0&hl=en&rclk=1
54.3454255,18.6468929,muzeum,National Museum in Gdańsk,https://www.google.com/maps/place/National+Museum+in+Gda%C5%84sk/data=!4m7!3m6!1s0x46fd739896ca2a5b:0x945e275dc48a6d19!8m2!3d54.3454255!4d18.6468929!16s%2Fm%2F0crc_lq!19sChIJWyrKlphz_UYRGW2KxF0nXpQ?authuser=0&hl=en&rclk=1
54.4089613,18.6388274,muzeum,Miejsce po krańcówce linii tramwajowej prawdopodobnie do I wojny światowej,https://www.google.com/maps/place/Miejsce+po+kra%C5%84c%C3%B3wce+linii+tramwajowej+prawdopodobnie+do+I+wojny+%C5%9Bwiatowej/data=!4m7!3m6!1s0x46fd0ba6f335b4bf:0x97602dc3354ab4ba!8m2!3d54.4089613!4d18.6388274!16s%2Fg%2F11qh1g22w7!19sChIJv7Q186YL_UYRurRKNcMtYJc?authuser=0&hl=en&rclk=1
54.3839254,18.5882041,muzeum,Miejsce po pierwszym przebiegu tramwaju elektrycznego Wrzeszcz-Oliwa (od 1901 do ok. 1927 r.),https://www.google.com/maps/place/Miejsce+po+pierwszym+przebiegu+tramwaju+elektrycznego+Wrzeszcz-Oliwa+(od+1901+do+ok.+1927+r.)/data=!4m7!3m6!1s0x46fd75693210fbf9:0x48ef4305bf8e03af!8m2!3d54.3839254!4d18.5882041!16s%2Fg%2F11qg1nc5fz!19sChIJ-fsQMml1_UYRrwOOvwVD70g?authuser=0&hl=en&rclk=1
54.3560413,18.6599765,muzeum,Museum of the Second World War,https://www.google.com/maps/place/Museum+of+the+Second+World+War/data=!4m7!3m6!1s0x46fd730c9e812c73:0xa0b4c3b4d2e63ae0!8m2!3d54.3560413!4d18.6599765!16s%2Fm%2F0h3trmj!19sChIJcyyBngxz_UYR4Drm0rTDtKA?authuser=0&hl=en&rclk=1
54.4066223,18.5391808,muzeum,monumental water forge of Oliwa,https://www.google.com/maps/place/monumental+water+forge+of+Oliwa/data=!4m7!3m6!1s0x46fd754ef92c74b1:0xda1522032010af63!8m2!3d54.4066223!4d18.5391808!16s%2Fg%2F1223q_sb!19sChIJsXQs-U51_UYRY68QIAMiFdo?authuser=0&hl=en&rclk=1
54.4093808,18.5723483,muzeum,Miejsce po bocznicy Międzynarodowych Targów Gdańskich (od rozjazdu 201 do 202),https://www.google.com/maps/place/Miejsce+po+bocznicy+Mi%C4%99dzynarodowych+Targ%C3%B3w+Gda%C5%84skich+(od+rozjazdu+201+do+202)/data=!4m7!3m6!1s0x46fd7593e74bf557:0x48db4f47a34b842d!8m2!3d54.4093808!4d18.5723483!16s%2Fg%2F11q8wkxf2f!19sChIJV_VL55N1_UYRLYRLo0dP20g?authuser=0&hl=en&rclk=1
54.4086771,18.5717388,muzeum,Dawna ładownia stacji Oliwa,https://www.google.com/maps/place/Dawna+%C5%82adownia+stacji+Oliwa/data=!4m7!3m6!1s0x46fd7597fddbd841:0xac058a9492e93924!8m2!3d54.4086771!4d18.5717388!16s%2Fg%2F11rsfh_6kb!19sChIJQdjb_Zd1_UYRJDnpkpSKBaw?authuser=0&hl=en&rclk=1
54.4074793,18.5727234,muzeum,Dawna nastawnia wykonawcza Ola2,https://www.google.com/maps/place/Dawna+nastawnia+wykonawcza+Ola2/data=!4m7!3m6!1s0x46fd75480b8b75cf:0xbd874ae28f0c5506!8m2!3d54.4074793!4d18.5727234!16s%2Fg%2F11rsf8xl5j!19sChIJz3WLC0h1_UYRBlUMj-JKh70?authuser=0&hl=en&rclk=1
54.412158,18.565618,muzeum,Młyn VI,https://www.google.com/maps/place/M%C5%82yn+VI/data=!4m7!3m6!1s0x46fd0bf7b691b63b:0xf12156aa67cfbadd!8m2!3d54.412158!4d18.565618!16s%2Fg%2F11hzyykcym!19sChIJO7aRtvcL_UYR3brPZ6pWIfE?authuser=0&hl=en&rclk=1
54.4078436,18.6438265,muzeum,Fort w Brzeźnie i stanowiska artylerii dalekosiężnej,https://www.google.com/maps/place/Fort+w+Brze%C5%BAnie+i+stanowiska+artylerii+dalekosi%C4%99%C5%BCnej/data=!4m7!3m6!1s0x46fd0b5041418ef3:0xd62b0d6490c9f97d!8m2!3d54.4078436!4d18.6438265!16s%2Fg%2F11dfgssz8g!19sChIJ845BQVAL_UYRffnJkGQNK9Y?authuser=0&hl=en&rclk=1
54.4079318,18.6379398,muzeum,Hevelianum. Dom Zdrojowy,https://www.google.com/maps/place/Hevelianum.+Dom+Zdrojowy/data=!4m7!3m6!1s0x46fd0b4fb2119691:0x2710258bfe66a733!8m2!3d54.4079318!4d18.6379398!16s%2Fg%2F11f03m3l6z!19sChIJkZYRsk8L_UYRM6dm_oslECc?authuser=0&hl=en&rclk=1
54.4035775,18.6483371,muzeum,Miejsce po nastawni wykonawczej Zp3,https://www.google.com/maps/place/Miejsce+po+nastawni+wykonawczej+Zp3/data=!4m7!3m6!1s0x46fd0bad8c9c0d61:0xf722223526dd00e7!8m2!3d54.4035775!4d18.6483371!16s%2Fg%2F11q91hqp_w!19sChIJYQ2cjK0L_UYR5wDdJjUiIvc?authuser=0&hl=en&rclk=1
54.4066017,18.668584,muzeum,Westerplatte Museum,https://www.google.com/maps/place/Westerplatte+Museum/data=!4m7!3m6!1s0x46fd0cbac9171a89:0x82585cd83b78da2c!8m2!3d54.4066017!4d18.668584!16s%2Fg%2F11cm_q5vdw!19sChIJiRoXyboM_UYRLNp4O9hcWII?authuser=0&hl=en&rclk=1
54.3953458,18.6413795,muzeum,Miejsce po nastawni wykonawczej Zp2,https://www.google.com/maps/place/Miejsce+po+nastawni+wykonawczej+Zp2/data=!4m7!3m6!1s0x46fd75a75cb215e3:0x8d8b900c1db92130!8m2!3d54.3953458!4d18.6413795!16s%2Fg%2F11q95_rkr_!19sChIJ4xWyXKd1_UYRMCG5HQyQi40?authuser=0&hl=en&rclk=1
54.3906728,18.6393337,muzeum,Muzeum Lechii Gdańsk,https://www.google.com/maps/place/Muzeum+Lechii+Gda%C5%84sk/data=!4m7!3m6!1s0x46fd75415ac18cff:0x91af18508241453e!8m2!3d54.3906728!4d18.6393337!16s%2Fg%2F11gk8qs3lr!19sChIJ_4zBWkF1_UYRPkVBglAYr5E?authuser=0&hl=en&rclk=1
54.361313,18.64974,muzeum,European Solidarity Centre,https://www.google.com/maps/place/European+Solidarity+Centre/data=!4m7!3m6!1s0x46fd73710d9770f9:0xe2010c5f4e6145ad!8m2!3d54.361313!4d18.64974!16s%2Fg%2F120pnc0n!19sChIJ-XCXDXFz_UYRrUVhTl8MAeI?authuser=0&hl=en&rclk=1
54.36655,18.6324009,muzeum,Museum of Medical University of Gdańsk,https://www.google.com/maps/place/Museum+of+Medical+University+of+Gda%C5%84sk/data=!4m7!3m6!1s0x46fd73254d582417:0x2da557159becec85!8m2!3d54.36655!4d18.6324009!16s%2Fg%2F11b6sz08wk!19sChIJFyRYTSVz_UYRhezsmxVXpS0?authuser=0&hl=en&rclk=1
54.36118,18.3888745,muzeum,Volkswagen Muzeum,https://www.google.com/maps/place/Volkswagen+Muzeum/data=!4m7!3m6!1s0x46fd9e90eddcc177:0x3d5f66a39e8f494!8m2!3d54.36118!4d18.3888745!16s%2Fg%2F1pzpdd390!19sChIJd8Hc7ZCe_UYRlPToOWr21QM?authuser=0&hl=en&rclk=1
54.395556,18.52014,muzeum,Pomnik przyrody: soplówka jeżowata,https://www.google.com/maps/place/Pomnik+przyrody:+sopl%C3%B3wka+je%C5%BCowata/data=!4m7!3m6!1s0x46fd755d86817bdf:0xb0f878aaf295bd3!8m2!3d54.395556!4d18.52014!16s%2Fg%2F11c5qp1w_c!19sChIJ33uBhl11_UYR01spr4qHDws?authuser=0&hl=en&rclk=1
54.401229,18.5758444,muzeum,Dawna nastawnia dysponująca GOl,https://www.google.com/maps/place/Dawna+nastawnia+dysponuj%C4%85ca+GOl/data=!4m7!3m6!1s0x46fd75ac2dc0a195:0x114532b28f6e07cd!8m2!3d54.401229!4d18.5758444!16s%2Fg%2F11nxqrb31f!19sChIJlaHALax1_UYRzQduj7IyRRE?authuser=0&hl=en&rclk=1
54.3875588,18.5938373,muzeum,Starotorze bocznicy ZKM stacji Wrzeszcz,https://www.google.com/maps/place/Starotorze+bocznicy+ZKM+stacji+Wrzeszcz/data=!4m7!3m6!1s0x46fd751aa3ab982b:0xc35791704e271bb!8m2!3d54.3875588!4d18.5938373!16s%2Fg%2F11nxp8s5r9!19sChIJK5iroxp1_UYRu3HiBBd5NQw?authuser=0&hl=en&rclk=1
54.3855734,18.6008658,muzeum,Starotorze bocznicy OPHO (dawny tor boczny 105),https://www.google.com/maps/place/Starotorze+bocznicy+OPHO+(dawny+tor+boczny+105)/data=!4m7!3m6!1s0x46fd7535fd016123:0x47cb249f1310e84c!8m2!3d54.3855734!4d18.6008658!16s%2Fg%2F11rs9x_c33!19sChIJI2EB_TV1_UYRTOgQE58ky0c?authuser=0&hl=en&rclk=1
54.3797905,18.6107607,muzeum,Dawna nastawnia wykonawcza bramowa Wr1,https://www.google.com/maps/place/Dawna+nastawnia+wykonawcza+bramowa+Wr1/data=!4m7!3m6!1s0x46fd75f6a4ccc973:0x9aa3a7b927a72078!8m2!3d54.3797905!4d18.6107607!16s%2Fg%2F11mk12qmqz!19sChIJc8nMpPZ1_UYReCCnJ7mno5o?authuser=0&hl=en&rclk=1
54.4019372,18.6472552,muzeum,Dawna waga kolejowa stacji Zaspa Towarowa,https://www.google.com/maps/place/Dawna+waga+kolejowa+stacji+Zaspa+Towarowa/data=!4m7!3m6!1s0x46fd0bf870b28243:0xe6fd0d8c2173468f!8m2!3d54.4019372!4d18.6472552!16s%2Fg%2F11rsp6_dwc!19sChIJQ4KycPgL_UYRj0ZzIYwN_eY?authuser=0&hl=en&rclk=1
54.3949954,18.670495,muzeum,Muzeum Sibir Pro Memento,https://www.google.com/maps/place/Muzeum+Sibir+Pro+Memento/data=!4m7!3m6!1s0x46fd0cb2db956c39:0xc55b68d78327c0c4!8m2!3d54.3949954!4d18.670495!16s%2Fg%2F11clw75rk9!19sChIJOWyV27IM_UYRxMAng9doW8U?authuser=0&hl=en&rclk=1
54.403108,18.6643039,muzeum,muzeum westerplatte,https://www.google.com/maps/place/muzeum+westerplatte/data=!4m7!3m6!1s0x46fd0ca92b799955:0x8db0ce6f5d0134a!8m2!3d54.403108!4d18.6643039!16s%2Fg%2F11hyxnf404!19sChIJVZl5K6kM_UYRShPQ9eYM2wg?authuser=0&hl=en&rclk=1
54.3963433,18.6719846,muzeum,dawny cmentarz ewangelicki,https://www.google.com/maps/place/dawny+cmentarz+ewangelicki/data=!4m7!3m6!1s0x46fd0dd8ae292a9b:0xd99756d8d16bfe1e!8m2!3d54.3963433!4d18.6719846!16s%2Fg%2F11hqf9vpzx!19sChIJmyoprtgN_UYRHv5r0dhWl9k?authuser=0&hl=en&rclk=1
54.3524717,18.6507431,muzeum,Muzeum Historyczne Miasta Gdanska,https://www.google.com/maps/place/Muzeum+Historyczne+Miasta+Gdanska/data=!4m7!3m6!1s0x46fd732483038c3d:0x3c9c9cdae65397c3!8m2!3d54.3524717!4d18.6507431!16s%2Fg%2F11gy4l4ff6!19sChIJPYwDgyRz_UYRw5dT5tqcnDw?authuser=0&hl=en&rclk=1
54.3550632,18.6566634,muzeum,Museum of the Polish Post,https://www.google.com/maps/place/Museum+of+the+Polish+Post/data=!4m7!3m6!1s0x46fd7374b573986f:0xbf226dc8fcf522a4!8m2!3d54.3550632!4d18.6566634!16s%2Fg%2F1tcvmzl0!19sChIJb5hztXRz_UYRpCL1_MhtIr8?authuser=0&hl=en&rclk=1
54.350899,18.659019,muzeum,National Maritime Museum in Gdańsk,https://www.google.com/maps/place/National+Maritime+Museum+in+Gda%C5%84sk/data=!4m7!3m6!1s0x46fd730a7c0d7881:0x8ed00abcc5aaa3d2!8m2!3d54.350899!4d18.659019!16s%2Fg%2F123dmf5x7!19sChIJgXgNfApz_UYR0qOqxbwK0I4?authuser=0&hl=en&rclk=1
54.3626025,18.6550665,muzeum,Morska Fundacja Historyczna Wystawa,https://www.google.com/maps/place/Morska+Fundacja+Historyczna+Wystawa/data=!4m7!3m6!1s0x46fd7392f23ba96f:0xd5815da0ba99a7c3!8m2!3d54.3626025!4d18.6550665!16s%2Fg%2F11pdrxn7m1!19sChIJb6k78pJz_UYRw6eZuqBdgdU?authuser=0&hl=en&rclk=1
54.353979,18.64996,muzeum,Amber Museum,https://www.google.com/maps/place/Amber+Museum/data=!4m7!3m6!1s0x46fd739e5eab548d:0xed6d679f65583066!8m2!3d54.353979!4d18.64996!16s%2Fg%2F122nc6vj!19sChIJjVSrXp5z_UYRZjBYZZ9nbe0?authuser=0&hl=en&rclk=1
54.2972678,18.4544499,muzeum,Muzeum w Starej Papierni.,https://www.google.com/maps/place/Muzeum+w+Starej+Papierni./data=!4m7!3m6!1s0x46fd762dfac1841d:0xb75d18d729f189ce!8m2!3d54.2972678!4d18.4544499!16s%2Fg%2F11gcx_lnkr!19sChIJHYTB-i12_UYRzonxKdcYXbc?authuser=0&hl=en&rclk=1
54.3761741,18.5284401,muzeum,Dawny punkt celny,https://www.google.com/maps/place/Dawny+punkt+celny/data=!4m7!3m6!1s0x46fd7574b004a633:0x8c0c5b93e36114ce!8m2!3d54.3761741!4d18.5284401!16s%2Fg%2F11g01vp344!19sChIJM6YEsHR1_UYRzhRh45NbDIw?authuser=0&hl=en&rclk=1
54.3891036,18.5761874,muzeum,"Relikty dawnej kolei kokoszkowej, kamienie podporowe dawnego wiaduktu kolejowego","https://www.google.com/maps/place/Relikty+dawnej+kolei+kokoszkowej,+kamienie+podporowe+dawnego+wiaduktu+kolejowego/data=!4m7!3m6!1s0x46fd74df9e2e3277:0xf2f1519277f58eac!8m2!3d54.3891036!4d18.5761874!16s%2Fg%2F11f2wq1xxh!19sChIJdzIunt90_UYRrI71d5JR8fI?authuser=0&hl=en&rclk=1"
54.3796132,18.6125723,muzeum,"Miejsce po krańcówce linii 9 Wrzeszcz-Brzeźno (późniejszej 5 Wrzeszcz-Nowy Port), 1901-1961","https://www.google.com/maps/place/Miejsce+po+kra%C5%84c%C3%B3wce+linii+9+Wrzeszcz-Brze%C5%BAno+(p%C3%B3%C5%BAniejszej+5+Wrzeszcz-Nowy+Port),+1901-1961/data=!4m7!3m6!1s0x46fd75ffc64e44a5:0x3d0c8e09179d7338!8m2!3d54.3796132!4d18.6125723!16s%2Fg%2F11n_z8mbxz!19sChIJpUROxv91_UYROHOdFwmODD0?authuser=0&hl=en&rclk=1"
54.389614,18.5913841,muzeum,Miejsce po nastawni wykonawczej Wr1 (wcześniej Wr2),https://www.google.com/maps/place/Miejsce+po+nastawni+wykonawczej+Wr1+(wcze%C5%9Bniej+Wr2)/data=!4m7!3m6!1s0x46fd7532af584a77:0xc3cca41ea4c91fc8!8m2!3d54.389614!4d18.5913841!16s%2Fg%2F11q880vqsj!19sChIJd0pYrzJ1_UYRyB_JpB6kzMM?authuser=0&hl=en&rclk=1
54.3868978,18.5952416,muzeum,Miejsce po wadze kolejowej stacji Wrzeszcz,https://www.google.com/maps/place/Miejsce+po+wadze+kolejowej+stacji+Wrzeszcz/data=!4m7!3m6!1s0x46fd7578b5d10477:0x6bb48ab4b90ead97!8m2!3d54.3868978!4d18.5952416!16s%2Fg%2F11rsc7g7yd!19sChIJdwTRtXh1_UYRl60OubSKtGs?authuser=0&hl=en&rclk=1
54.3860526,18.5910051,muzeum,Starotorze pętli tramwajowej Wrzeszcz Szymanowskiego (do 1957 r.),https://www.google.com/maps/place/Starotorze+p%C4%99tli+tramwajowej+Wrzeszcz+Szymanowskiego+(do+1957+r.)/data=!4m7!3m6!1s0x46fd7589ab55ff13:0x26a80f871720037b!8m2!3d54.3860526!4d18.5910051!16s%2Fg%2F11rwp41hmr!19sChIJE_9Vq4l1_UYRewMgF4cPqCY?authuser=0&hl=en&rclk=1
54.3871959,18.5902863,muzeum,tablica pamiątkowa - Główny Urząd Morski,https://www.google.com/maps/place/tablica+pami%C4%85tkowa+-+G%C5%82%C3%B3wny+Urz%C4%85d+Morski/data=!4m7!3m6!1s0x46fd755e23b0dd59:0x53411da2dbf4369d!8m2!3d54.3871959!4d18.5902863!16s%2Fg%2F11kmnmxtj5!19sChIJWd2wI151_UYRnTb026IdQVM?authuser=0&hl=en&rclk=1
54.3824874,18.6277871,muzeum,Miejsce po przystanku Gdańsk Młyniska (Danzig Schellmühl) do 1910 r.,https://www.google.com/maps/place/Miejsce+po+przystanku+Gda%C5%84sk+M%C5%82yniska+(Danzig+Schellm%C3%BChl)+do+1910+r./data=!4m7!3m6!1s0x46fd754f1466a5a1:0x19961b5e113d51a0!8m2!3d54.3824874!4d18.6277871!16s%2Fg%2F11qrqt8585!19sChIJoaVmFE91_UYRoFE9EV4blhk?authuser=0&hl=en&rclk=1
54.3481436,18.6556566,muzeum,Historical Zone Free City Of Gdansk,https://www.google.com/maps/place/Historical+Zone+Free+City+Of+Gdansk/data=!4m7!3m6!1s0x46fd739f965888e7:0x399f1c7b28be9446!8m2!3d54.3481436!4d18.6556566!16s%2Fg%2F113jc7q5m!19sChIJ54hYlp9z_UYRRpS-KHscnzk?authuser=0&hl=en&rclk=1
54.351041,18.657456,muzeum,Ośrodek Kultury Morskiej. Oddział Narodowego Muzeum Morskiego,https://www.google.com/maps/place/O%C5%9Brodek+Kultury+Morskiej.+Oddzia%C5%82+Narodowego+Muzeum+Morskiego/data=!4m7!3m6!1s0x46fd730a9ca7f079:0x101716e70ce5badd!8m2!3d54.351041!4d18.657456!16s%2Fg%2F12hnrrj36!19sChIJefCnnApz_UYR3brlDOcWFxA?authuser=0&hl=en&rclk=1
54.3698729,18.4615057,muzeum,Zbiornik retencyjny,https://www.google.com/maps/place/Zbiornik+retencyjny/data=!4m7!3m6!1s0x46fd9f2f2f148315:0x5fcc4f6fbde91504!8m2!3d54.3698729!4d18.4615057!16s%2Fg%2F11k637rcsc!19sChIJFYMULy-f_UYRBBXpvW9PzF8?authuser=0&hl=en&rclk=1
54.3565426,18.6389617,muzeum,Hevelianum,https://www.google.com/maps/place/Hevelianum/data=!4m7!3m6!1s0x46fd7377bf924a4f:0xed541df1e3c661c9!8m2!3d54.3565426!4d18.6389617!16s%2Fg%2F121cb1f_!19sChIJT0qSv3dz_UYRyWHG4_EdVO0?authuser=0&hl=en&rclk=1
54.3706649,18.6424814,muzeum,Dawny budynek dyrekcji (Verwaltungsgebäude) Gdańskiej Fabryki Wagonów,https://www.google.com/maps/place/Dawny+budynek+dyrekcji+(Verwaltungsgeb%C3%A4ude)+Gda%C5%84skiej+Fabryki+Wagon%C3%B3w/data=!4m7!3m6!1s0x46fd736fb929f7eb:0xf3410bc2a6f80383!8m2!3d54.3706649!4d18.6424814!16s%2Fg%2F11t3h_0xwb!19sChIJ6_cpuW9z_UYRgwP4psILQfM?authuser=0&hl=en&rclk=1
54.3713382,18.6412636,muzeum,Dawny warsztat pudeł i podwozi wagonowych Gdańskiej Fabryki Wagonów,https://www.google.com/maps/place/Dawny+warsztat+pude%C5%82+i+podwozi+wagonowych+Gda%C5%84skiej+Fabryki+Wagon%C3%B3w/data=!4m7!3m6!1s0x46fd7359f60bfcb9:0x1c36440055a8c4b4!8m2!3d54.3713382!4d18.6412636!16s%2Fg%2F11t3lzb6xd!19sChIJufwL9llz_UYRtMSoVQBENhw?authuser=0&hl=en&rclk=1
54.3553366,18.6438945,muzeum,Miejsce po bufecie peronowym (Erfrischungs-Halle),https://www.google.com/maps/place/Miejsce+po+bufecie+peronowym+(Erfrischungs-Halle)/data=!4m7!3m6!1s0x46fd7391de7972f9:0x91d9eb4c3e357364!8m2!3d54.3553366!4d18.6438945!16s%2Fg%2F11sgqyj15j!19sChIJ-XJ53pFz_UYRZHM1Pkzr2ZE?authuser=0&hl=en&rclk=1
54.3464165,18.6733267,muzeum,Miejsce po garażu dla drezyn stacji Gdańsk Wąskotorowy,https://www.google.com/maps/place/Miejsce+po+gara%C5%BCu+dla+drezyn+stacji+Gda%C5%84sk+W%C4%85skotorowy/data=!4m7!3m6!1s0x46fd7365dc85cc23:0x1ab5fb897380967a!8m2!3d54.3464165!4d18.6733267!16s%2Fg%2F11sh7k4z70!19sChIJI8yF3GVz_UYRepaAc4n7tRo?authuser=0&hl=en&rclk=1
54.371224,18.7345041,muzeum,schron baterii wiejskiej z 1915 r.,https://www.google.com/maps/place/schron+baterii+wiejskiej+z+1915+r./data=!4m7!3m6!1s0x46fd7342d5073775:0x3fb9a6617cb74f3b!8m2!3d54.371224!4d18.7345041!16s%2Fg%2F11kzwrt74x!19sChIJdTcH1UJz_UYRO0-3fGGmuT8?authuser=0&hl=en&rclk=1
54.3681391,18.7724029,muzeum,Akadmicki Klub Morski,https://www.google.com/maps/place/Akadmicki+Klub+Morski/data=!4m7!3m6!1s0x46fd6d57e8c778e3:0xf6436070e919f737!8m2!3d54.3681391!4d18.7724029!16s%2Fg%2F11cs5p2j7l!19sChIJ43jH6Fdt_UYRN_cZ6XBgQ_Y?authuser=0&hl=en&rclk=1
54.3567569,18.6399762,muzeum,Hevelianum: Wystawa Łamigłówka,https://www.google.com/maps/place/Hevelianum:+Wystawa+%C5%81amig%C5%82%C3%B3wka/data=!4m7!3m6!1s0x46fd7379cdc1e659:0x7098966f6b90cf1e!8m2!3d54.3567569!4d18.6399762!16s%2Fg%2F1q2w0v15c!19sChIJWebBzXlz_UYRHs-Qa2-WmHA?authuser=0&hl=en&rclk=1
54.3488531,18.6463997,muzeum,Niewidzialny Gdańsk Muzeum,https://www.google.com/maps/place/Niewidzialny+Gda%C5%84sk+Muzeum/data=!4m7!3m6!1s0x46fd73fae2882f87:0x4ea658ebebf0561b!8m2!3d54.3488531!4d18.6463997!16s%2Fg%2F11jb1wyk75!19sChIJhy-I4vpz_UYRG1bw6-tYpk4?authuser=0&hl=en&rclk=1
54.3567886,18.6390932,muzeum,Time Machine Exhibition - Fun with History,https://www.google.com/maps/place/Time+Machine+Exhibition+-+Fun+with+History/data=!4m7!3m6!1s0x46fd7379cdd3ea65:0x4b222f6e1bf10865!8m2!3d54.3567886!4d18.6390932!16s%2Fg%2F1q5blpf1f!19sChIJZerTzXlz_UYRZQjxG24vIks?authuser=0&hl=en&rclk=1
54.3564164,18.6388624,muzeum,Schron - Remiza nr 2 Wystawa historyczna „Wehikuł Czasu - Człowiek i Pocisk”,https://www.google.com/maps/place/Schron+-+Remiza+nr+2+Wystawa+historyczna+%E2%80%9EWehiku%C5%82+Czasu+-+Cz%C5%82owiek+i+Pocisk%E2%80%9D/data=!4m7!3m6!1s0x46fd732196f5d411:0xd65ed5ae305074b4!8m2!3d54.3564164!4d18.6388624!16s%2Fg%2F11h555pc5c!19sChIJEdT1liFz_UYRtHRQMK7VXtY?authuser=0&hl=en&rclk=1
54.3564164,18.6388624,muzeum,Schron - Remiza 1874r.,https://www.google.com/maps/place/Schron+-+Remiza+1874r./data=!4m7!3m6!1s0x46fd73f3c5ebe611:0x559e4f575b9d8179!8m2!3d54.3564164!4d18.6388624!16s%2Fg%2F11hzxs9fjg!19sChIJEebrxfNz_UYReYGdW1dPnlU?authuser=0&hl=en&rclk=1
54.3539325,18.6439571,muzeum,Dawna rampa ładunkowa stacji Gdańsk Główny,https://www.google.com/maps/place/Dawna+rampa+%C5%82adunkowa+stacji+Gda%C5%84sk+G%C5%82%C3%B3wny/data=!4m7!3m6!1s0x46fd733489ee76cf:0xc06f362a797a33ae!8m2!3d54.3539325!4d18.6439571!16s%2Fg%2F11sgp3c3mx!19sChIJz3buiTRz_UYRrjN6eSo2b8A?authuser=0&hl=en&rclk=1
54.3582855,18.6553625,muzeum,Starotorze linii tramwajowej 5 Łąkowa - Targ Rybny - Dworzec Główny (1899-1922),https://www.google.com/maps/place/Starotorze+linii+tramwajowej+5+%C5%81%C4%85kowa+-+Targ+Rybny+-+Dworzec+G%C5%82%C3%B3wny+(1899-1922)/data=!4m7!3m6!1s0x46fd739edbdf96d9:0x995b1bf04b08145f!8m2!3d54.3582855!4d18.6553625!16s%2Fg%2F11tk59td1x!19sChIJ2Zbf255z_UYRXxQIS_AbW5k?authuser=0&hl=en&rclk=1
54.3573844,18.6593319,muzeum,Muzeum II Wojny Światowej 01,https://www.google.com/maps/place/Muzeum+II+Wojny+%C5%9Awiatowej+01/data=!4m7!3m6!1s0x46fd730cc822e4a1:0x394633ac2cafd538!8m2!3d54.3573844!4d18.6593319!16s%2Fg%2F11gyc35m_h!19sChIJoeQiyAxz_UYRONWvLKwzRjk?authuser=0&hl=en&rclk=1
54.357652,18.6587624,muzeum,Muzeum II Wojny Światowej 02,https://www.google.com/maps/place/Muzeum+II+Wojny+%C5%9Awiatowej+02/data=!4m7!3m6!1s0x46fd7373356c76a5:0xef4ba615a1908335!8m2!3d54.357652!4d18.6587624!16s%2Fg%2F11h2p71brf!19sChIJpXZsNXNz_UYRNYOQoRWmS-8?authuser=0&hl=en&rclk=1
54.3473593,18.6632477,muzeum,DeJa Vu Muzeum,https://www.google.com/maps/place/DeJa+Vu+Muzeum/data=!4m7!3m6!1s0x46fd73e2d7ed1ec7:0xddbb1c0e6f7c45d1!8m2!3d54.3473593!4d18.6632477!16s%2Fg%2F11rbslgrqf!19sChIJxx7t1-Jz_UYR0UV8bw4cu90?authuser=0&hl=en&rclk=1
54.3487903,18.6526543,muzeum,Museum of Gdańsk,https://www.google.com/maps/place/Museum+of+Gda%C5%84sk/data=!4m7!3m6!1s0x46fd739f800aa2e3:0xe5114664f229dd5d!8m2!3d54.3487903!4d18.6526543!16s%2Fg%2F122hcltn!19sChIJ46IKgJ9z_UYRXd0p8mRGEeU?authuser=0&hl=en&rclk=1
54.3492882,18.8001749,muzeum,Ornithological Station Museum and Institute of Zoology,https://www.google.com/maps/place/Ornithological+Station+Museum+and+Institute+of+Zoology/data=!4m7!3m6!1s0x46fd6d159a46de83:0xa52ae2891e5cc7fb!8m2!3d54.3492882!4d18.8001749!16s%2Fg%2F122f6z6y!19sChIJg95GmhVt_UYR-8dcHoniKqU?authuser=0&hl=en&rclk=1
54.3510957,18.7910356,muzeum,tablice informacyjne o Wyspie Sobieszewskiej,https://www.google.com/maps/place/tablice+informacyjne+o+Wyspie+Sobieszewskiej/data=!4m7!3m6!1s0x46fd6da492d8ae43:0x8e2c2a729fe0b13a!8m2!3d54.3510957!4d18.7910356!16s%2Fg%2F11hkq1y3p5!19sChIJQ67YkqRt_UYROrHgn3IqLI4?authuser=0&hl=en&rclk=1
54.328223,19.153981,muzeum,Stutthof Museum German Concentration Camp,https://www.google.com/maps/place/Stutthof+Museum+German+Concentration+Camp/data=!4m7!3m6!1s0x46fd739e040de7b1:0xa65b58f5e73a0a13!8m2!3d54.328223!4d19.153981!16s%2Fg%2F11cfv5fhx!19sChIJsecNBJ5z_UYREwo65_VYW6Y?authuser=0&hl=en&rclk=1
54.3456602,18.5713026,muzeum,Moscik,https://www.google.com/maps/place/Moscik/data=!4m7!3m6!1s0x46fd75c9d038a51b:0x9b000ac1dc89bfce!8m2!3d54.3456602!4d18.5713026!16s%2Fg%2F11qn67m77c!19sChIJG6U40Ml1_UYRzr-J3MEKAJs?authuser=0&hl=en&rclk=1
54.3477374,18.6036653,muzeum,kamień pamiatkowy ofiar wybuchu gazu,https://www.google.com/maps/place/kamie%C5%84+pamiatkowy+ofiar+wybuchu+gazu/data=!4m7!3m6!1s0x46fd7536c71c0fdb:0x3ff954cf1b82f246!8m2!3d54.3477374!4d18.6036653!16s%2Fg%2F11f8clq47f!19sChIJ2w8cxzZ1_UYRRvKCG89U-T8?authuser=0&hl=en&rclk=1
54.3427903,18.6440057,muzeum,"Miejsce po przystanku Gdańsk Biskupia Górka (Danzig Petershagen, Gdańsk Pietraszek)","https://www.google.com/maps/place/Miejsce+po+przystanku+Gda%C5%84sk+Biskupia+G%C3%B3rka+(Danzig+Petershagen,+Gda%C5%84sk+Pietraszek)/data=!4m7!3m6!1s0x46fd73b6584b4849:0x255318aa49b2f98d!8m2!3d54.3427903!4d18.6440057!16s%2Fg%2F11pdfk95gc!19sChIJSUhLWLZz_UYRjfmySaoYUyU?authuser=0&hl=en&rclk=1"
54.349252,18.649292,muzeum,Uphagen's House,https://www.google.com/maps/place/Uphagen's+House/data=!4m7!3m6!1s0x46fd739fa9b50905:0xaf94065f5154ca47!8m2!3d54.349252!4d18.649292!16s%2Fm%2F012hrfh0!19sChIJBQm1qZ9z_UYRR8pUUV8GlK8?authuser=0&hl=en&rclk=1
54.3505342,18.6573174,muzeum,Miejsce po krańcówce linii tramwajowej 8 Żuraw-Nowy Port (1901-1945 r.),https://www.google.com/maps/place/Miejsce+po+kra%C5%84c%C3%B3wce+linii+tramwajowej+8+%C5%BBuraw-Nowy+Port+(1901-1945+r.)/data=!4m7!3m6!1s0x46fd73caa63347c1:0xbdd7a56b94e1f60d!8m2!3d54.3505342!4d18.6573174!16s%2Fg%2F11sgvl1c9f!19sChIJwUczpspz_UYRDfbhlGul170?authuser=0&hl=en&rclk=1
54.3470527,18.6727464,muzeum,Miejsce po kanale rewizyjnym stacji Gdańsk Wąskotorowy,https://www.google.com/maps/place/Miejsce+po+kanale+rewizyjnym+stacji+Gda%C5%84sk+W%C4%85skotorowy/data=!4m7!3m6!1s0x46fd73bee901afed:0x8fb77992b11bdc26!8m2!3d54.3470527!4d18.6727464!16s%2Fg%2F11sh6d9vv7!19sChIJ7a8B6b5z_UYRJtwbsZJ5t48?authuser=0&hl=en&rclk=1
54.3492786,18.6746364,muzeum,Starotorze linii tramwajowej 6 Knipawa-Dworzec Główny,https://www.google.com/maps/place/Starotorze+linii+tramwajowej+6+Knipawa-Dworzec+G%C5%82%C3%B3wny/data=!4m7!3m6!1s0x46fd730729b29abf:0xde4baf4d6b409782!8m2!3d54.3492786!4d18.6746364!16s%2Fg%2F11rm1xspn9!19sChIJv5qyKQdz_UYRgpdAa02vS94?authuser=0&hl=en&rclk=1
54.3474471,18.6723612,muzeum,Miejsce po składzie opału stacji Gdańsk Wąskotorowy,https://www.google.com/maps/place/Miejsce+po+sk%C5%82adzie+opa%C5%82u+stacji+Gda%C5%84sk+W%C4%85skotorowy/data=!4m7!3m6!1s0x46fd739b675d46e7:0x945d4102405bf72b!8m2!3d54.3474471!4d18.6723612!16s%2Fg%2F11sh4gp3sk!19sChIJ50ZdZ5tz_UYRK_dbQAJBXZQ?authuser=0&hl=en&rclk=1
54.3528995,18.660374,muzeum,Starotorze bocznicy do elektrowni,https://www.google.com/maps/place/Starotorze+bocznicy+do+elektrowni/data=!4m7!3m6!1s0x46fd73c2a65a5ddb:0xaed65272a57366fd!8m2!3d54.3528995!4d18.660374!16s%2Fg%2F11tjqqpn6y!19sChIJ211apsJz_UYR_WZzpXJS1q4?authuser=0&hl=en&rclk=1
54.349325,18.794335,muzeum,Archeo-Pomorze Usługi Archeologiczne i Prace Ziemne,https://www.google.com/maps/place/Archeo-Pomorze+Us%C5%82ugi+Archeologiczne+i+Prace+Ziemne/data=!4m7!3m6!1s0x46fd6d6ac4dc1e35:0xe82d34e346f6a050!8m2!3d54.349325!4d18.794335!16s%2Fg%2F11c53cq8pn!19sChIJNR7cxGpt_UYRUKD2RuM0Leg?authuser=0&hl=en&rclk=1
54.352457,18.7909981,muzeum,Wejście do Ptasiego Raju,https://www.google.com/maps/place/Wej%C5%9Bcie+do+Ptasiego+Raju/data=!4m7!3m6!1s0x46fd6d055e8402fd:0x3d977c43851d5d2b!8m2!3d54.352457!4d18.7909981!16s%2Fg%2F11kxbz6c75!19sChIJ_QKEXgVt_UYRK10dhUN8lz0?authuser=0&hl=en&rclk=1
54.348894,18.7941829,muzeum,dawna wędzarnia,https://www.google.com/maps/place/dawna+w%C4%99dzarnia/data=!4m7!3m6!1s0x46fd6d33924f5cdb:0x87dbc7b8e5bf3943!8m2!3d54.348894!4d18.7941829!16s%2Fg%2F11hkmpgkpk!19sChIJ21xPkjNt_UYRQzm_5bjH24c?authuser=0&hl=en&rclk=1
54.3490528,18.7965523,muzeum,dawna szkoła w Górkach Wschodnich,https://www.google.com/maps/place/dawna+szko%C5%82a+w+G%C3%B3rkach+Wschodnich/data=!4m7!3m6!1s0x46fd6d3334840dd1:0xc60e2140ab57efa2!8m2!3d54.3490528!4d18.7965523!16s%2Fg%2F11kxhbdk74!19sChIJ0Q2ENDNt_UYRou9Xq0AhDsY?authuser=0&hl=en&rclk=1
54.3428931,18.8732285,muzeum,Forsterówka,https://www.google.com/maps/place/Forster%C3%B3wka/data=!4m7!3m6!1s0x46fd6d96beaa80e7:0x5f793df21572eb77!8m2!3d54.3428931!4d18.8732285!16s%2Fg%2F1218xjvb!19sChIJ54CqvpZt_UYRd-tyFfI9eV8?authuser=0&hl=en&rclk=1
54.3443418,18.906765,muzeum,Wykop,https://www.google.com/maps/place/Wykop/data=!4m7!3m6!1s0x46fd6b03c84e745b:0x361d1d8857cdf3c2!8m2!3d54.3443418!4d18.906765!16s%2Fg%2F11j0b4g7g2!19sChIJW3ROyANr_UYRwvPNV4gdHTY?authuser=0&hl=en&rclk=1
54.3342281,18.4804438,muzeum,Użytek ekologiczny Torfowisko Smęgorzynskie,https://www.google.com/maps/place/U%C5%BCytek+ekologiczny+Torfowisko+Sm%C4%99gorzynskie/data=!4m7!3m6!1s0x46fd756b105d588d:0xdb2a4ac248281682!8m2!3d54.3342281!4d18.4804438!16s%2Fg%2F11jgd66cnw!19sChIJjVhdEGt1_UYRghYoSMJKKts?authuser=0&hl=en&rclk=1
54.3377667,18.5852212,muzeum,DETEKT Usługi archeologiczne - archeolog,https://www.google.com/maps/place/DETEKT+Us%C5%82ugi+archeologiczne+-+archeolog/data=!4m7!3m6!1s0x46fd749cd1c667d9:0x296a805a93f16c5b!8m2!3d54.3377667!4d18.5852212!16s%2Fg%2F11f3_t_6tq!19sChIJ2WfG0Zx0_UYRW2zxk1qAaik?authuser=0&hl=en&rclk=1
54.3413112,18.6502728,muzeum,"Miejsce po głównej hali dworca Gdańsk Brama Nizinna (Gdańsk Kłodno, Danzig Leege Tor)","https://www.google.com/maps/place/Miejsce+po+g%C5%82%C3%B3wnej+hali+dworca+Gda%C5%84sk+Brama+Nizinna+(Gda%C5%84sk+K%C5%82odno,+Danzig+Leege+Tor)/data=!4m7!3m6!1s0x46fd739ab03f7b71:0x3ee805a85c688a12!8m2!3d54.3413112!4d18.6502728!16s%2Fg%2F11pdykdgwd!19sChIJcXs_sJpz_UYREopoXKgF6D4?authuser=0&hl=en&rclk=1"
54.344842,18.655074,muzeum,Blue Lamb - Branch of the Archaeological Museum in Gdańsk,https://www.google.com/maps/place/Blue+Lamb+-+Branch+of+the+Archaeological+Museum+in+Gda%C5%84sk/data=!4m7!3m6!1s0x46fd73a3d068f42b:0x6a2ab5a7fd45f655!8m2!3d54.344842!4d18.655074!16s%2Fg%2F122xw2sy!19sChIJK_Ro0KNz_UYRVfZF_ae1Kmo?authuser=0&hl=en&rclk=1
54.3415716,18.657936,muzeum,Laznia Center for Contemporary Art,https://www.google.com/maps/place/Laznia+Center+for+Contemporary+Art/data=!4m7!3m6!1s0x46fd73a48c2b6bc9:0x7750ab795cf01982!8m2!3d54.3415716!4d18.657936!16s%2Fm%2F0ll4pvx!19sChIJyWsrjKRz_UYRghnwXHmrUHc?authuser=0&hl=en&rclk=1
54.329404,18.8018291,muzeum,Hata szamańskiego zombka,https://www.google.com/maps/place/Hata+szama%C5%84skiego+zombka/data=!4m7!3m6!1s0x46fd6de744f17923:0xab4c5061f8a7683e!8m2!3d54.329404!4d18.8018291!16s%2Fg%2F11kzx49_c8!19sChIJI3nxROdt_UYRPmin-GFQTKs?authuser=0&hl=en&rclk=1
54.324114,18.5155248,muzeum,"Użytek ekologiczny ""Torfowisko Smęgorzyńskie""",https://www.google.com/maps/place/U%C5%BCytek+ekologiczny+%22Torfowisko+Sm%C4%99gorzy%C5%84skie%22/data=!4m7!3m6!1s0x46fd76790c29b919:0xc2d79c47bce5d2f0!8m2!3d54.324114!4d18.5155248!16s%2Fg%2F11f03kmr1d!19sChIJGbkpDHl2_UYR8NLlvEec18I?authuser=0&hl=en&rclk=1
54.3225282,18.6312797,muzeum,Orunia Town Hall,https://www.google.com/maps/place/Orunia+Town+Hall/data=!4m7!3m6!1s0x46fd73aab3e92c65:0xc57ba9c889bdf266!8m2!3d54.3225282!4d18.6312797!16s%2Fg%2F11k2_s_6hs!19sChIJZSzps6pz_UYRZvK9icipe8U?authuser=0&hl=en&rclk=1
54.232401,18.262646,muzeum,Muzeum Piłki Nożnej i Galeria Sztuki o tematyce piłkarskiej,https://www.google.com/maps/place/Muzeum+Pi%C5%82ki+No%C5%BCnej+i+Galeria+Sztuki+o+tematyce+pi%C5%82karskiej/data=!4m7!3m6!1s0x46fd83789ee18521:0x3ad6ff9d76669cc6!8m2!3d54.232401!4d18.262646!16s%2Fg%2F11b8_s2tjx!19sChIJIYXhnniD_UYRxpxmdp3_1jo?authuser=0&hl=en&rclk=1
54.3009235,18.7151888,muzeum,Wiatrak Paltrak,https://www.google.com/maps/place/Wiatrak+Paltrak/data=!4m7!3m6!1s0x46fd720150a2708f:0xe2cb42f19cf98a34!8m2!3d54.3009235!4d18.7151888!16s%2Fg%2F11d_tryjhw!19sChIJj3CiUAFy_UYRNIr5nPFCy-I?authuser=0&hl=en&rclk=1
54.3144946,18.7022443,muzeum,Miejsce odpoczynowe na szlaku rowerowym,https://www.google.com/maps/place/Miejsce+odpoczynowe+na+szlaku+rowerowym/data=!4m7!3m6!1s0x46fd7328fcc00485:0x6d1e4962bd617894!8m2!3d54.3144946!4d18.7022443!16s%2Fg%2F11ghn813cf!19sChIJhQTA_Chz_UYRlHhhvWJJHm0?authuser=0&hl=en&rclk=1
54.2977,18.4529979,muzeum,Stara Papiernia,https://www.google.com/maps/place/Stara+Papiernia/data=!4m7!3m6!1s0x46fd762dd04fe1ad:0xea76de096dd7d780!8m2!3d54.2977!4d18.4529979!16s%2Fg%2F11hzjz08bh!19sChIJreFP0C12_UYRgNfXbQneduo?authuser=0&hl=en&rclk=1
54.2935441,18.80788,muzeum,Żuławski dom podcieniowy,https://www.google.com/maps/place/%C5%BBu%C5%82awski+dom+podcieniowy/data=!4m7!3m6!1s0x46fd73fe3f164d19:0xfccd584d057fa0fc!8m2!3d54.2935441!4d18.80788!16s%2Fg%2F11g4j8nz5d!19sChIJGU0WP_5z_UYR_KB_BU1Yzfw?authuser=0&hl=en&rclk=1
54.2129467,19.1132471,muzeum,Zulawski Historic Park,https://www.google.com/maps/place/Zulawski+Historic+Park/data=!4m7!3m6!1s0x46fd4413b66fa0b7:0x9e18b05e72ccce0f!8m2!3d54.2129467!4d19.1132471!16s%2Fg%2F1q67mrv72!19sChIJt6BvthNE_UYRD87Mcl6wGJ4?authuser=0&hl=en&rclk=1
54.329385,18.204205,muzeum,Muzeum Kaszubskie,https://www.google.com/maps/place/Muzeum+Kaszubskie/data=!4m7!3m6!1s0x46fd9a8a28549427:0xfa156d392c87cb51!8m2!3d54.329385!4d18.204205!16s%2Fg%2F120kbg78!19sChIJJ5RUKIqa_UYRUcuHLDltFfo?authuser=0&hl=en&rclk=1
54.3524685,18.6517641,muzeum,Piwnica Romańska - Muzeum Archeologiczne w Gdańsku,https://www.google.com/maps/place/Piwnica+Roma%C5%84ska+-+Muzeum+Archeologiczne+w+Gda%C5%84sku/data=!4m7!3m6!1s0x46fd7375727cc0b9:0xf9d3ac38eb823ea4!8m2!3d54.3524685!4d18.6517641!16s%2Fg%2F11bt_hnbzf!19sChIJucB8cnVz_UYRpD6C6zis0_k?authuser=0&hl=en&rclk=1
54.262605,18.636544,muzeum,Dom Wiedemanna,https://www.google.com/maps/place/Dom+Wiedemanna/data=!4m7!3m6!1s0x46fd715becd2de55:0x1cb410bd458b7fe2!8m2!3d54.262605!4d18.636544!16s%2Fg%2F11pb8241hb!19sChIJVd7S7Ftx_UYR4n-LRb0QtBw?authuser=0&hl=en&rclk=1
54.2674902,18.6533261,muzeum,KESEF,https://www.google.com/maps/place/KESEF/data=!4m7!3m6!1s0x46fd71a567cc7a1b:0x71a6c71f2f4e566a!8m2!3d54.2674902!4d18.6533261!16s%2Fg%2F11fkr3qdyq!19sChIJG3rMZ6Vx_UYRalZOLx_HpnE?authuser=0&hl=en&rclk=1
