lat,lon,type,title,link
54.4266904,18.4636231,park,Chirona Park,https://www.google.com/maps/place/Chirona+Park/data=!4m7!3m6!1s0x46fd9f8082f78ce7:0x41d92225c759595e!8m2!3d54.4266904!4d18.4636231!16s%2Fg%2F11g6yj3yz6!19sChIJ54z3goCf_UYRXllZxyUi2UE?authuser=0&hl=en&rclk=1
54.421608,18.4746692,park,Park Diany,https://www.google.com/maps/place/Park+Diany/data=!4m7!3m6!1s0x46fd9f8896681eb3:0x30a8d9356ecc66df!8m2!3d54.421608!4d18.4746692!16s%2Fg%2F11c31w1hz0!19sChIJsx5oloif_UYR32bMbjXZqDA?authuser=0&hl=en&rclk=1
54.4839865,18.4280074,park,Wiczlino Street workout park,https://www.google.com/maps/place/Wiczlino+Street+workout+park/data=!4m7!3m6!1s0x46fda15bd38c3bc1:0x43b214e87268e124!8m2!3d54.4839865!4d18.4280074!16s%2Fg%2F11q3vxfn8r!19sChIJwTuM01uh_UYRJOFocugUskM?authuser=0&hl=en&rclk=1
54.4640231,18.4967169,park,Park Franciszka Ornassa,https://www.google.com/maps/place/Park+Franciszka+Ornassa/data=!4m7!3m6!1s0x46fda1d5e2d1eecd:0x4e476e1b3cb6aa8f!8m2!3d54.4640231!4d18.4967169!16s%2Fg%2F11jgd8612m!19sChIJze7R4tWh_UYRj6q2PBtuR04?authuser=0&hl=en&rclk=1
54.4976321,18.5100422,park,Park,https://www.google.com/maps/place/Park/data=!4m7!3m6!1s0x46fda0d8139b94b5:0x22d827e9ebe46924!8m2!3d54.4976321!4d18.5100422!16s%2Fg%2F11hd5bx5tn!19sChIJtZSbE9ig_UYRJGnk6-kn2CI?authuser=0&hl=en&rclk=1
54.4291826,18.4652317,park,Park leny przy ul. Niedziakowskiego,https://www.google.com/maps/place/Park+le%C5%9Bny+przy+ul.+Niedzia%C5%82kowskiego/data=!4m7!3m6!1s0x46fda02a5398096b:0xf712473a8b01f091!8m2!3d54.4291826!4d18.4652317!16s%2Fg%2F11f4lj2y5r!19sChIJawmYUyqg_UYRkfABizpHEvc?authuser=0&hl=en&rclk=1
54.447397,18.5255265,park,Tr贸jmiejski Park Krajobrazowy,https://www.google.com/maps/place/Tr%C3%B3jmiejski+Park+Krajobrazowy/data=!4m7!3m6!1s0x46fda06e2512d40d:0x230fc9e0e1bdb16b!8m2!3d54.447397!4d18.5255265!16s%2Fg%2F11cjj011tc!19sChIJDdQSJW6g_UYRa7G94eDJDyM?authuser=0&hl=en&rclk=1
54.5008894,18.4548124,park,Park Chwarzno - miejsce rozrywki i odpoczynku,https://www.google.com/maps/place/Park+Chwarzno+-+miejsce+rozrywki+i+odpoczynku/data=!4m7!3m6!1s0x46fda136d65ac3cb:0x26507881226ceb64!8m2!3d54.5008894!4d18.4548124!16s%2Fg%2F11flby0vwq!19sChIJy8Na1jah_UYRZOtsIoF4UCY?authuser=0&hl=en&rclk=1
54.4555506,18.5617962,park,Northern Park,https://www.google.com/maps/place/Northern+Park/data=!4m7!3m6!1s0x46fd0a871c669889:0xdb33518bfb44fb53!8m2!3d54.4555506!4d18.5617962!16s%2Fg%2F11gzrqc4r!19sChIJiZhmHIcK_UYRU_tE-4tRM9s?authuser=0&hl=en&rclk=1
54.4112209,18.5620805,park,Oliwski Park,https://www.google.com/maps/place/Oliwski+Park/data=!4m7!3m6!1s0x46fd0acb364b7f71:0x701b855baf5f843!8m2!3d54.4112209!4d18.5620805!16s%2Fg%2F121cs2sj!19sChIJcX9LNssK_UYRQ_j1ulW4AQc?authuser=0&hl=en&rclk=1
54.4654655,18.4973774,park,"Park Kieszonkowy ""Stacja Kieszonka""",https://www.google.com/maps/place/Park+Kieszonkowy+%22Stacja+Kieszonka%22/data=!4m7!3m6!1s0x46fda1c0f4738959:0x877d263594ca1bba!8m2!3d54.4654655!4d18.4973774!16s%2Fg%2F11kw4p4cnm!19sChIJWYlz9MCh_UYRuhvKlDUmfYc?authuser=0&hl=en&rclk=1
54.4525047,18.486801,park,Rozlewisko 殴r贸da Marii,https://www.google.com/maps/place/Rozlewisko+%C5%B9r%C3%B3d%C5%82a+Marii/data=!4m7!3m6!1s0x46fda04ebb70432d:0x96f75bfc696425f7!8m2!3d54.4525047!4d18.486801!16s%2Fg%2F11gg_v23r5!19sChIJLUNwu06g_UYR9yVkafxb95Y?authuser=0&hl=en&rclk=1
54.4557771,18.5520778,park,Park Duja,https://www.google.com/maps/place/Park+Duja/data=!4m7!3m6!1s0x46fd0b956f9a7b33:0x13c9840ef913f6e2!8m2!3d54.4557771!4d18.5520778!16s%2Fg%2F11r0k_f6mg!19sChIJM3uab5UL_UYR4vYT-Q6EyRM?authuser=0&hl=en&rclk=1
54.4502365,18.5282442,park,Wzg贸rze Zofii,https://www.google.com/maps/place/Wzg%C3%B3rze+Zofii/data=!4m7!3m6!1s0x46fda15014e31967:0xc249a3da3cc4b335!8m2!3d54.4502365!4d18.5282442!16s%2Fg%2F11knsqlj7l!19sChIJZxnjFFCh_UYRNbPEPNqjScI?authuser=0&hl=en&rclk=1
54.4541739,18.5400614,park,Wzg贸rza Dbowe (Eichberge),https://www.google.com/maps/place/Wzg%C3%B3rza+D%C4%99bowe+(Eichberge)/data=!4m7!3m6!1s0x46fda1358b62e659:0x8f05735d0637d928!8m2!3d54.4541739!4d18.5400614!16s%2Fg%2F11mqygmfv6!19sChIJWeZiizWh_UYRKNk3Bl1zBY8?authuser=0&hl=en&rclk=1
54.4396769,18.5579306,park,Park Jordanowski,https://www.google.com/maps/place/Park+Jordanowski/data=!4m7!3m6!1s0x46fd0a974fb57549:0x9dfe9a1c8c195b1a!8m2!3d54.4396769!4d18.5579306!16s%2Fg%2F1yw9kznzy!19sChIJSXW1T5cK_UYRGlsZjBya_p0?authuser=0&hl=en&rclk=1
54.4512784,18.5649479,park,Sopot park przy pla偶y,https://www.google.com/maps/place/Sopot+park+przy+pla%C5%BCy/data=!4m7!3m6!1s0x46fd0b7f7b838059:0xdbe49d44001da977!8m2!3d54.4512784!4d18.5649479!16s%2Fg%2F11h_v6yl8h!19sChIJWYCDe38L_UYRd6kdAESd5Ns?authuser=0&hl=en&rclk=1
54.4437781,18.5711807,park,Park Poudniowy imienia Marii i Lecha Kaczyskich,https://www.google.com/maps/place/Park+Po%C5%82udniowy+imienia+Marii+i+Lecha+Kaczy%C5%84skich/data=!4m7!3m6!1s0x46fd0a927a052df5:0x85a18a4c76175e8d!8m2!3d54.4437781!4d18.5711807!16s%2Fg%2F1vb9brh5!19sChIJ9S0FepIK_UYRjV4XdkyKoYU?authuser=0&hl=en&rclk=1
54.4399864,18.5661278,park,Park I Strumyk,https://www.google.com/maps/place/Park+I+Strumyk/data=!4m7!3m6!1s0x46fd0bd67d9cae0f:0xb845e65bd6764cfc!8m2!3d54.4399864!4d18.5661278!16s%2Fg%2F11f5_6q5fm!19sChIJD66cfdYL_UYR_Ex21lvmRbg?authuser=0&hl=en&rclk=1
54.4393686,18.5653433,park,Park Herbst贸w,https://www.google.com/maps/place/Park+Herbst%C3%B3w/data=!4m7!3m6!1s0x46fd0a9155f942e9:0x5784f07046d4cc86!8m2!3d54.4393686!4d18.5653433!16s%2Fg%2F11f_h_ys12!19sChIJ6UL5VZEK_UYRhszURnDwhFc?authuser=0&hl=en&rclk=1
54.4723933,18.559386,park,Park Kolibkowski,https://www.google.com/maps/place/Park+Kolibkowski/data=!4m7!3m6!1s0x46fda09dbee0b14b:0x3274802a184ffd29!8m2!3d54.4723933!4d18.559386!16s%2Fg%2F11ggzh76s_!19sChIJS7Hgvp2g_UYRKf1PGCqAdDI?authuser=0&hl=en&rclk=1
54.4491228,18.5597787,park,Park na Goyki,https://www.google.com/maps/place/Park+na+Goyki/data=!4m7!3m6!1s0x46fd0ba3a1d77d67:0x9a7889d2e39ae547!8m2!3d54.4491228!4d18.5597787!16s%2Fg%2F11pc9y_pr1!19sChIJZ33XoaML_UYRR-Wa49KJeJo?authuser=0&hl=en&rclk=1
54.4513538,18.5643251,park,Plac Janusza Kusociskiego,https://www.google.com/maps/place/Plac+Janusza+Kusoci%C5%84skiego/data=!4m7!3m6!1s0x46fd0a861b689b7d:0x1ace76e96b850a29!8m2!3d54.4513538!4d18.5643251!16s%2Fg%2F11gbz9xqt_!19sChIJfZtoG4YK_UYRKQqFa-l2zho?authuser=0&hl=en&rclk=1
54.4484304,18.5675698,park,Db wolnoci,https://www.google.com/maps/place/D%C4%85b+wolno%C5%9Bci/data=!4m7!3m6!1s0x46fd0bb8e3669155:0x8b0e1776459b21da!8m2!3d54.4484304!4d18.5675698!16s%2Fg%2F11j7ct1twy!19sChIJVZFm47gL_UYR2iGbRXYXDos?authuser=0&hl=en&rclk=1
54.4502131,18.5599627,park,"kompleks willowo- parkowy, Winieckiego, Sopot","https://www.google.com/maps/place/kompleks+willowo-+parkowy,+Winieckiego,+Sopot/data=!4m7!3m6!1s0x46fd0ba10f153047:0x39e1134475e8059d!8m2!3d54.4502131!4d18.5599627!16s%2Fg%2F11k1n8tydp!19sChIJRzAVD6EL_UYRnQXodUQT4Tk?authuser=0&hl=en&rclk=1"
54.425953,18.4666234,park,Kadka,https://www.google.com/maps/place/K%C5%82adka/data=!4m7!3m6!1s0x46fd9f875368b5b1:0x4e2af780d8246962!8m2!3d54.425953!4d18.4666234!16s%2Fg%2F11g9jzhgrm!19sChIJsbVoU4ef_UYRYmkk2ID3Kk4?authuser=0&hl=en&rclk=1
54.4276146,18.4820257,park,Park przy ulicy Bli藕nit,https://www.google.com/maps/place/Park+przy+ulicy+Bli%C5%BAni%C4%85t/data=!4m7!3m6!1s0x46fda026f0fceced:0x64bb5d08447c95ef!8m2!3d54.4276146!4d18.4820257!16s%2Fg%2F11ggt2jvdk!19sChIJ7ez88Cag_UYR75V8RAhdu2Q?authuser=0&hl=en&rclk=1
54.4251573,18.5944995,park,Park Jelitkowski,https://www.google.com/maps/place/Park+Jelitkowski/data=!4m7!3m6!1s0x46fd0adde8e68ac7:0xa87202c37bc64b78!8m2!3d54.4251573!4d18.5944995!16s%2Fg%2F122f6z53!19sChIJx4rm6N0K_UYReEvGe8MCcqg?authuser=0&hl=en&rclk=1
54.4350587,18.5745583,park,Zbiornik Retencyjny,https://www.google.com/maps/place/Zbiornik+Retencyjny/data=!4m7!3m6!1s0x46fd0aeb1cadc0ff:0xa6e169f7110efdcb!8m2!3d54.4350587!4d18.5745583!16s%2Fg%2F11fy9m9_69!19sChIJ_8CtHOsK_UYRy_0OEfdp4aY?authuser=0&hl=en&rclk=1
54.4292269,18.5833915,park,Park Hestii,https://www.google.com/maps/place/Park+Hestii/data=!4m7!3m6!1s0x46fd0ac2b8dce523:0x40efc51daaaa9bda!8m2!3d54.4292269!4d18.5833915!16s%2Fg%2F11c536m1yv!19sChIJI-XcuMIK_UYR2puqqh3F70A?authuser=0&hl=en&rclk=1
54.4423462,18.5566958,park,Park Sanit. Inki,https://www.google.com/maps/place/Park+Sanit.+Inki/data=!4m7!3m6!1s0x46fd0a9a691c8a0f:0xec5a2f7417db3925!8m2!3d54.4423462!4d18.5566958!16s%2Fg%2F1tks5048!19sChIJD4ocaZoK_UYRJTnbF3QvWuw?authuser=0&hl=en&rclk=1
54.4312629,18.5890916,park,Psia Pla偶a Sopot,https://www.google.com/maps/place/Psia+Pla%C5%BCa+Sopot/data=!4m7!3m6!1s0x46fd0b466c7ab021:0xa59b258cf3c9402b!8m2!3d54.4312629!4d18.5890916!16s%2Fg%2F11gk8vz69q!19sChIJIbB6bEYL_UYRK0DJ84wlm6U?authuser=0&hl=en&rclk=1
54.4201447,18.5889658,park,Park Przymorze,https://www.google.com/maps/place/Park+Przymorze/data=!4m7!3m6!1s0x46fd0ad9913f98a9:0x9f2ba0bd26d321a9!8m2!3d54.4201447!4d18.5889658!16s%2Fg%2F11g7_hp8fq!19sChIJqZg_kdkK_UYRqSHTJr2gK58?authuser=0&hl=en&rclk=1
54.4144615,18.6029454,park,Park Reagana,https://www.google.com/maps/place/Park+Reagana/data=!4m7!3m6!1s0x46fd0b4061934599:0x76980800bdeecae!8m2!3d54.4144615!4d18.6029454!16s%2Fg%2F11jwll65bw!19sChIJmUWTYUAL_UYRruzeC4CAaQc?authuser=0&hl=en&rclk=1
54.4107168,18.5556326,park,Park przy Opackiej,https://www.google.com/maps/place/Park+przy+Opackiej/data=!4m7!3m6!1s0x46fd75e8e44794a7:0x3a144036f5b6ebbb!8m2!3d54.4107168!4d18.5556326!16s%2Fg%2F11tcsp1p7l!19sChIJp5RH5Oh1_UYRu-u29TZAFDo?authuser=0&hl=en&rclk=1
54.4143997,18.5688608,park,Sensory Park Doraco,https://www.google.com/maps/place/Sensory+Park+Doraco/data=!4m7!3m6!1s0x46fd0acc3e3a85b5:0xbb44a7e75c99844b!8m2!3d54.4143997!4d18.5688608!16s%2Fg%2F11g8xj1x9c!19sChIJtYU6PswK_UYRS4SZXOenRLs?authuser=0&hl=en&rclk=1
54.417777,18.6030631,park,Park Jana Pawa II ,https://www.google.com/maps/place/Park+Jana+Paw%C5%82a+II+%F0%9F%99%82/data=!4m7!3m6!1s0x46fd0bceb16a520d:0x19d1656b223f1e0d!8m2!3d54.417777!4d18.6030631!16s%2Fg%2F11kgsy_0c8!19sChIJDVJqsc4L_UYRDR4_Imtl0Rk?authuser=0&hl=en&rclk=1
54.4230569,18.601376,park,Dawny dom antynazistowskiego dysydenta Gustava Pietscha,https://www.google.com/maps/place/Dawny+dom+antynazistowskiego+dysydenta+Gustava+Pietscha/data=!4m7!3m6!1s0x46fd0b3763d092d3:0x6199b99294751b50!8m2!3d54.4230569!4d18.601376!16s%2Fg%2F11qzcq2vkr!19sChIJ05LQYzcL_UYRUBt1lJK5mWE?authuser=0&hl=en&rclk=1
54.423228,18.5942119,park,Gdask Jelitkowo - wybieg dla ps贸w,https://www.google.com/maps/place/Gda%C5%84sk+Jelitkowo+-+wybieg+dla+ps%C3%B3w/data=!4m7!3m6!1s0x46fd0adf2aecb449:0x7037fa31fb6049e1!8m2!3d54.423228!4d18.5942119!16s%2Fg%2F11g659q9qx!19sChIJSbTsKt8K_UYR4Ulg-zH6N3A?authuser=0&hl=en&rclk=1
54.4143683,18.6106487,park,President Ronald Reagan Park,https://www.google.com/maps/place/President+Ronald+Reagan+Park/data=!4m7!3m6!1s0x46fd0b301d98657f:0x9398daf195e910c1!8m2!3d54.4143683!4d18.6106487!16s%2Fm%2F0w1dxvj!19sChIJf2WYHTAL_UYRwRDplfHamJM?authuser=0&hl=en&rclk=1
54.4243145,18.5946785,park,Zbiornik retencyjny Jelitkowska,https://www.google.com/maps/place/Zbiornik+retencyjny+Jelitkowska/data=!4m7!3m6!1s0x46fd0b538a96fa3b:0xdc21c1dc84289779!8m2!3d54.4243145!4d18.5946785!16s%2Fg%2F11gjwwtf1d!19sChIJO_qWilML_UYReZcohNzBIdw?authuser=0&hl=en&rclk=1
54.3919091,18.4071823,park,Park,https://www.google.com/maps/place/Park/data=!4m7!3m6!1s0x46fd9f924776b7ad:0x338a2b23fdd219bc!8m2!3d54.3919091!4d18.4071823!16s%2Fg%2F11gjxgrkbx!19sChIJrbd2R5Kf_UYRvBnS_SMrijM?authuser=0&hl=en&rclk=1
54.3530197,18.635609,park,Park r贸dmiecie,https://www.google.com/maps/place/Park+%C5%9Ar%C3%B3dmie%C5%9Bcie/data=!4m7!3m6!1s0x46fd7382be3d2b2d:0xd0c6f244f18449c4!8m2!3d54.3530197!4d18.635609!16s%2Fg%2F11f3n648lm!19sChIJLSs9voJz_UYRxEmE8UTyxtA?authuser=0&hl=en&rclk=1
54.3650141,18.5424035,park,Tri-City Landscape Park,https://www.google.com/maps/place/Tri-City+Landscape+Park/data=!4m7!3m6!1s0x46fd75a616ed8fcf:0x89e06209b803342b!8m2!3d54.3650141!4d18.5424035!16s%2Fm%2F047ctlw!19sChIJz4_tFqZ1_UYRKzQDuAli4Ik?authuser=0&hl=en&rclk=1
54.3530742,18.3729384,park,Park Przy blokach,https://www.google.com/maps/place/Park+Przy+blokach/data=!4m7!3m6!1s0x46fd9f97d32d2d71:0x6fb45caeef2cf965!8m2!3d54.3530742!4d18.3729384!16s%2Fg%2F11g1n3vscz!19sChIJcS0t05ef_UYRZfks765ctG8?authuser=0&hl=en&rclk=1
54.4003044,18.5578175,park,Leny skate park,https://www.google.com/maps/place/Le%C5%9Bny+skate+park/data=!4m7!3m6!1s0x46fd7586c987e851:0xfde5969c1958972a!8m2!3d54.4003044!4d18.5578175!16s%2Fg%2F11q8rv0c74!19sChIJUeiHyYZ1_UYRKpdYGZyW5f0?authuser=0&hl=en&rclk=1
54.4156622,18.535452,park,Dolina Lenego Myna,https://www.google.com/maps/place/Dolina+Le%C5%9Bnego+M%C5%82yna/data=!4m7!3m6!1s0x46fd0b1fb3bb5349:0xedac453dcc4d23fd!8m2!3d54.4156622!4d18.535452!16s%2Fg%2F11jl1bvbc3!19sChIJSVO7sx8L_UYR_SNNzD1FrO0?authuser=0&hl=en&rclk=1
54.4083493,18.5256095,park,殴r贸do Krynica,https://www.google.com/maps/place/%C5%B9r%C3%B3d%C5%82o+Krynica/data=!4m7!3m6!1s0x46fd75269851ef79:0xce90803b345a282d!8m2!3d54.4083493!4d18.5256095!16s%2Fg%2F11hj48191q!19sChIJee9RmCZ1_UYRLShaNDuAkM4?authuser=0&hl=en&rclk=1
54.3957373,18.5748496,park,EkoPark Uniwersytetu Gdaskiego,https://www.google.com/maps/place/EkoPark+Uniwersytetu+Gda%C5%84skiego/data=!4m7!3m6!1s0x46fd7527b27f480f:0x5fc13ed09bee0c5b!8m2!3d54.3957373!4d18.5748496!16s%2Fg%2F11hd23f68x!19sChIJD0h_sid1_UYRWwzum9A-wV8?authuser=0&hl=en&rclk=1
54.3987926,18.6001198,park,Park. Pope John Paul II,https://www.google.com/maps/place/Park.+Pope+John+Paul+II/data=!4m7!3m6!1s0x46fd74cdfc5b141d:0x623a93479ae40c4a!8m2!3d54.3987926!4d18.6001198!16s%2Fg%2F11r7q2n_p!19sChIJHRRb_M10_UYRSgzkmkeTOmI?authuser=0&hl=en&rclk=1
54.4130823,18.5626703,park,Ogr贸d Doraco,https://www.google.com/maps/place/Ogr%C3%B3d+Doraco/data=!4m7!3m6!1s0x46fd0b7bf31f90d1:0x1ad3f2c519fcaff3!8m2!3d54.4130823!4d18.5626703!16s%2Fg%2F11p0gj3nd5!19sChIJ0ZAf83sL_UYR86_8GcXy0xo?authuser=0&hl=en&rclk=1
54.4081057,18.5634316,park,"Pomnik przyrody ""Gruby Db""",https://www.google.com/maps/place/Pomnik+przyrody+%22Gruby+D%C4%85b%22/data=!4m7!3m6!1s0x46fd75f1cc330193:0xbd64633e660c2f8c!8m2!3d54.4081057!4d18.5634316!16s%2Fg%2F11jgcr07wl!19sChIJkwEzzPF1_UYRjC8MZj5jZL0?authuser=0&hl=en&rclk=1
54.4095225,18.5593609,park,Ogr贸d Konwentualny,https://www.google.com/maps/place/Ogr%C3%B3d+Konwentualny/data=!4m7!3m6!1s0x46fd7534f20a6b03:0x85d2a00ff84a01ce!8m2!3d54.4095225!4d18.5593609!16s%2Fg%2F11gd1vyl16!19sChIJA2sK8jR1_UYRzgFK-A-g0oU?authuser=0&hl=en&rclk=1
54.4064866,18.5617048,park,Skwer im. Ireny Jarockiej,https://www.google.com/maps/place/Skwer+im.+Ireny+Jarockiej/data=!4m7!3m6!1s0x46fd756d6623ee65:0xd709d14c9a963250!8m2!3d54.4064866!4d18.5617048!16s%2Fg%2F11h01wvpbv!19sChIJZe4jZm11_UYRUDKWmkzRCdc?authuser=0&hl=en&rclk=1
54.4091831,18.5522875,park,"Oliwa, Staw Myski","https://www.google.com/maps/place/Oliwa,+Staw+M%C5%82y%C5%84ski/data=!4m7!3m6!1s0x46fd754a679ec4b3:0x35fedd1fa1905f5d!8m2!3d54.4091831!4d18.5522875!16s%2Fg%2F11c5g77w4m!19sChIJs8SeZ0p1_UYRXV-QoR_d_jU?authuser=0&hl=en&rclk=1"
54.4063351,18.5683737,park,Plac zabaw,https://www.google.com/maps/place/Plac+zabaw/data=!4m7!3m6!1s0x46fd752df77e255f:0x2206a72cc8c2ee0a!8m2!3d54.4063351!4d18.5683737!16s%2Fg%2F11c0rqy13b!19sChIJXyV-9y11_UYRCu7CyCynBiI?authuser=0&hl=en&rclk=1
54.3969444,18.6138889,park,Park Millenium Gdaska,https://www.google.com/maps/place/Park+Millenium+Gda%C5%84ska/data=!4m7!3m6!1s0x46fd74c9f118c3e7:0x5742fad157586b50!8m2!3d54.3969444!4d18.6138889!16s%2Fg%2F11h021rp_!19sChIJ58MY8cl0_UYRUGtYV9H6Qlc?authuser=0&hl=en&rclk=1
54.4151035,18.6137755,park,Polana,https://www.google.com/maps/place/Polana/data=!4m7!3m6!1s0x46fd0b011557a277:0xed067011b6fda640!8m2!3d54.4151035!4d18.6137755!16s%2Fg%2F11kck_vj2r!19sChIJd6JXFQEL_UYRQKb9thFwBu0?authuser=0&hl=en&rclk=1
54.407504,18.6436267,park,Brze藕nieski Park,https://www.google.com/maps/place/Brze%C5%BAnie%C5%84ski+Park/data=!4m7!3m6!1s0x46fd0b503429c2d5:0x445a7f410d3c7437!8m2!3d54.407504!4d18.6436267!16s%2Fg%2F122gwrrn!19sChIJ1cIpNFAL_UYRN3Q8DUF_WkQ?authuser=0&hl=en&rclk=1
54.4079691,18.6378157,park,Park Brzeziski,https://www.google.com/maps/place/Park+Brzezi%C5%84ski/data=!4m7!3m6!1s0x46fd0b204fb91c0f:0x64b6c72f03cc0745!8m2!3d54.4079691!4d18.6378157!16s%2Fg%2F11tjxr0mm_!19sChIJDxy5TyAL_UYRRQfMAy_HtmQ?authuser=0&hl=en&rclk=1
54.3966056,18.6714964,park,Park Jordanowski,https://www.google.com/maps/place/Park+Jordanowski/data=!4m7!3m6!1s0x46fd0cb2f46b53e1:0x1dbc1b6491b955d4!8m2!3d54.3966056!4d18.6714964!16s%2Fg%2F11h9rq211j!19sChIJ4VNr9LIM_UYR1FW5kWQbvB0?authuser=0&hl=en&rclk=1
54.3672074,18.6298453,park,Zielony Park,https://www.google.com/maps/place/Zielony+Park/data=!4m7!3m6!1s0x46fd749d5866e711:0xbdd9fbfffb1f28d8!8m2!3d54.3672074!4d18.6298453!16s%2Fg%2F12qgmryxz!19sChIJEedmWJ10_UYR2Cgf-__72b0?authuser=0&hl=en&rclk=1
54.3789734,18.6230063,park,City Park,https://www.google.com/maps/place/City+Park/data=!4m7!3m6!1s0x46fd753d5d2b3159:0x128b91d6327556ae!8m2!3d54.3789734!4d18.6230063!16s%2Fg%2F11t1cgbqdm!19sChIJWTErXT11_UYRrlZ1MtaRixI?authuser=0&hl=en&rclk=1
54.3415916,18.3955824,park,Dirt park w Lniskach,https://www.google.com/maps/place/Dirt+park+w+Lniskach/data=!4m7!3m6!1s0x46fd9d8bf6a7d6b9:0x915e5efb99dfd9ef!8m2!3d54.3415916!4d18.3955824!16s%2Fg%2F11n05qxscc!19sChIJudan9oud_UYR79nfmfteXpE?authuser=0&hl=en&rclk=1
54.3590993,18.5810781,park,Centralpark Mini Park,https://www.google.com/maps/place/Centralpark+Mini+Park/data=!4m7!3m6!1s0x46fd75d4c84ba937:0x3ee4ab0512f88fa6!8m2!3d54.3590993!4d18.5810781!16s%2Fg%2F11nn67mfhl!19sChIJN6lLyNR1_UYRpo_4EgWr5D4?authuser=0&hl=en&rclk=1
54.3999076,18.5319905,park,Staw-Dolina Radoci,https://www.google.com/maps/place/Staw-Dolina+Rado%C5%9Bci/data=!4m7!3m6!1s0x46fd75157bf4a6bb:0x2da57640ae03508!8m2!3d54.3999076!4d18.5319905!16s%2Fg%2F11j6bkx5ky!19sChIJu6b0exV1_UYRCDXgCmRX2gI?authuser=0&hl=en&rclk=1
54.4000754,18.5194219,park,Ellah枚he,https://www.google.com/maps/place/Ellah%C3%B6he/data=!4m7!3m6!1s0x46fd759d4d2b38f7:0x6eca059450491929!8m2!3d54.4000754!4d18.5194219!16s%2Fg%2F11qmr685ng!19sChIJ9zgrTZ11_UYRKRlJUJQFym4?authuser=0&hl=en&rclk=1
54.3864791,18.5824208,park,Park na kwadracie,https://www.google.com/maps/place/Park+na+kwadracie/data=!4m7!3m6!1s0x46fd75691a86c709:0x871ece0fe59787b!8m2!3d54.3864791!4d18.5824208!16s%2Fg%2F11p13vvj12!19sChIJCceGGml1_UYRe3hZ_uDscQg?authuser=0&hl=en&rclk=1
54.3933108,18.5893892,park,"Park, Plac zieleni","https://www.google.com/maps/place/Park,+Plac+zieleni/data=!4m7!3m6!1s0x46fd74da4fbf45c5:0x9c8ca9a7fade5e56!8m2!3d54.3933108!4d18.5893892!16s%2Fg%2F11hckfqwkv!19sChIJxUW_T9p0_UYRVl7e-qepjJw?authuser=0&hl=en&rclk=1"
54.4009613,18.5978698,park,Wybieg Dla Ps贸w,https://www.google.com/maps/place/Wybieg+Dla+Ps%C3%B3w/data=!4m7!3m6!1s0x46fd74d23ea34235:0x8bb7c63f7bd78b93!8m2!3d54.4009613!4d18.5978698!16s%2Fg%2F11g6qv9qsh!19sChIJNUKjPtJ0_UYRk4vXez_Gt4s?authuser=0&hl=en&rclk=1
54.3819935,18.6074424,park,Park Ku藕niczki,https://www.google.com/maps/place/Park+Ku%C5%BAniczki/data=!4m7!3m6!1s0x46fd74bfdc2a2305:0xa44636d5ecfcca38!8m2!3d54.3819935!4d18.6074424!16s%2Fg%2F121gjxhf!19sChIJBSMq3L90_UYROMr87NU2RqQ?authuser=0&hl=en&rclk=1
54.3969399,18.6706919,park,"G贸rka ""Jordanka""",https://www.google.com/maps/place/G%C3%B3rka+%22Jordanka%22/data=!4m7!3m6!1s0x46fd0cb263d1efc5:0x34506df17c4e2448!8m2!3d54.3969399!4d18.6706919!16s%2Fg%2F11c7srbd_h!19sChIJxe_RY7IM_UYRSCROfPFtUDQ?authuser=0&hl=en&rclk=1
54.3988484,18.6657114,park,Wybieg dla ps贸w,https://www.google.com/maps/place/Wybieg+dla+ps%C3%B3w/data=!4m7!3m6!1s0x46fd0cac35e29bcb:0xbb20cbc4ea335458!8m2!3d54.3988484!4d18.6657114!16s%2Fg%2F11f03zyxbt!19sChIJy5viNawM_UYRWFQz6sTLILs?authuser=0&hl=en&rclk=1
54.3915297,18.6468108,park,Park ks.kan. Kazimierza Orkusza,https://www.google.com/maps/place/Park+ks.kan.+Kazimierza+Orkusza/data=!4m7!3m6!1s0x46fd74a9fb99afeb:0xebf606d692d7325c!8m2!3d54.3915297!4d18.6468108!16s%2Fg%2F11f2xyqbn9!19sChIJ66-Z-6l0_UYRXDLXktYG9us?authuser=0&hl=en&rclk=1
54.3516531,18.6533563,park,Park witopeka,https://www.google.com/maps/place/Park+%C5%9Awi%C4%99tope%C5%82ka/data=!4m7!3m6!1s0x46fd73755a2e980f:0x3c92d55128480cd5!8m2!3d54.3516531!4d18.6533563!16s%2Fg%2F11cs3bhrlx!19sChIJD5guWnVz_UYR1QxIKFHVkjw?authuser=0&hl=en&rclk=1
54.371337,18.6235069,park,Park Akademicki,https://www.google.com/maps/place/Park+Akademicki/data=!4m7!3m6!1s0x46fd749bc810d2bd:0xabb63314c271a3e5!8m2!3d54.371337!4d18.6235069!16s%2Fg%2F1tf68rb7!19sChIJvdIQyJt0_UYR5aNxwhQztqs?authuser=0&hl=en&rclk=1
54.3683438,18.6337686,park,Park Steffens贸w,https://www.google.com/maps/place/Park+Steffens%C3%B3w/data=!4m7!3m6!1s0x46fd736289d506dd:0x187070fa3ea189a5!8m2!3d54.3683438!4d18.6337686!16s%2Fg%2F11bwptz8g8!19sChIJ3QbViWJz_UYRpYmhPvpwcBg?authuser=0&hl=en&rclk=1
54.3522048,18.631913,park,Park Przy ul. Bema,https://www.google.com/maps/place/Park+Przy+ul.+Bema/data=!4m7!3m6!1s0x46fd738253ca7e2d:0xf2f384e2420fe62d!8m2!3d54.3522048!4d18.631913!16s%2Fg%2F11fzshgw_z!19sChIJLX7KU4Jz_UYRLeYPQuKE8_I?authuser=0&hl=en&rclk=1
54.3569739,18.4856063,park,Park Maszynowa,https://www.google.com/maps/place/Park+Maszynowa/data=!4m7!3m6!1s0x46fd758b18555555:0xc9af10b7e5e5d2d4!8m2!3d54.3569739!4d18.4856063!16s%2Fg%2F11h7zf44_r!19sChIJVVVVGIt1_UYR1NLl5bcQr8k?authuser=0&hl=en&rclk=1
54.3670991,18.6103612,park,Park w Kr贸lewskiej Dolinie,https://www.google.com/maps/place/Park+w+Kr%C3%B3lewskiej+Dolinie/data=!4m7!3m6!1s0x46fd748f994f3619:0x4599baa2a9dfe44e!8m2!3d54.3670991!4d18.6103612!16s%2Fg%2F11gdt4hw2p!19sChIJGTZPmY90_UYRTuTfqaK6mUU?authuser=0&hl=en&rclk=1
54.3888212,18.5687577,park,Ogrodzenie pozostae po podobozie jenieckim w Oliwie (Stalag XX B/Z C),https://www.google.com/maps/place/Ogrodzenie+pozosta%C5%82e+po+podobozie+jenieckim+w+Oliwie+(Stalag+XX+B%2FZ+C)/data=!4m7!3m6!1s0x46fd759d7d45655f:0xe97e51195a9001a7!8m2!3d54.3888212!4d18.5687577!16s%2Fg%2F11nnry4bz2!19sChIJX2VFfZ11_UYRpwGQWhlRfuk?authuser=0&hl=en&rclk=1
54.3724635,18.5926056,park,Jakowa Valley Park,https://www.google.com/maps/place/Ja%C5%9Bkowa+Valley+Park/data=!4m7!3m6!1s0x46fd74ed87dd0b95:0xffed4c1b453641f7!8m2!3d54.3724635!4d18.5926056!16s%2Fg%2F11b6j702n_!19sChIJlQvdh-10_UYR90E2RRtM7f8?authuser=0&hl=en&rclk=1
54.3702662,18.6005846,park,Park Gdansk,https://www.google.com/maps/place/Park+Gdansk/data=!4m7!3m6!1s0x46fd75a92f9034ef:0xfb2b8fa0ae10378a!8m2!3d54.3702662!4d18.6005846!16s%2Fg%2F11ny42_3tr!19sChIJ7zSQL6l1_UYRijcQrqCPK_s?authuser=0&hl=en&rclk=1
54.3833613,18.5978077,park,park - teren byego cmentarza katolickiego,https://www.google.com/maps/place/park+-+teren+by%C5%82ego+cmentarza+katolickiego/data=!4m7!3m6!1s0x46fd7517820d13e1:0xa65a23f5cb260eb0!8m2!3d54.3833613!4d18.5978077!16s%2Fg%2F11knbz29x_!19sChIJ4RMNghd1_UYRsA4my_UjWqY?authuser=0&hl=en&rclk=1
54.3864307,18.5915563,park,Skwer Marszaka J贸zefa Pisudskiego,https://www.google.com/maps/place/Skwer+Marsza%C5%82ka+J%C3%B3zefa+Pi%C5%82sudskiego/data=!4m7!3m6!1s0x46fd74c2d1cc2a97:0xe3eb548bdcf2037a!8m2!3d54.3864307!4d18.5915563!16s%2Fg%2F11f_j9bmsq!19sChIJlyrM0cJ0_UYRegPy3ItU6-M?authuser=0&hl=en&rclk=1
54.3793496,18.6021981,park,Park de Gaulle'a,https://www.google.com/maps/place/Park+de+Gaulle'a/data=!4m7!3m6!1s0x46fd75c145ddacdb:0x5952f31b2212e9d!8m2!3d54.3793496!4d18.6021981!16s%2Fg%2F11fct34855!19sChIJ26zdRcF1_UYRnS4hsjEvlQU?authuser=0&hl=en&rclk=1
54.3805267,18.6180646,park,"Park ""Nad Strzy偶""",https://www.google.com/maps/place/Park+%22Nad+Strzy%C5%BC%C4%85%22/data=!4m7!3m6!1s0x46fd74bd68444dfd:0x59315373b0c73982!8m2!3d54.3805267!4d18.6180646!16s%2Fg%2F11_r9tzbj!19sChIJ_U1EaL10_UYRgjnHsHNTMVk?authuser=0&hl=en&rclk=1
54.3759264,18.6174693,park,Park Uphagena,https://www.google.com/maps/place/Park+Uphagena/data=!4m7!3m6!1s0x46fd74976f6caa4b:0x1003fc382e7aab43!8m2!3d54.3759264!4d18.6174693!16s%2Fg%2F12qgh01x9!19sChIJS6psb5d0_UYRQ6t6Ljj8AxA?authuser=0&hl=en&rclk=1
54.3518616,18.6494985,park,Park,https://www.google.com/maps/place/Park/data=!4m7!3m6!1s0x46fd739e29b4533b:0xda0d5ae36c69852f!8m2!3d54.3518616!4d18.6494985!16s%2Fg%2F11g6w7ckkc!19sChIJO1O0KZ5z_UYRL4VpbONaDdo?authuser=0&hl=en&rclk=1
54.3708969,18.7326698,park,Camper & Camping Park,https://www.google.com/maps/place/Camper+%26+Camping+Park/data=!4m7!3m6!1s0x46fd72c5db1fd9f1:0x8e24fa4ce7a3926c!8m2!3d54.3708969!4d18.7326698!16s%2Fg%2F11f03n3ct8!19sChIJ8dkf28Vy_UYRbJKj50z6JI4?authuser=0&hl=en&rclk=1
54.3703055,18.7298191,park,Camping nr 114 Gdask,https://www.google.com/maps/place/Camping+nr+114+Gda%C5%84sk/data=!4m7!3m6!1s0x46fd72c6036186db:0x4bc1abde1fe2906e!8m2!3d54.3703055!4d18.7298191!16s%2Fg%2F12648m2ww!19sChIJ24ZhA8Zy_UYRbpDiH96rwUs?authuser=0&hl=en&rclk=1
54.3628952,18.5797805,park,Park,https://www.google.com/maps/place/Park/data=!4m7!3m6!1s0x46fd7458dbb255e1:0x2e4a86975015b63a!8m2!3d54.3628952!4d18.5797805!16s%2Fg%2F11c54__6xn!19sChIJ4VWy21h0_UYROrYVUJeGSi4?authuser=0&hl=en&rclk=1
54.3464968,18.607838,park,Park Na Zboczu,https://www.google.com/maps/place/Park+Na+Zboczu/data=!4m7!3m6!1s0x46fd7544de842cb3:0xdf25088891a89408!8m2!3d54.3464968!4d18.607838!16s%2Fg%2F11hdjhntj5!19sChIJsyyE3kR1_UYRCJSokYgIJd8?authuser=0&hl=en&rclk=1
54.3545221,18.5834868,park,"Park ""Soneczniki""",https://www.google.com/maps/place/Park+%22S%C5%82oneczniki%22/data=!4m7!3m6!1s0x46fd745d99079639:0x490b58c49a31b5e5!8m2!3d54.3545221!4d18.5834868!16s%2Fg%2F11f147d4dm!19sChIJOZYHmV10_UYR5bUxmsRYC0k?authuser=0&hl=en&rclk=1
54.3698322,18.5963922,park,Minipark Jakowy Zaktek,https://www.google.com/maps/place/Minipark+Ja%C5%9Bkowy+Zak%C4%85tek/data=!4m7!3m6!1s0x46fd748d331f62e7:0x6f5ebf72d2956433!8m2!3d54.3698322!4d18.5963922!16s%2Fg%2F11c0xjfpyl!19sChIJ52IfM410_UYRM2SV0nK_Xm8?authuser=0&hl=en&rclk=1
54.3778101,18.6042768,park,Park kieszonkowy przy Matki Polki,https://www.google.com/maps/place/Park+kieszonkowy+przy+Matki+Polki/data=!4m7!3m6!1s0x46fd75f163b7855f:0xf0abd24d9355c180!8m2!3d54.3778101!4d18.6042768!16s%2Fg%2F11hjdyz_wp!19sChIJX4W3Y_F1_UYRgMFVk03Sq_A?authuser=0&hl=en&rclk=1
54.3721293,18.6006494,park,ka Festynowa,https://www.google.com/maps/place/%C5%81%C4%85ka+Festynowa/data=!4m7!3m6!1s0x46fd75fb129a5f19:0xb3ded3cefb9b59fc!8m2!3d54.3721293!4d18.6006494!16s%2Fg%2F11j6yq8dsb!19sChIJGV-aEvt1_UYR_Fmb-87T3rM?authuser=0&hl=en&rclk=1
54.3742891,18.5934423,park,Park (leny) Jakowej Doliny,https://www.google.com/maps/place/Park+(le%C5%9Bny)+Ja%C5%9Bkowej+Doliny/data=!4m7!3m6!1s0x46fd74edba6b6ea5:0x812b5e3591f6fc0b!8m2!3d54.3742891!4d18.5934423!16s%2Fg%2F11gbtbp2nb!19sChIJpW5ruu10_UYRC_z2kTVeK4E?authuser=0&hl=en&rclk=1
54.3727947,18.6060461,park,Polana Zerneckego,https://www.google.com/maps/place/Polana+Zerneckego/data=!4m7!3m6!1s0x46fd75d676aa67c9:0x2dd25223a6f83f15!8m2!3d54.3727947!4d18.6060461!16s%2Fg%2F11j6yqcxwz!19sChIJyWeqdtZ1_UYRFT_4piNS0i0?authuser=0&hl=en&rclk=1
54.3691873,18.6238095,park,Park Traugutta,https://www.google.com/maps/place/Park+Traugutta/data=!4m7!3m6!1s0x46fd75eb6a5ce86d:0xd2875efd4c4a351b!8m2!3d54.3691873!4d18.6238095!16s%2Fg%2F11tmn0y7nq!19sChIJbehcaut1_UYRGzVKTP1eh9I?authuser=0&hl=en&rclk=1
54.3567243,18.679956,park,Park przy przetocznej,https://www.google.com/maps/place/Park+przy+przetocznej/data=!4m7!3m6!1s0x46fd7319fb162093:0x7d7fa09ea0b62f0f!8m2!3d54.3567243!4d18.679956!16s%2Fg%2F11qgdgl444!19sChIJkyAW-xlz_UYRDy-2oJ6gf30?authuser=0&hl=en&rclk=1
54.3497674,18.6708328,park,Park Siennicki,https://www.google.com/maps/place/Park+Siennicki/data=!4m7!3m6!1s0x46fd73080bacd8d1:0x79e8d998bfd3fca4!8m2!3d54.3497674!4d18.6708328!16s%2Fg%2F11c60d36d5!19sChIJ0disCwhz_UYRpPzTv5jZ6Hk?authuser=0&hl=en&rclk=1
54.3508049,18.6699359,park,Minipark Dugie Ogrody,https://www.google.com/maps/place/Minipark+D%C5%82ugie+Ogrody/data=!4m7!3m6!1s0x46fd7308079939a3:0x7e1202191b0e54d3!8m2!3d54.3508049!4d18.6699359!16s%2Fg%2F11ggbd36j5!19sChIJozmZBwhz_UYR01QOGxkCEn4?authuser=0&hl=en&rclk=1
54.3439753,18.4338902,park,Park w Le藕nie,https://www.google.com/maps/place/Park+w+Le%C5%BAnie/data=!4m7!3m6!1s0x46fd9faeb1a75631:0xb23321dd6ce9f28!8m2!3d54.3439753!4d18.4338902!16s%2Fg%2F11n_ygxshj!19sChIJMVansa6f_UYRKJ_O1h0yIws?authuser=0&hl=en&rclk=1
54.3413735,18.3613647,park,Park Przyklasztorny,https://www.google.com/maps/place/Park+Przyklasztorny/data=!4m7!3m6!1s0x46fd9dfcffdb67c9:0x8707ecf4ab1e47bf!8m2!3d54.3413735!4d18.3613647!16s%2Fg%2F11fct6q7g6!19sChIJyWfb__yd_UYRv0ceq_TsB4c?authuser=0&hl=en&rclk=1
54.3424348,18.3635325,park,Park Jubileuszowy 800 lat 呕ukowa,https://www.google.com/maps/place/Park+Jubileuszowy+800+lat+%C5%BBukowa/data=!4m7!3m6!1s0x46fd9c229e01e517:0x59962994b902620a!8m2!3d54.3424348!4d18.3635325!16s%2Fg%2F11c0rhr771!19sChIJF-UBniKc_UYRCmICuZQpllk?authuser=0&hl=en&rclk=1
54.3431737,18.5547864,park,Park dworski im. ks. BRONISAWA KABATA,https://www.google.com/maps/place/Park+dworski+im.+ks.+BRONIS%C5%81AWA+KABATA/data=!4m7!3m6!1s0x46fd743634556985:0xbdae1b7f24f292ea!8m2!3d54.3431737!4d18.5547864!16s%2Fg%2F11g8ksd564!19sChIJhWlVNDZ0_UYR6pLyJH8brr0?authuser=0&hl=en&rclk=1
54.3405886,18.581652,park,Park Cedrowa,https://www.google.com/maps/place/Park+Cedrowa/data=!4m7!3m6!1s0x46fd75380f6eb613:0xb01fd365ec7ca71c!8m2!3d54.3405886!4d18.581652!16s%2Fg%2F11ghn290q0!19sChIJE7ZuDzh1_UYRHKd87GXTH7A?authuser=0&hl=en&rclk=1
54.3634097,18.537767,park,"Rezerwat Przyrody ""Dolina Strzy偶y""",https://www.google.com/maps/place/Rezerwat+Przyrody+%22Dolina+Strzy%C5%BCy%22/data=!4m7!3m6!1s0x46fd75d783b82f71:0x140e5022ad742499!8m2!3d54.3634097!4d18.537767!16s%2Fg%2F122qyyd6!19sChIJcS-4g9d1_UYRmSR0rSJQDhQ?authuser=0&hl=en&rclk=1
54.3408421,18.5644029,park,Park w dolince,https://www.google.com/maps/place/Park+w+dolince/data=!4m7!3m6!1s0x46fd7438e83f438b:0xd32fe7fd7cb67916!8m2!3d54.3408421!4d18.5644029!16s%2Fg%2F12m959787!19sChIJi0M_6Dh0_UYRFnm2fP3nL9M?authuser=0&hl=en&rclk=1
54.354637,18.6363566,park,Park Hevelianum/ Gdask,https://www.google.com/maps/place/Park+Hevelianum%2F+Gda%C5%84sk/data=!4m7!3m6!1s0x46fd7379cf84b61f:0x953cf9af7ba3a8ba!8m2!3d54.354637!4d18.6363566!16s%2Fg%2F11gdt3_wtf!19sChIJH7aEz3lz_UYRuqije6_5PJU?authuser=0&hl=en&rclk=1
54.3563976,18.6581057,park,Park dla ps贸w Imienia Coli Zamorskiej,https://www.google.com/maps/place/Park+dla+ps%C3%B3w+Imienia+Coli+Zamorskiej/data=!4m7!3m6!1s0x46fd738352051a6b:0x9fe8476ffd27a361!8m2!3d54.3563976!4d18.6581057!16s%2Fg%2F11hq1d3qzg!19sChIJaxoFUoNz_UYRYaMn_W9H6J8?authuser=0&hl=en&rclk=1
54.3542955,18.6496794,park,Skwer Heweliusza,https://www.google.com/maps/place/Skwer+Heweliusza/data=!4m7!3m6!1s0x46fd73a13d37cf8b:0xcb0dabcf8ee3c5e9!8m2!3d54.3542955!4d18.6496794!16s%2Fg%2F11h528s3xk!19sChIJi883PaFz_UYR6cXjjs-rDcs?authuser=0&hl=en&rclk=1
54.3513352,18.6451162,park,Mostek,https://www.google.com/maps/place/Mostek/data=!4m7!3m6!1s0x46fd739dd8e1b6f3:0x61a4ec5dc7b53628!8m2!3d54.3513352!4d18.6451162!16s%2Fg%2F11c1xcw8yb!19sChIJ87bh2J1z_UYRKDa1x13spGE?authuser=0&hl=en&rclk=1
54.328349,19.1428497,park,Vistula Spit Landscape Park,https://www.google.com/maps/place/Vistula+Spit+Landscape+Park/data=!4m7!3m6!1s0x46fd3757c21608d9:0x739d0f2a3738ce64!8m2!3d54.328349!4d19.1428497!16s%2Fm%2F047g35h!19sChIJ2QgWwlc3_UYRZM44NyoPnXM?authuser=0&hl=en&rclk=1
54.3289643,19.1444064,park,Mierzeja Wilana. Park Krajobrazowy Pomorskiego Zespou Park贸w Krajobrazowych,https://www.google.com/maps/place/Mierzeja+Wi%C5%9Blana.+Park+Krajobrazowy+Pomorskiego+Zespo%C5%82u+Park%C3%B3w+Krajobrazowych/data=!4m7!3m6!1s0x46fd4411f50d8359:0x17277f35923a660!8m2!3d54.3289643!4d19.1444064!16s%2Fg%2F1tdxtq7j!19sChIJWYMN9RFE_UYRYKYjWfN3cgE?authuser=0&hl=en&rclk=1
54.333923,18.5631106,park,Park przy Orlim Gnie藕dzie,https://www.google.com/maps/place/Park+przy+Orlim+Gnie%C5%BAdzie/data=!4m7!3m6!1s0x46fd756179ed7859:0x2971e6f383a39e18!8m2!3d54.333923!4d18.5631106!16s%2Fg%2F11g064tdh3!19sChIJWXjteWF1_UYRGJ6jg_PmcSk?authuser=0&hl=en&rclk=1
54.3515482,18.5170221,park,Wybieg dla ps贸w,https://www.google.com/maps/place/Wybieg+dla+ps%C3%B3w/data=!4m7!3m6!1s0x46fd75fc3724b23d:0xcce96c53df125f97!8m2!3d54.3515482!4d18.5170221!16s%2Fg%2F11qg3km12n!19sChIJPbIkN_x1_UYRl18S31Ns6cw?authuser=0&hl=en&rclk=1
54.3479824,18.5699506,park,Multipark Morena,https://www.google.com/maps/place/Multipark+Morena/data=!4m7!3m6!1s0x46fd7598ad4c08a5:0x43fc54b664b23856!8m2!3d54.3479824!4d18.5699506!16s%2Fg%2F11q1bsh_zs!19sChIJpQhMrZh1_UYRVjiyZLZU_EM?authuser=0&hl=en&rclk=1
54.3512778,18.5523383,park,Teren rekreacyjny i spacerowy Osiedle Alfa Park,https://www.google.com/maps/place/Teren+rekreacyjny+i+spacerowy+Osiedle+Alfa+Park/data=!4m7!3m6!1s0x46fd75db7eefe103:0x6819bea8014c6ee5!8m2!3d54.3512778!4d18.5523383!16s%2Fg%2F11ngtbq08x!19sChIJA-Hvftt1_UYR5W5MAai-GWg?authuser=0&hl=en&rclk=1
54.3476141,18.5701625,park,Wybieg dla ps贸w,https://www.google.com/maps/place/Wybieg+dla+ps%C3%B3w/data=!4m7!3m6!1s0x46fd75f2134ca32b:0xa8761b278c618a77!8m2!3d54.3476141!4d18.5701625!16s%2Fg%2F11t9gvmmw1!19sChIJK6NME_J1_UYRd4phjCcbdqg?authuser=0&hl=en&rclk=1
54.3468194,18.6083873,park,Park Adama Mickiewicza,https://www.google.com/maps/place/Park+Adama+Mickiewicza/data=!4m7!3m6!1s0x46fd75a582c1a735:0x7f8ca136422699dc!8m2!3d54.3468194!4d18.6083873!16s%2Fg%2F11hd8zyvns!19sChIJNafBgqV1_UYR3JkmQjahjH8?authuser=0&hl=en&rclk=1
54.3507859,18.6319358,park,skwer im. Ignacego Wilczewskiego,https://www.google.com/maps/place/skwer+im.+Ignacego+Wilczewskiego/data=!4m7!3m6!1s0x46fd73c82bc97ea7:0xb4f6eaa303819a3f!8m2!3d54.3507859!4d18.6319358!16s%2Fg%2F11hkqqtcrq!19sChIJp37JK8hz_UYRP5qBA6Pq9rQ?authuser=0&hl=en&rclk=1
54.3464273,18.6427253,park,G贸wna aleja dawnego Cmentarza Jana (Johannis-Kirchhof),https://www.google.com/maps/place/G%C5%82%C3%B3wna+aleja+dawnego+Cmentarza+Jana+(Johannis-Kirchhof)/data=!4m7!3m6!1s0x46fd73c12241d297:0x352a1dfec6deea41!8m2!3d54.3464273!4d18.6427253!16s%2Fg%2F11spr3ml1l!19sChIJl9JBIsFz_UYRQerexv4dKjU?authuser=0&hl=en&rclk=1
54.351797,18.6375798,park,Plac Wypoczynkowy,https://www.google.com/maps/place/Plac+Wypoczynkowy/data=!4m7!3m6!1s0x46fd735aff2c54a9:0xc45350b32576d170!8m2!3d54.351797!4d18.6375798!16s%2Fg%2F11f65bm5gk!19sChIJqVQs_1pz_UYRcNF2JbNQU8Q?authuser=0&hl=en&rclk=1
54.3481697,18.663777,park,Stary Cmentarz Barbary (Barbara-Kirchhof),https://www.google.com/maps/place/Stary+Cmentarz+Barbary+(Barbara-Kirchhof)/data=!4m7!3m6!1s0x46fd7350f611144b:0xa6a4dbdb7bd6c6a4!8m2!3d54.3481697!4d18.663777!16s%2Fg%2F11pw346rh1!19sChIJSxQR9lBz_UYRpMbWe9vbpKY?authuser=0&hl=en&rclk=1
54.3353939,18.6039587,park,Wybieg Dla Ps贸w,https://www.google.com/maps/place/Wybieg+Dla+Ps%C3%B3w/data=!4m7!3m6!1s0x46fd740adcc39e2b:0xd6d22ec48a2bbc68!8m2!3d54.3353939!4d18.6039587!16s%2Fg%2F11f5djj73k!19sChIJK57D3Ap0_UYRaLwrisQu0tY?authuser=0&hl=en&rclk=1
54.3333937,18.6031778,park,Recreational Park Jar Wilanowska,https://www.google.com/maps/place/Recreational+Park+Jar+Wilanowska/data=!4m7!3m6!1s0x46fd75552c5be8bb:0x67cbafeaeafae2f!8m2!3d54.3333937!4d18.6031778!16s%2Fg%2F11pqz7psps!19sChIJu-hbLFV1_UYRL66vrv66fAY?authuser=0&hl=en&rclk=1
54.3329644,18.6071468,park,Zbiornik retencyjny Madaliskiego,https://www.google.com/maps/place/Zbiornik+retencyjny+Madali%C5%84skiego/data=!4m7!3m6!1s0x46fd738ce6c35e29:0xf20adbf13924e2fa!8m2!3d54.3329644!4d18.6071468!16s%2Fg%2F11mvlry0fh!19sChIJKV7D5oxz_UYR-uIkOfHbCvI?authuser=0&hl=en&rclk=1
54.3224365,18.6266257,park,Park Oruski im. Emilii Hoene,https://www.google.com/maps/place/Park+Oru%C5%84ski+im.+Emilii+Hoene/data=!4m7!3m6!1s0x46fd73e8bc988de9:0x5d78447145c1b727!8m2!3d54.3224365!4d18.6266257!16s%2Fg%2F1213_ctv!19sChIJ6Y2YvOhz_UYRJ7fBRXFEeF0?authuser=0&hl=en&rclk=1
54.2945192,18.5273417,park,Park Sportowo-Rekreacyjny,https://www.google.com/maps/place/Park+Sportowo-Rekreacyjny/data=!4m7!3m6!1s0x46fd77c9b5e36c63:0xbc1c695ce26551e1!8m2!3d54.2945192!4d18.5273417!16s%2Fg%2F11ghrc1yzy!19sChIJY2zjtcl3_UYR4VFl4lxpHLw?authuser=0&hl=en&rclk=1
54.3199839,18.6041524,park,Gaj ojc贸w,https://www.google.com/maps/place/Gaj+ojc%C3%B3w/data=!4m7!3m6!1s0x46fd73f94e16b80b:0xc0c20fe10d4f382e!8m2!3d54.3199839!4d18.6041524!16s%2Fg%2F11dzslzsb0!19sChIJC7gWTvlz_UYRLjhPDeEPwsA?authuser=0&hl=en&rclk=1
54.3197725,18.6055147,park,Psi Park - Wybieg dla ps贸w,https://www.google.com/maps/place/Psi+Park+-+Wybieg+dla+ps%C3%B3w/data=!4m7!3m6!1s0x46fd73945db401a5:0x3de84934a8e22101!8m2!3d54.3197725!4d18.6055147!16s%2Fg%2F11j4q1sp87!19sChIJpQG0XZRz_UYRASHiqDRJ6D0?authuser=0&hl=en&rclk=1
54.3229056,18.5962485,park,Wybieg dla ps贸w,https://www.google.com/maps/place/Wybieg+dla+ps%C3%B3w/data=!4m7!3m6!1s0x46fd73f8827ef51f:0x685a16a0020e1917!8m2!3d54.3229056!4d18.5962485!16s%2Fg%2F11clw07zn2!19sChIJH_V-gvhz_UYRFxkOAqAWWmg?authuser=0&hl=en&rclk=1
54.3194329,18.6037447,park,"Zbiornik retencyjny ""Augustowska""",https://www.google.com/maps/place/Zbiornik+retencyjny+%22Augustowska%22/data=!4m7!3m6!1s0x46fd73feb2616b01:0x87208636fcd3301e!8m2!3d54.3194329!4d18.6037447!16s%2Fg%2F11dxdcw6jr!19sChIJAWthsv5z_UYRHjDT_DaGIIc?authuser=0&hl=en&rclk=1
54.3225469,18.6284716,park,Jeziorko mniejsze w Parku Oruskim,https://www.google.com/maps/place/Jeziorko+mniejsze+w+Parku+Oru%C5%84skim/data=!4m7!3m6!1s0x46fd73e238530801:0x5bbe51a746de16ee!8m2!3d54.3225469!4d18.6284716!16s%2Fg%2F11j7hkxd_f!19sChIJAQhTOOJz_UYR7hbeRqdRvls?authuser=0&hl=en&rclk=1
54.3226119,18.625225,park,Potok Oruski,https://www.google.com/maps/place/Potok+Oru%C5%84ski/data=!4m7!3m6!1s0x46fd73e9bd396fff:0x2683cb494b2d5365!8m2!3d54.3226119!4d18.625225!16s%2Fg%2F11k35wb50s!19sChIJ_285velz_UYRZVMtS0nLgyY?authuser=0&hl=en&rclk=1
54.270464,18.4623172,park,"Park, plac zabaw, grill","https://www.google.com/maps/place/Park,+plac+zabaw,+grill/data=!4m7!3m6!1s0x46fd77db6b7921d1:0x46eece6e98adb48!8m2!3d54.270464!4d18.4623172!16s%2Fg%2F11f781nlcv!19sChIJ0SF5a9t3_UYRSNuK6ebsbgQ?authuser=0&hl=en&rclk=1"
54.2708464,18.4614956,park,Park rekreacyjny w Kolbudach (plac zabaw i grill),https://www.google.com/maps/place/Park+rekreacyjny+w+Kolbudach+(plac+zabaw+i+grill)/data=!4m7!3m6!1s0x46fd77be5cd85df1:0x6cd2d71a728294cf!8m2!3d54.2708464!4d18.4614956!16s%2Fg%2F11fyzfpf_q!19sChIJ8V3YXL53_UYRz5SCchrX0mw?authuser=0&hl=en&rclk=1
54.3050226,18.5774866,park,Trzcinowisko (Gdask ostowice / Borkowo / Kowale),https://www.google.com/maps/place/Trzcinowisko+(Gda%C5%84sk+%C5%81ostowice+%2F+Borkowo+%2F+Kowale)/data=!4m7!3m6!1s0x46fd775ca102b7ff:0xe97b102bec19625e!8m2!3d54.3050226!4d18.5774866!16s%2Fg%2F11h58fzdkl!19sChIJ_7cCoVx3_UYRXmIZ7CsQe-k?authuser=0&hl=en&rclk=1
54.3037803,18.6277961,park,Park Ferber贸w,https://www.google.com/maps/place/Park+Ferber%C3%B3w/data=!4m7!3m6!1s0x46fd7166b0ac74dd:0x1cb3aad31ebcaff!8m2!3d54.3037803!4d18.6277961!16s%2Fg%2F11f2r_zpcp!19sChIJ3XSssGZx_UYR_8rrMa06ywE?authuser=0&hl=en&rclk=1
54.2582661,18.636749,park,Park Centralny,https://www.google.com/maps/place/Park+Centralny/data=!4m7!3m6!1s0x46fd711d45979971:0x941e700787fa820a!8m2!3d54.2582661!4d18.636749!16s%2Fg%2F11ghq3q859!19sChIJcZmXRR1x_UYRCoL6hwdwHpQ?authuser=0&hl=en&rclk=1
54.2631349,18.6673634,park,Dbowy Park,https://www.google.com/maps/place/D%C4%99bowy+Park/data=!4m7!3m6!1s0x46fd71ca3d489ff7:0xe5ebb46392aadd39!8m2!3d54.2631349!4d18.6673634!16s%2Fg%2F11h0vq3f9l!19sChIJ959IPcpx_UYROd2qkmO06-U?authuser=0&hl=en&rclk=1
54.2649375,18.6626875,park,Park im. Jerzego Popieuszki,https://www.google.com/maps/place/Park+im.+Jerzego+Popie%C5%82uszki/data=!4m7!3m6!1s0x46fd713b26987767:0x7c98722f2af0ecbd!8m2!3d54.2649375!4d18.6626875!16s%2Fg%2F11jy4v082l!19sChIJZ3eYJjtx_UYRvezwKi9ymHw?authuser=0&hl=en&rclk=1
54.2671555,18.6665291,park,Park Krainy Polodowcowej,https://www.google.com/maps/place/Park+Krainy+Polodowcowej/data=!4m7!3m6!1s0x46fd71c82d2c4cd5:0xaa5a46ceacdc6704!8m2!3d54.2671555!4d18.6665291!16s%2Fg%2F11cs5m9js_!19sChIJ1UwsLchx_UYRBGfcrM5GWqo?authuser=0&hl=en&rclk=1
54.2625643,18.6358081,park,Park,https://www.google.com/maps/place/Park/data=!4m7!3m6!1s0x46fd71c479cd5541:0xbd631cd9e6af008c!8m2!3d54.2625643!4d18.6358081!16s%2Fg%2F11mqly1hxh!19sChIJQVXNecRx_UYRjACv5tkcY70?authuser=0&hl=en&rclk=1
54.2435476,18.5981533,park,Park Podworski w Bdzieszynie,https://www.google.com/maps/place/Park+Podworski+w+B%C4%99dzieszynie/data=!4m7!3m6!1s0x46fd718fcbf41b67:0xba1771d1bb9cafd8!8m2!3d54.2435476!4d18.5981533!16s%2Fg%2F11jlrpdv0b!19sChIJZxv0y49x_UYR2K-cu9FxF7o?authuser=0&hl=en&rclk=1
54.2873204,18.9621572,park,Park im. Starego Prachara,https://www.google.com/maps/place/Park+im.+Starego+Prachara/data=!4m7!3m6!1s0x46fd6a4257fb1c65:0x6df313e56300b4fc!8m2!3d54.2873204!4d18.9621572!16s%2Fg%2F11g9g03bwy!19sChIJZRz7V0Jq_UYR_LQAY-UT820?authuser=0&hl=en&rclk=1
54.2788374,18.2474532,park,Park,https://www.google.com/maps/place/Park/data=!4m7!3m6!1s0x46fd84caa4ffc155:0x153404c96966cb14!8m2!3d54.2788374!4d18.2474532!16s%2Fg%2F11g6b2wdql!19sChIJVcH_pMqE_UYRFMtmackENBU?authuser=0&hl=en&rclk=1
54.2782659,18.6063726,park,cie偶ka dydaktyczna,https://www.google.com/maps/place/%C5%9Acie%C5%BCka+dydaktyczna/data=!4m7!3m6!1s0x46fd719efdae452f:0xf03b5ab6e03ceec7!8m2!3d54.2782659!4d18.6063726!16s%2Fg%2F11fl2g6801!19sChIJL0Wu_Z5x_UYRx-484LZaO_A?authuser=0&hl=en&rclk=1
54.2598723,18.6280294,park,Park Dla Ps贸w,https://www.google.com/maps/place/Park+Dla+Ps%C3%B3w/data=!4m7!3m6!1s0x46fd71e24fb8fdb1:0xc6270ada4ba393ff!8m2!3d54.2598723!4d18.6280294!16s%2Fg%2F11f780v_4g!19sChIJsf24T-Jx_UYR_5OjS9oKJ8Y?authuser=0&hl=en&rclk=1
54.2587292,18.6451333,park,Park piknikowy z grillem i paleniskiem,https://www.google.com/maps/place/Park+piknikowy+z+grillem+i+paleniskiem/data=!4m7!3m6!1s0x46fd71adb8b86c89:0xcd23ad318f6f956e!8m2!3d54.2587292!4d18.6451333!16s%2Fg%2F11nwxb8_49!19sChIJiWy4uK1x_UYRbpVvjzGtI80?authuser=0&hl=en&rclk=1
54.2585829,18.6370109,park,Park na rogu ulic Grunwaldzkiej i Mickiewicza,https://www.google.com/maps/place/Park+na+rogu+ulic+Grunwaldzkiej+i+Mickiewicza/data=!4m7!3m6!1s0x46fd7053cdabd093:0xdb3ea10a430817!8m2!3d54.2585829!4d18.6370109!16s%2Fg%2F11hdc2l2c7!19sChIJk9CrzVNw_UYRFwhDCqE-2wA?authuser=0&hl=en&rclk=1
54.2863043,18.6370539,park,Barszcz Sosnowskiego niebiezpieczna rolina,https://www.google.com/maps/place/Barszcz+Sosnowskiego+niebiezpieczna+ro%C5%9Blina/data=!4m7!3m6!1s0x46fd719b55bd87bd:0xea5b8d5ee2f79ff1!8m2!3d54.2863043!4d18.6370539!16s%2Fg%2F11ghzbwh43!19sChIJvYe9VZtx_UYR8Z_34l6NW-o?authuser=0&hl=en&rclk=1
54.2586681,18.6344124,park,Park z Grusz,https://www.google.com/maps/place/Park+z+Grusz%C4%85/data=!4m7!3m6!1s0x46fd714132bf5ccb:0xdbb2c42494829a1b!8m2!3d54.2586681!4d18.6344124!16s%2Fg%2F11fqz55g5y!19sChIJy1y_MkFx_UYRG5qClCTEsts?authuser=0&hl=en&rclk=1
54.1803668,18.7793762,park,Park,https://www.google.com/maps/place/Park/data=!4m7!3m6!1s0x46fd65e2680d668b:0xbdfa2ae49c145f40!8m2!3d54.1803668!4d18.7793762!16s%2Fg%2F11f50wxsx2!19sChIJi2YNaOJl_UYRQF8UnOQq-r0?authuser=0&hl=en&rclk=1
54.2588407,18.5644829,park,Park podworski w Arciszewie,https://www.google.com/maps/place/Park+podworski+w+Arciszewie/data=!4m7!3m6!1s0x46fd712b90b388f3:0xbfcb5b81e60b1fac!8m2!3d54.2588407!4d18.5644829!16s%2Fg%2F11qm093lrc!19sChIJ84izkCtx_UYRrB8L5oFby78?authuser=0&hl=en&rclk=1
54.2329931,18.5970265,park,Park leny podworski w Wojanowie,https://www.google.com/maps/place/Park+le%C5%9Bny+podworski+w+Wojanowie/data=!4m7!3m6!1s0x46fd71d59ffda3af:0xf198114c9eb2d9f7!8m2!3d54.2329931!4d18.5970265!16s%2Fg%2F11fmz7dnhq!19sChIJr6P9n9Vx_UYR99mynkwRmPE?authuser=0&hl=en&rclk=1
54.2607684,18.6449074,park,Psi Park,https://www.google.com/maps/place/Psi+Park/data=!4m7!3m6!1s0x46fd7143526ba30d:0x71895ea753a97e29!8m2!3d54.2607684!4d18.6449074!16s%2Fg%2F11h_60k0xz!19sChIJDaNrUkNx_UYRKX6pU6deiXE?authuser=0&hl=en&rclk=1
54.2522904,18.6289467,park,Baltic International Cultural Park Faktoria,https://www.google.com/maps/place/Baltic+International+Cultural+Park+Faktoria/data=!4m7!3m6!1s0x46fd705a31f17dab:0xe5156cacce2511a6!8m2!3d54.2522904!4d18.6289467!16s%2Fg%2F1z44zmn_t!19sChIJq33xMVpw_UYRphElzqxsFeU?authuser=0&hl=en&rclk=1
54.249312,18.8463307,park,Park imienia Janusza Goliskiego,https://www.google.com/maps/place/Park+imienia+Janusza+Goli%C5%84skiego/data=!4m7!3m6!1s0x46fd69370b040fed:0xbe0a60a5d3b20d69!8m2!3d54.249312!4d18.8463307!16s%2Fg%2F11ggng7bt8!19sChIJ7Q8ECzdp_UYRaQ2y06VgCr4?authuser=0&hl=en&rclk=1
