lat,lon,type,title,link
54.4683394,18.4630778,restaurant,Dos Amigos Gdynia,https://www.google.com/maps/place/Dos+Amigos+Gdynia/data=!4m7!3m6!1s0x46fda11584f3ccb9:0xe6012f0c48bebc7b!8m2!3d54.4683394!4d18.4630778!16s%2Fg%2F11pzt09rw9!19sChIJuczzhBWh_UYRe7y-SAwvAeY?authuser=0&hl=en&rclk=1
54.4722607,18.4610292,restaurant,Pizzeria Czarna Perła,https://www.google.com/maps/place/Pizzeria+Czarna+Per%C5%82a/data=!4m7!3m6!1s0x46fda16579fdcb63:0x9830c42586cb7ea2!8m2!3d54.4722607!4d18.4610292!16s%2Fg%2F11jzntyzd9!19sChIJY8v9eWWh_UYRon7LhiXEMJg?authuser=0&hl=en&rclk=1
54.4746613,18.4639819,restaurant,SurfBurger Dąbrowa,https://www.google.com/maps/place/SurfBurger+D%C4%85browa/data=!4m7!3m6!1s0x46fda18a2172aabb:0x12e91d857b4ded25!8m2!3d54.4746613!4d18.4639819!16s%2Fg%2F11rcgw63zj!19sChIJu6pyIYqh_UYRJe1Ne4Ud6RI?authuser=0&hl=en&rclk=1
54.4743033,18.4650517,restaurant,Świeżo Sushi,https://www.google.com/maps/place/%C5%9Awie%C5%BCo+Sushi/data=!4m7!3m6!1s0x46fda12bb81798c5:0xc728f24e569eb15e!8m2!3d54.4743033!4d18.4650517!16s%2Fg%2F11rnhvvy7t!19sChIJxZgXuCuh_UYRXrGeVk7yKMc?authuser=0&hl=en&rclk=1
54.4746873,18.4705083,restaurant,Da Grasso,https://www.google.com/maps/place/Da+Grasso/data=!4m7!3m6!1s0x46fda108e459f6d3:0xbe5c253804798dde!8m2!3d54.4746873!4d18.4705083!16s%2Fg%2F1tp25zqh!19sChIJ0_ZZ5Aih_UYR3o15BDglXL4?authuser=0&hl=en&rclk=1
54.4679984,18.4865275,restaurant,Las Palmas Restaurant,https://www.google.com/maps/place/Las+Palmas+Restaurant/data=!4m7!3m6!1s0x46fda1aaaa69cd1b:0x67b85ce267cb2021!8m2!3d54.4679984!4d18.4865275!16s%2Fg%2F1tfxwqkb!19sChIJG81pqqqh_UYRISDLZ-JcuGc?authuser=0&hl=en&rclk=1
54.4738355,18.4746581,restaurant,Imbis. Szulc J.,https://www.google.com/maps/place/Imbis.+Szulc+J./data=!4m7!3m6!1s0x46fda1062c450f9f:0xc83d17b5f5f1743a!8m2!3d54.4738355!4d18.4746581!16s%2Fg%2F1hc6wyb7y!19sChIJnw9FLAah_UYROnTx9bUXPcg?authuser=0&hl=en&rclk=1
54.464766,18.458234,restaurant,Żabka,https://www.google.com/maps/place/%C5%BBabka/data=!4m7!3m6!1s0x46fda152a4e54e83:0x97ea3a6e471fca18!8m2!3d54.464766!4d18.458234!16s%2Fg%2F11mw0n3gtq!19sChIJg07lpFKh_UYRGMofR2466pc?authuser=0&hl=en&rclk=1
54.4679395,18.4645555,restaurant,Angry Mike Burgers,https://www.google.com/maps/place/Angry+Mike+Burgers/data=!4m7!3m6!1s0x46fda193b1b3957b:0x91b93d6a8e38cd48!8m2!3d54.4679395!4d18.4645555!16s%2Fg%2F11q8y5rqj8!19sChIJe5WzsZOh_UYRSM04jmo9uZE?authuser=0&hl=en&rclk=1
54.4691455,18.501589,restaurant,Osteria Fino Gdynia,https://www.google.com/maps/place/Osteria+Fino+Gdynia/data=!4m7!3m6!1s0x46fda7501a92a487:0x1a7ab336c82cb20f!8m2!3d54.4691455!4d18.501589!16s%2Fg%2F11fjmtks54!19sChIJh6SSGlCn_UYRD7IsyDazeho?authuser=0&hl=en&rclk=1
54.4705454,18.5067616,restaurant,Tapas Andalucia,https://www.google.com/maps/place/Tapas+Andalucia/data=!4m7!3m6!1s0x46fda1690b967ce3:0x7ca8f2d025a21a6!8m2!3d54.4705454!4d18.5067616!16s%2Fg%2F11s12gwfdy!19sChIJ43yWC2mh_UYRpiFaAi2Pygc?authuser=0&hl=en&rclk=1
54.4750789,18.5042873,restaurant,Agato Sushi,https://www.google.com/maps/place/Agato+Sushi/data=!4m7!3m6!1s0x46fda1a6157f0051:0x6324887b9815419!8m2!3d54.4750789!4d18.5042873!16s%2Fg%2F11mw7vwp3w!19sChIJUQB_Faah_UYRGVSBuYdIMgY?authuser=0&hl=en&rclk=1
54.473631,18.517229,restaurant,Stołówka szkolna,https://www.google.com/maps/place/Sto%C5%82%C3%B3wka+szkolna/data=!4m7!3m6!1s0x46fda0f1f2b17715:0xcbad4054e44633cb!8m2!3d54.473631!4d18.517229!16s%2Fg%2F11hyxml8v4!19sChIJFXex8vGg_UYRyzNG5FRArcs?authuser=0&hl=en&rclk=1
54.4723203,18.5145911,restaurant,Shimayo Sushi,https://www.google.com/maps/place/Shimayo+Sushi/data=!4m7!3m6!1s0x46fda1a0f92ca1c7:0x802880dd47ba5e41!8m2!3d54.4723203!4d18.5145911!16s%2Fg%2F11lfgnpgry!19sChIJx6Es-aCh_UYRQV66R92AKIA?authuser=0&hl=en&rclk=1
54.4803594,18.5526339,restaurant,Restauracja Serwus,https://www.google.com/maps/place/Restauracja+Serwus/data=!4m7!3m6!1s0x46fda10ee8527f93:0x7d161f72dc5a781e!8m2!3d54.4803594!4d18.5526339!16s%2Fg%2F11d_8mdkcd!19sChIJk39S6A6h_UYRHnha3HIfFn0?authuser=0&hl=en&rclk=1
54.480886,18.5521604,restaurant,Przystanek Orłowo,https://www.google.com/maps/place/Przystanek+Or%C5%82owo/data=!4m7!3m6!1s0x46fda0980acf6937:0x79d6648bda6f140a!8m2!3d54.480886!4d18.5521604!16s%2Fg%2F11bxfkx7k7!19sChIJN2nPCpig_UYRChRv2otk1nk?authuser=0&hl=en&rclk=1
54.4718933,18.5508052,restaurant,Tłusta Kaczka,https://www.google.com/maps/place/T%C5%82usta+Kaczka/data=!4m7!3m6!1s0x46fda09b5d50672b:0x85601b3734e4ef43!8m2!3d54.4718933!4d18.5508052!16s%2Fg%2F113fcs2ms!19sChIJK2dQXZug_UYRQ-_kNDcbYIU?authuser=0&hl=en&rclk=1
54.480008,18.552768,restaurant,PESCADO Restaurant,https://www.google.com/maps/place/PESCADO+Restaurant/data=!4m7!3m6!1s0x46fda0986fde456f:0xd9b77ca85ab5e780!8m2!3d54.480008!4d18.552768!16s%2Fg%2F11dzw9r5dc!19sChIJb0Xeb5ig_UYRgOe1Wqh8t9k?authuser=0&hl=en&rclk=1
54.4764953,18.5514645,restaurant,Hashi Sushi Gdynia,https://www.google.com/maps/place/Hashi+Sushi+Gdynia/data=!4m7!3m6!1s0x46fda09975f6e571:0x7c11580f0e79f411!8m2!3d54.4764953!4d18.5514645!16s%2Fg%2F1tmxv8sb!19sChIJceX2dZmg_UYREfR5Dg9YEXw?authuser=0&hl=en&rclk=1
54.4721295,18.5537902,restaurant,Casa Cubeddu By Domenico,https://www.google.com/maps/place/Casa+Cubeddu+By+Domenico/data=!4m7!3m6!1s0x46fda09c878fa637:0xf7d5964ef7316d88!8m2!3d54.4721295!4d18.5537902!16s%2Fg%2F12hrqxw76!19sChIJN6aPh5yg_UYRiG0x906W1fc?authuser=0&hl=en&rclk=1
54.4811111,18.54,restaurant,Biały Królik,https://www.google.com/maps/place/Bia%C5%82y+Kr%C3%B3lik/data=!4m7!3m6!1s0x46fda095c2fd4149:0x510cc1dd2ab15468!8m2!3d54.4811111!4d18.54!16s%2Fg%2F11c3l5tntc!19sChIJSUH9wpWg_UYRaFSxKt3BDFE?authuser=0&hl=en&rclk=1
54.481267,18.5644169,restaurant,Tawerna Orłowska,https://www.google.com/maps/place/Tawerna+Or%C5%82owska/data=!4m7!3m6!1s0x46fda0a04971f15b:0xc0b79ccefab5a0b8!8m2!3d54.481267!4d18.5644169!16s%2Fg%2F1tmqkgvf!19sChIJW_FxSaCg_UYRuKC1-s6ct8A?authuser=0&hl=en&rclk=1
54.4816838,18.5639025,restaurant,Chëcz Orłowska,https://www.google.com/maps/place/Ch%C3%ABcz+Or%C5%82owska/data=!4m7!3m6!1s0x46fda0a1006ffe05:0x6a743bd5722e78f0!8m2!3d54.4816838!4d18.5639025!16s%2Fg%2F11cly4kxrn!19sChIJBf5vAKGg_UYR8HguctU7dGo?authuser=0&hl=en&rclk=1
54.4453459,18.5696193,restaurant,Billy's American Restaurant,https://www.google.com/maps/place/Billy's+American+Restaurant/data=!4m7!3m6!1s0x46fd0a8de020c169:0x8d8812aa116a21b2!8m2!3d54.4453459!4d18.5696193!16s%2Fg%2F11byxg4g39!19sChIJacEg4I0K_UYRsiFqEaoSiI0?authuser=0&hl=en&rclk=1
54.4394133,18.5762227,restaurant,Słona Woda,https://www.google.com/maps/place/S%C5%82ona+Woda/data=!4m7!3m6!1s0x46fd0bbe7505e81f:0x529c1e817f941fc8!8m2!3d54.4394133!4d18.5762227!16s%2Fg%2F11f775rfk7!19sChIJH-gFdb4L_UYRyB-Uf4EenFI?authuser=0&hl=en&rclk=1
54.445282,18.570287,restaurant,Tawerna Rybacka,https://www.google.com/maps/place/Tawerna+Rybacka/data=!4m7!3m6!1s0x46fd0b523bd03445:0xfadca05785f80e81!8m2!3d54.445282!4d18.570287!16s%2Fg%2F11qnbpm9m3!19sChIJRTTQO1IL_UYRgQ74hVeg3Po?authuser=0&hl=en&rclk=1
54.4518588,18.5654757,restaurant,M15 Restaurant Bar & Sauny,https://www.google.com/maps/place/M15+Restaurant+Bar+%26+Sauny/data=!4m7!3m6!1s0x46fd0a889f95bceb:0xe244603d0dab1381!8m2!3d54.4518588!4d18.5654757!16s%2Fg%2F11dzvhvfyg!19sChIJ67yVn4gK_UYRgROrDT1gROI?authuser=0&hl=en&rclk=1
54.347892,18.650776,restaurant,Canis Restaurant,https://www.google.com/maps/place/Canis+Restaurant/data=!4m7!3m6!1s0x46fd739f6f5815d7:0x5c577a5817db446c!8m2!3d54.347892!4d18.650776!16s%2Fg%2F11gf8hvf2c!19sChIJ1xVYb59z_UYRbETbF1h6V1w?authuser=0&hl=en&rclk=1
54.3483253,18.6547116,restaurant,Restauracja Latający Holender,https://www.google.com/maps/place/Restauracja+Lataj%C4%85cy+Holender/data=!4m7!3m6!1s0x46fd73a04ada8531:0x5bf1cac69475b129!8m2!3d54.3483253!4d18.6547116!16s%2Fg%2F1tj3jrxm!19sChIJMYXaSqBz_UYRKbF1lMbK8Vs?authuser=0&hl=en&rclk=1
54.3492099,18.6551616,restaurant,Fino,https://www.google.com/maps/place/Fino/data=!4m7!3m6!1s0x46fd73a96e5f5bf9:0x8463c227b57d3a59!8m2!3d54.3492099!4d18.6551616!16s%2Fg%2F11g22z9878!19sChIJ-Vtfbqlz_UYRWTp9tSfCY4Q?authuser=0&hl=en&rclk=1
54.3486327,18.6490283,restaurant,Pomelo Bistro Bar,https://www.google.com/maps/place/Pomelo+Bistro+Bar/data=!4m7!3m6!1s0x46fd739f0ff072e9:0xe6917ebf73d7b3d1!8m2!3d54.3486327!4d18.6490283!16s%2Fg%2F11f3t0dbk4!19sChIJ6XLwD59z_UYR0bPXc79-keY?authuser=0&hl=en&rclk=1
54.348706,18.6532875,restaurant,Piwnica Rajców,https://www.google.com/maps/place/Piwnica+Rajc%C3%B3w/data=!4m7!3m6!1s0x46fd73a1d2ca5bb3:0x9c10a6da8735a439!8m2!3d54.348706!4d18.6532875!16s%2Fg%2F1td_3wh9!19sChIJs1vK0qFz_UYROaQ1h9qmEJw?authuser=0&hl=en&rclk=1
54.3516945,18.6577532,restaurant,Billy’s American Restaurant.,https://www.google.com/maps/place/Billy%E2%80%99s+American+Restaurant./data=!4m7!3m6!1s0x46fd730a9174af1d:0x5c1ebf0d7bb9aca8!8m2!3d54.3516945!4d18.6577532!16s%2Fg%2F11b807wv2m!19sChIJHa90kQpz_UYRqKy5ew2_Hlw?authuser=0&hl=en&rclk=1
54.4704335,18.4968941,restaurant,Pizza Tino Gdynia Karwiny,https://www.google.com/maps/place/Pizza+Tino+Gdynia+Karwiny/data=!4m7!3m6!1s0x46fda0f924eb380b:0x245439048a67a963!8m2!3d54.4704335!4d18.4968941!16s%2Fg%2F1t_hxpc0!19sChIJCzjrJPmg_UYRY6lnigQ5VCQ?authuser=0&hl=en&rclk=1
54.468661,18.5077139,restaurant,Jazz Pizza,https://www.google.com/maps/place/Jazz+Pizza/data=!4m7!3m6!1s0x46fda0f9b6c8af1d:0x28cf3834be9465ab!8m2!3d54.468661!4d18.5077139!16s%2Fg%2F12hpl7964!19sChIJHa_Itvmg_UYRq2WUvjQ4zyg?authuser=0&hl=en&rclk=1
54.4567613,18.55261,restaurant,Stacja 33,https://www.google.com/maps/place/Stacja+33/data=!4m7!3m6!1s0x46fd0b4993f11375:0x43c2d66c1b94bf5c!8m2!3d54.4567613!4d18.55261!16s%2Fg%2F11hy_nhjkh!19sChIJdRPxk0kL_UYRXL-UG2zWwkM?authuser=0&hl=en&rclk=1
54.4603494,18.55482,restaurant,SOPOCKI MŁYN,https://www.google.com/maps/place/SOPOCKI+M%C5%81YN/data=!4m7!3m6!1s0x46fd0a7f9b87545b:0x1eea98566e099364!8m2!3d54.4603494!4d18.55482!16s%2Fg%2F11cm0qvs8b!19sChIJW1SHm38K_UYRZJMJblaY6h4?authuser=0&hl=en&rclk=1
54.455357,18.560137,restaurant,Restauracja No.88,https://www.google.com/maps/place/Restauracja+No.88/data=!4m7!3m6!1s0x46fd0a8739ac0001:0xb1db2ecb82f3da78!8m2!3d54.455357!4d18.560137!16s%2Fg%2F11hcyvctkl!19sChIJAQCsOYcK_UYReNrzgssu27E?authuser=0&hl=en&rclk=1
54.453428,18.563051,restaurant,Restauracja Manca,https://www.google.com/maps/place/Restauracja+Manca/data=!4m7!3m6!1s0x46fd0a865283eed1:0xbc80f30507df8223!8m2!3d54.453428!4d18.563051!16s%2Fg%2F11crzd_7vs!19sChIJ0e6DUoYK_UYRI4LfBwXzgLw?authuser=0&hl=en&rclk=1
54.4573705,18.5622905,restaurant,Piaskownica Sopot,https://www.google.com/maps/place/Piaskownica+Sopot/data=!4m7!3m6!1s0x46fd0a8f46f0662f:0xbbf241d5b1ad3256!8m2!3d54.4573705!4d18.5622905!16s%2Fg%2F11gzs12d9!19sChIJL2bwRo8K_UYRVjKtsdVB8rs?authuser=0&hl=en&rclk=1
54.4590511,18.5564795,restaurant,Restauracja Aquarella,https://www.google.com/maps/place/Restauracja+Aquarella/data=!4m7!3m6!1s0x46fd0a7fb63567f7:0x8b0092446ad9c239!8m2!3d54.4590511!4d18.5564795!16s%2Fg%2F12qfvmb2m!19sChIJ92c1tn8K_UYROcLZakSSAIs?authuser=0&hl=en&rclk=1
54.4534957,18.564171,restaurant,Bulaj,https://www.google.com/maps/place/Bulaj/data=!4m7!3m6!1s0x46fd0a87b5401dc3:0x6ee320bbf734c2d3!8m2!3d54.4534957!4d18.564171!16s%2Fg%2F1tg9ltx_!19sChIJwx1AtYcK_UYR08I097sg424?authuser=0&hl=en&rclk=1
54.456824,18.555118,restaurant,Restauracja Chińska LIU,https://www.google.com/maps/place/Restauracja+Chi%C5%84ska+LIU/data=!4m7!3m6!1s0x46fd0a806304faa3:0x2ce80e6a56551ff1!8m2!3d54.456824!4d18.555118!16s%2Fg%2F11ckkrm3z4!19sChIJo_oEY4AK_UYR8R9VVmoO6Cw?authuser=0&hl=en&rclk=1
54.4572405,18.535329,restaurant,Restauracja Brodwinek,https://www.google.com/maps/place/Restauracja+Brodwinek/data=!4m7!3m6!1s0x46fda1f09df74c0d:0xed158a18c96ae5cc!8m2!3d54.4572405!4d18.535329!16s%2Fg%2F11fmr2p83m!19sChIJDUz3nfCh_UYRzOVqyRiKFe0?authuser=0&hl=en&rclk=1
54.4617174,18.5579285,restaurant,Restauracja Aqua House,https://www.google.com/maps/place/Restauracja+Aqua+House/data=!4m7!3m6!1s0x46fd0b271eae0cef:0x13fb6bd5ca88a558!8m2!3d54.4617174!4d18.5579285!16s%2Fg%2F11s17jfzfg!19sChIJ7wyuHicL_UYRWKWIytVr-xM?authuser=0&hl=en&rclk=1
54.4591291,18.5619393,restaurant,Koliba,https://www.google.com/maps/place/Koliba/data=!4m7!3m6!1s0x46fd0a7e8fe76031:0x97dec0fe6f1961ed!8m2!3d54.4591291!4d18.5619393!16s%2Fg%2F1tdb7jhx!19sChIJMWDnj34K_UYR7WEZb_7A3pc?authuser=0&hl=en&rclk=1
54.4461607,18.5713193,restaurant,Restauracja MODERN food&wine Sopot Molo,https://www.google.com/maps/place/Restauracja+MODERN+food%26wine+Sopot+Molo/data=!4m7!3m6!1s0x46fd0b1a566160fb:0xb1ba48e647f7f959!8m2!3d54.4461607!4d18.5713193!16s%2Fg%2F11fk1s9zqx!19sChIJ-2BhVhoL_UYRWfn3R-ZIurE?authuser=0&hl=en&rclk=1
54.4444985,18.5692959,restaurant,1911 Restaurant,https://www.google.com/maps/place/1911+Restaurant/data=!4m7!3m6!1s0x46fd0a92fbc726bf:0xf071947ae61ae47d!8m2!3d54.4444985!4d18.5692959!16s%2Fg%2F11dzt5gjlr!19sChIJvybH-5IK_UYRfeQa5nqUcfA?authuser=0&hl=en&rclk=1
54.4447456,18.5655013,restaurant,Haffnera7 Restaurant & Cocktailbar,https://www.google.com/maps/place/Haffnera7+Restaurant+%26+Cocktailbar/data=!4m7!3m6!1s0x46fd0bd7ac3cd1a1:0x72f506f2a5815029!8m2!3d54.4447456!4d18.5655013!16s%2Fg%2F11g081dm_v!19sChIJodE8rNcL_UYRKVCBpfIG9XI?authuser=0&hl=en&rclk=1
54.4440498,18.570446,restaurant,Ristorante Sempre Sopot,https://www.google.com/maps/place/Ristorante+Sempre+Sopot/data=!4m7!3m6!1s0x46fd0a8df58809d3:0x8e5d296010a0cc08!8m2!3d54.4440498!4d18.570446!16s%2Fg%2F1pp2x785y!19sChIJ0wmI9Y0K_UYRCMygEGApXY4?authuser=0&hl=en&rclk=1
54.4326013,18.5866821,restaurant,Spoko Restaurant & Pub,https://www.google.com/maps/place/Spoko+Restaurant+%26+Pub/data=!4m7!3m6!1s0x46fd0b6edee7521f:0x324a244fefc976ef!8m2!3d54.4326013!4d18.5866821!16s%2Fg%2F11g0j6ltv2!19sChIJH1Ln3m4L_UYR73bJ708kSjI?authuser=0&hl=en&rclk=1
54.4453611,18.5693863,restaurant,Marisco Restaurant,https://www.google.com/maps/place/Marisco+Restaurant/data=!4m7!3m6!1s0x46fd0b4f89b74ad7:0xeab3ed52a56356c0!8m2!3d54.4453611!4d18.5693863!16s%2Fg%2F11jsybzzrh!19sChIJ10q3iU8L_UYRwFZjpVLts-o?authuser=0&hl=en&rclk=1
54.4468244,18.4243737,restaurant,Osaka Sushi,https://www.google.com/maps/place/Osaka+Sushi/data=!4m7!3m6!1s0x46fda19e108cf989:0x11a95d7876bdbb1a!8m2!3d54.4468244!4d18.4243737!16s%2Fg%2F11g0mz62b1!19sChIJifmMEJ6h_UYRGru9dnhdqRE?authuser=0&hl=en&rclk=1
54.4467291,18.4241592,restaurant,Gorący Piec,https://www.google.com/maps/place/Gor%C4%85cy+Piec/data=!4m7!3m6!1s0x46fd9f5623ed5741:0xb22ea245eab92918!8m2!3d54.4467291!4d18.4241592!16s%2Fg%2F11bzs2rnvq!19sChIJQVftI1af_UYRGCm56kWiLrI?authuser=0&hl=en&rclk=1
54.4439217,18.4187984,restaurant,Restauracja Orchidea-R,https://www.google.com/maps/place/Restauracja+Orchidea-R/data=!4m7!3m6!1s0x46fda1e512860719:0xd14b11689a51d801!8m2!3d54.4439217!4d18.4187984!16s%2Fg%2F1tm__xz0!19sChIJGQeGEuWh_UYRAdhRmmgRS9E?authuser=0&hl=en&rclk=1
54.4394291,18.4575432,restaurant,Pizzeria Ommagio,https://www.google.com/maps/place/Pizzeria+Ommagio/data=!4m7!3m6!1s0x46fda1ce04f78453:0xcddb82a5bb38781c!8m2!3d54.4394291!4d18.4575432!16s%2Fg%2F11c3k6g3qn!19sChIJU4T3BM6h_UYRHHg4u6WC280?authuser=0&hl=en&rclk=1
54.4508587,18.4569672,restaurant,Żabka,https://www.google.com/maps/place/%C5%BBabka/data=!4m7!3m6!1s0x46fda1f39f382935:0x4f899c908f4ac4f8!8m2!3d54.4508587!4d18.4569672!16s%2Fg%2F11p5rfj0v3!19sChIJNSk4n_Oh_UYR-MRKj5CciU8?authuser=0&hl=en&rclk=1
54.444592,18.420248,restaurant,Wojciech Drobiński Fit,https://www.google.com/maps/place/Wojciech+Drobi%C5%84ski+Fit/data=!4m7!3m6!1s0x46fda1e577168b8b:0x64a744628b608616!8m2!3d54.444592!4d18.420248!16s%2Fg%2F11d_8wcbn7!19sChIJi4sWd-Wh_UYRFoZgi2JEp2Q?authuser=0&hl=en&rclk=1
54.4409484,18.4160511,restaurant,Pizzeria Mirena.,https://www.google.com/maps/place/Pizzeria+Mirena./data=!4m7!3m6!1s0x46fda1e4b09e1f2b:0xe360c94fd2f98a49!8m2!3d54.4409484!4d18.4160511!16s%2Fg%2F11c5_rsbjs!19sChIJKx-esOSh_UYRSYr50k_JYOM?authuser=0&hl=en&rclk=1
54.503765,18.5358369,restaurant,My Place bar & restaurant,https://www.google.com/maps/place/My+Place+bar+%26+restaurant/data=!4m7!3m6!1s0x46fda1307d2e32fd:0x1dc5236834bfa533!8m2!3d54.503765!4d18.5358369!16s%2Fg%2F11p5jbc9mz!19sChIJ_TIufTCh_UYRM6W_NGgjxR0?authuser=0&hl=en&rclk=1
54.4679068,18.4881316,restaurant,Chełpliwe Pudeła catering dietetyczny,https://www.google.com/maps/place/Che%C5%82pliwe+Pude%C5%82a+catering+dietetyczny/data=!4m7!3m6!1s0x46fda14fe77f5479:0x43e12000e7e8e709!8m2!3d54.4679068!4d18.4881316!16s%2Fg%2F11thldgv8f!19sChIJeVR_50-h_UYRCefo5wAg4UM?authuser=0&hl=en&rclk=1
54.4439396,18.5472853,restaurant,Restaurant Symphony of Tastes,https://www.google.com/maps/place/Restaurant+Symphony+of+Tastes/data=!4m7!3m6!1s0x46fd0a9c4f5c8a7f:0x6e3ecef547a92100!8m2!3d54.4439396!4d18.5472853!16s%2Fg%2F11fx_3zyc5!19sChIJf4pcT5wK_UYRACGpR_XOPm4?authuser=0&hl=en&rclk=1
54.4417248,18.5621006,restaurant,Seafood Station Restaurant & Oyster Bar Sopot,https://www.google.com/maps/place/Seafood+Station+Restaurant+%26+Oyster+Bar+Sopot/data=!4m7!3m6!1s0x46fd0a90e3470949:0xcdd053a0e62ab2be!8m2!3d54.4417248!4d18.5621006!16s%2Fg%2F11cmqqnrzw!19sChIJSQlH45AK_UYRvrIq5qBT0M0?authuser=0&hl=en&rclk=1
54.4495042,18.5649162,restaurant,Food & Chillout Grill Club,https://www.google.com/maps/place/Food+%26+Chillout+Grill+Club/data=!4m7!3m6!1s0x46fd0b3808749fdd:0xbbe04ed2d825558d!8m2!3d54.4495042!4d18.5649162!16s%2Fg%2F11jtkcvq6n!19sChIJ3Z90CDgL_UYRjVUl2NJO4Ls?authuser=0&hl=en&rclk=1
54.441613,18.5629569,restaurant,Steakhouse – GRILL ITALIA,https://www.google.com/maps/place/Steakhouse+%E2%80%93+GRILL+ITALIA/data=!4m7!3m6!1s0x46fd0b5d474fa6c7:0xa8afd2ce9b3bf815!8m2!3d54.441613!4d18.5629569!16s%2Fg%2F11sgbfd5cf!19sChIJx6ZPR10L_UYRFfg7m87Sr6g?authuser=0&hl=en&rclk=1
54.442616,18.552061,restaurant,Harnaś Sopot,https://www.google.com/maps/place/Harna%C5%9B+Sopot/data=!4m7!3m6!1s0x46fd0a9bbfe2b7f1:0x33ddd1723760bf18!8m2!3d54.442616!4d18.552061!16s%2Fg%2F1whdh0v_!19sChIJ8bfiv5sK_UYRGL9gN3LR3TM?authuser=0&hl=en&rclk=1
54.4436908,18.5681187,restaurant,Chianti Grill Bar,https://www.google.com/maps/place/Chianti+Grill+Bar/data=!4m7!3m6!1s0x46fd0bab4fa2522b:0x923e1b32449af83!8m2!3d54.4436908!4d18.5681187!16s%2Fg%2F11h4w9r3xj!19sChIJK1KiT6sL_UYRg69JJLPhIwk?authuser=0&hl=en&rclk=1
54.4382504,18.5791865,restaurant,Na Fali,https://www.google.com/maps/place/Na+Fali/data=!4m7!3m6!1s0x46fd0aec681dda3b:0xdcf1b0251c28fef4!8m2!3d54.4382504!4d18.5791865!16s%2Fg%2F11c0w3mp1h!19sChIJO9odaOwK_UYR9P4oHCWw8dw?authuser=0&hl=en&rclk=1
54.4482298,18.5770765,restaurant,Meridian Molo,https://www.google.com/maps/place/Meridian+Molo/data=!4m7!3m6!1s0x46fd0a8e0ab4b579:0x1e669a7586633b6a!8m2!3d54.4482298!4d18.5770765!16s%2Fg%2F1q5bm36sy!19sChIJebW0Co4K_UYRajtjhnWaZh4?authuser=0&hl=en&rclk=1
54.4387755,18.57468,restaurant,Fisherman – finest food & wine by Rafał Koziorzemski,https://www.google.com/maps/place/Fisherman+%E2%80%93+finest+food+%26+wine+by+Rafa%C5%82+Koziorzemski/data=!4m7!3m6!1s0x46fd0b7b04e3b789:0x9f8a6880d0afd567!8m2!3d54.4387755!4d18.57468!16s%2Fg%2F11k00h2q0p!19sChIJibfjBHsL_UYRZ9Wv0IBoip8?authuser=0&hl=en&rclk=1
54.423597,18.5998169,restaurant,SeaHouse & Nautilus Restaurant,https://www.google.com/maps/place/SeaHouse+%26+Nautilus+Restaurant/data=!4m7!3m6!1s0x46fd0b20bd175b95:0x5c6b1c1b2b1ab463!8m2!3d54.423597!4d18.5998169!16s%2Fg%2F1tdp89pf!19sChIJlVsXvSAL_UYRY7QaKxsca1w?authuser=0&hl=en&rclk=1
54.3833333,18.6138889,restaurant,Restauracja Lucynka,https://www.google.com/maps/place/Restauracja+Lucynka/data=!4m7!3m6!1s0x46fd74be87120d3b:0xf139399957d697c0!8m2!3d54.3833333!4d18.6138889!16s%2Fg%2F1td7l_mz!19sChIJOw0Sh750_UYRwJfWV5k5OfE?authuser=0&hl=en&rclk=1
54.4350733,18.467399,restaurant,Pub Leon,https://www.google.com/maps/place/Pub+Leon/data=!4m7!3m6!1s0x46fda02d1c9deb21:0xa3ae9068fe28cec!8m2!3d54.4350733!4d18.467399!16s%2Fg%2F11c58x96_h!19sChIJIeudHC2g_UYR7IzijwbpOgo?authuser=0&hl=en&rclk=1
54.4309118,18.4687656,restaurant,One Way,https://www.google.com/maps/place/One+Way/data=!4m7!3m6!1s0x46fda02beff6f041:0x633646ad7e01c46e!8m2!3d54.4309118!4d18.4687656!16s%2Fg%2F1hf2hx8pn!19sChIJQfD27yug_UYRbsQBfq1GNmM?authuser=0&hl=en&rclk=1
54.423498,18.472268,restaurant,Osaka Sushi,https://www.google.com/maps/place/Osaka+Sushi/data=!4m7!3m6!1s0x46fd9f87c5d3023b:0x99c40af5d9de0848!8m2!3d54.423498!4d18.472268!16s%2Fg%2F11b88vkpvx!19sChIJOwLTxYef_UYRSAje2fUKxJk?authuser=0&hl=en&rclk=1
54.431072,18.473274,restaurant,Pizzeria Pub Sabroso,https://www.google.com/maps/place/Pizzeria+Pub+Sabroso/data=!4m7!3m6!1s0x46fda02ecc684c39:0x96023a84b515e6d0!8m2!3d54.431072!4d18.473274!16s%2Fg%2F1tv22vsx!19sChIJOUxozC6g_UYR0OYVtYQ6ApY?authuser=0&hl=en&rclk=1
54.4324789,18.4853941,restaurant,Bistro Barbik,https://www.google.com/maps/place/Bistro+Barbik/data=!4m7!3m6!1s0x46fda024f78090c5:0x3577c2e116c6a08b!8m2!3d54.4324789!4d18.4853941!16s%2Fg%2F1tdcq6k1!19sChIJxZCA9ySg_UYRi6DGFuHCdzU?authuser=0&hl=en&rclk=1
54.4226379,18.4725559,restaurant,"BurgerOs- burgery, quesadilla, burrito","https://www.google.com/maps/place/BurgerOs-+burgery,+quesadilla,+burrito/data=!4m7!3m6!1s0x46fd9fa5b497baeb:0x2fd9152fd9d27be7!8m2!3d54.4226379!4d18.4725559!16s%2Fg%2F11nxxr66b_!19sChIJ67qXtKWf_UYR53vS2S8V2S8?authuser=0&hl=en&rclk=1"
54.4324412,18.4797372,restaurant,Bafra Kebab,https://www.google.com/maps/place/Bafra+Kebab/data=!4m7!3m6!1s0x46fda139e24aaf69:0x8f4c6b31d28acd5c!8m2!3d54.4324412!4d18.4797372!16s%2Fg%2F11t58t08jv!19sChIJaa9K4jmh_UYRXM2K0jFrTI8?authuser=0&hl=en&rclk=1
54.4323495,18.4889486,restaurant,Subway,https://www.google.com/maps/place/Subway/data=!4m7!3m6!1s0x46fda1ed3688914b:0x1542fb92ef63590c!8m2!3d54.4323495!4d18.4889486!16s%2Fg%2F11flgkl2ph!19sChIJS5GINu2h_UYRDFlj75L7QhU?authuser=0&hl=en&rclk=1
54.4369961,18.5793787,restaurant,Restauracja Nowosopocka,https://www.google.com/maps/place/Restauracja+Nowosopocka/data=!4m7!3m6!1s0x46fd0aec0b287809:0x7d2b75252e0dfd1b!8m2!3d54.4369961!4d18.5793787!16s%2Fg%2F11f5hphwlk!19sChIJCXgoC-wK_UYRG_0NLiV1K30?authuser=0&hl=en&rclk=1
54.4347682,18.5780058,restaurant,Ristorante Tesoro,https://www.google.com/maps/place/Ristorante+Tesoro/data=!4m7!3m6!1s0x46fd0aebc84d612f:0xd39763f20c003f75!8m2!3d54.4347682!4d18.5780058!16s%2Fg%2F1td1zz0k!19sChIJL2FNyOsK_UYRdT8ADPJjl9M?authuser=0&hl=en&rclk=1
54.437952,18.5786011,restaurant,Tawerna Rybaki,https://www.google.com/maps/place/Tawerna+Rybaki/data=!4m7!3m6!1s0x46fd0aec644ad819:0x55966e3703145224!8m2!3d54.437952!4d18.5786011!16s%2Fg%2F1tf68r92!19sChIJGdhKZOwK_UYRJFIUAzdullU?authuser=0&hl=en&rclk=1
54.4265312,18.5805211,restaurant,Classic Restaurant,https://www.google.com/maps/place/Classic+Restaurant/data=!4m7!3m6!1s0x46fd0ac47b42cba1:0x7aa0d3ca1301a151!8m2!3d54.4265312!4d18.5805211!16s%2Fg%2F11h53vwwk_!19sChIJoctCe8QK_UYRUaEBE8rToHo?authuser=0&hl=en&rclk=1
54.4161912,18.5857814,restaurant,Da Grasso,https://www.google.com/maps/place/Da+Grasso/data=!4m7!3m6!1s0x46fd0ad7289f67c9:0xfcebccadd7280735!8m2!3d54.4161912!4d18.5857814!16s%2Fg%2F1th55p8g!19sChIJyWefKNcK_UYRNQco163M6_w?authuser=0&hl=en&rclk=1
54.418793,18.4578022,restaurant,Żabka,https://www.google.com/maps/place/%C5%BBabka/data=!4m7!3m6!1s0x46fd9f7c66e09415:0x385100abf4c9d7f9!8m2!3d54.418793!4d18.4578022!16s%2Fg%2F11t6zbdk1n!19sChIJFZTgZnyf_UYR-dfJ9KsAUTg?authuser=0&hl=en&rclk=1
54.417281,18.558701,restaurant,Ristorante Con Giardino,https://www.google.com/maps/place/Ristorante+Con+Giardino/data=!4m7!3m6!1s0x46fd75794ecb6775:0x946a0a7f37e4d969!8m2!3d54.417281!4d18.558701!16s%2Fg%2F11ffl_3hwl!19sChIJdWfLTnl1_UYRadnkN38KapQ?authuser=0&hl=en&rclk=1
54.4225228,18.4725326,restaurant,Pazzi Ragazzi,https://www.google.com/maps/place/Pazzi+Ragazzi/data=!4m7!3m6!1s0x46fd9fe3fd481c43:0xdd8a570391bf9a29!8m2!3d54.4225228!4d18.4725326!16s%2Fg%2F11ngtbxmx9!19sChIJQxxI_eOf_UYRKZq_kQNXit0?authuser=0&hl=en&rclk=1
54.4245763,18.4717825,restaurant,Trattoria Gusto,https://www.google.com/maps/place/Trattoria+Gusto/data=!4m7!3m6!1s0x46fd9f87905f3683:0xbb01c309ec8925a6!8m2!3d54.4245763!4d18.4717825!16s%2Fg%2F1ptyzdy4d!19sChIJgzZfkIef_UYRpiWJ7AnDAbs?authuser=0&hl=en&rclk=1
54.4230582,18.477792,restaurant,TO THAI Gdańsk Osowa,https://www.google.com/maps/place/TO+THAI+Gda%C5%84sk+Osowa/data=!4m7!3m6!1s0x46fda1a813c73f2f:0x525cf7ec5b40a2ed!8m2!3d54.4230582!4d18.477792!16s%2Fg%2F11r2r8bp77!19sChIJLz_HE6ih_UYR7aJAW-z3XFI?authuser=0&hl=en&rclk=1
54.4230107,18.4785178,restaurant,Salve pizzeria,https://www.google.com/maps/place/Salve+pizzeria/data=!4m7!3m6!1s0x46fd9f0fe727ae7f:0x13b7d2d19efa26f7!8m2!3d54.4230107!4d18.4785178!16s%2Fg%2F11t0lg0nd1!19sChIJf64n5w-f_UYR9yb6ntHStxM?authuser=0&hl=en&rclk=1
54.4261111,18.4904977,restaurant,Zen Thai Asia Food,https://www.google.com/maps/place/Zen+Thai+Asia+Food/data=!4m7!3m6!1s0x46fda021b0801877:0x883959e1c845d4f6!8m2!3d54.4261111!4d18.4904977!16s%2Fg%2F11dxdg0qzh!19sChIJdxiAsCGg_UYR9tRFyOFZOYg?authuser=0&hl=en&rclk=1
54.4254466,18.4901478,restaurant,McDonald's,https://www.google.com/maps/place/McDonald's/data=!4m7!3m6!1s0x46fda021b0dd1acf:0xe9fb265d7d1fc4e4!8m2!3d54.4254466!4d18.4901478!16s%2Fg%2F1tmptp4m!19sChIJzxrdsCGg_UYR5MQffV0m--k?authuser=0&hl=en&rclk=1
54.410154,18.549716,restaurant,Fischgarten,https://www.google.com/maps/place/Fischgarten/data=!4m7!3m6!1s0x46fd7599cc43a3bb:0xcde01119d5b9110b!8m2!3d54.410154!4d18.549716!16s%2Fg%2F11hf7c6wf_!19sChIJu6NDzJl1_UYRCxG51RkR4M0?authuser=0&hl=en&rclk=1
54.4314981,18.5615445,restaurant,Steak House Piroman,https://www.google.com/maps/place/Steak+House+Piroman/data=!4m7!3m6!1s0x46fd0abe66aba003:0x7d4fe947a6701bfd!8m2!3d54.4314981!4d18.5615445!16s%2Fg%2F11gfdyx1yd!19sChIJA6CrZr4K_UYR_RtwpkfpT30?authuser=0&hl=en&rclk=1
54.4354335,18.5661744,restaurant,Amici,https://www.google.com/maps/place/Amici/data=!4m7!3m6!1s0x46fd0a95af859693:0xdcd6e7657f973583!8m2!3d54.4354335!4d18.5661744!16s%2Fg%2F11b6y1rj9m!19sChIJk5aFr5UK_UYRgzWXf2Xn1tw?authuser=0&hl=en&rclk=1
54.4298281,18.5663676,restaurant,Diamante Restaurant & Catering,https://www.google.com/maps/place/Diamante+Restaurant+%26+Catering/data=!4m7!3m6!1s0x46fd0b5fbfdf1d51:0x9831a738aa95a5a9!8m2!3d54.4298281!4d18.5663676!16s%2Fg%2F11s92g7ygs!19sChIJUR3fv18L_UYRqaWVqjinMZg?authuser=0&hl=en&rclk=1
54.4206258,18.5676741,restaurant,Pierożki DIM SUM - Oryginalne Chińskie Pierogi,https://www.google.com/maps/place/Piero%C5%BCki+DIM+SUM+-+Oryginalne+Chi%C5%84skie+Pierogi/data=!4m7!3m6!1s0x46fd0b6b13ad2f1d:0x75de91a89fe1967a!8m2!3d54.4206258!4d18.5676741!16s%2Fg%2F11jv60xz7w!19sChIJHS-tE2sL_UYRepbhn6iR3nU?authuser=0&hl=en&rclk=1
54.4268558,18.5637382,restaurant,Buon Giorno de Pizza,https://www.google.com/maps/place/Buon+Giorno+de+Pizza/data=!4m7!3m6!1s0x46fd0b9ebc5e27d5:0xe311a2fdb7e441e8!8m2!3d54.4268558!4d18.5637382!16s%2Fg%2F11sb3239g9!19sChIJ1SdevJ4L_UYR6EHkt_2iEeM?authuser=0&hl=en&rclk=1
54.4287768,18.5903448,restaurant,Fish&Gin,https://www.google.com/maps/place/Fish%26Gin/data=!4m7!3m6!1s0x46fd0bec472099b9:0xab6cffcc1eee9df5!8m2!3d54.4287768!4d18.5903448!16s%2Fg%2F11rd8wp7j5!19sChIJuZkgR-wL_UYR9Z3uHsz_bKs?authuser=0&hl=en&rclk=1
54.422829,18.5971349,restaurant,Winestone,https://www.google.com/maps/place/Winestone/data=!4m7!3m6!1s0x46fd0adf527ff5bd:0x2e13f6c2c410c7cc!8m2!3d54.422829!4d18.5971349!16s%2Fg%2F11f5h9z9m1!19sChIJvfV_Ut8K_UYRzMcQxML2Ey4?authuser=0&hl=en&rclk=1
54.4230569,18.601376,restaurant,B13 Restaurant&Bar,https://www.google.com/maps/place/B13+Restaurant%26Bar/data=!4m7!3m6!1s0x46fd0bc67df4175f:0x42123d4699ecd030!8m2!3d54.4230569!4d18.601376!16s%2Fg%2F11lk13k127!19sChIJXxf0fcYL_UYRMNDsmUY9EkI?authuser=0&hl=en&rclk=1
54.4222541,18.602745,restaurant,Chilly Willy,https://www.google.com/maps/place/Chilly+Willy/data=!4m7!3m6!1s0x46fd0b214bed0243:0x2186aba937adfabb!8m2!3d54.4222541!4d18.602745!16s%2Fg%2F1tj206_1!19sChIJQwLtSyEL_UYRu_qtN6mrhiE?authuser=0&hl=en&rclk=1
54.4135208,18.6238994,restaurant,Gruba Ryba,https://www.google.com/maps/place/Gruba+Ryba/data=!4m7!3m6!1s0x46fd0b38301331c9:0xc2d69c5b581532c6!8m2!3d54.4135208!4d18.6238994!16s%2Fg%2F1ptz5x579!19sChIJyTETMDgL_UYRxjIVWFuc1sI?authuser=0&hl=en&rclk=1
54.4230891,18.6033246,restaurant,Piach i Woda,https://www.google.com/maps/place/Piach+i+Woda/data=!4m7!3m6!1s0x46fd0bfe94d5d711:0x130cf1de1872bedd!8m2!3d54.4230891!4d18.6033246!16s%2Fg%2F11f65dy2b2!19sChIJEdfVlP4L_UYR3b5yGN7xDBM?authuser=0&hl=en&rclk=1
54.4161324,18.585682,restaurant,Asia Hoanmy,https://www.google.com/maps/place/Asia+Hoanmy/data=!4m7!3m6!1s0x46fd0ad727d58723:0xc460b91874db5314!8m2!3d54.4161324!4d18.585682!16s%2Fg%2F11bzv6s2tz!19sChIJI4fVJ9cK_UYRFFPbdBi5YMQ?authuser=0&hl=en&rclk=1
54.399845,18.667328,restaurant,New Port Restaurant & Pizza,https://www.google.com/maps/place/New+Port+Restaurant+%26+Pizza/data=!4m7!3m6!1s0x46fd0d8e2bef18b3:0x7539afab73015e7e!8m2!3d54.399845!4d18.667328!16s%2Fg%2F11r9vh0_9m!19sChIJsxjvK44N_UYRfl4Bc6uvOXU?authuser=0&hl=en&rclk=1
54.411428,18.6281103,restaurant,Peperino,https://www.google.com/maps/place/Peperino/data=!4m10!3m9!1s0x46fd0b480d157bd7:0x1335d1c29d483f88!5m2!4m1!1i2!8m2!3d54.411428!4d18.6281103!16s%2Fg%2F11cn2zt730!19sChIJ13sVDUgL_UYRiD9IncLRNRM?authuser=0&hl=en&rclk=1
54.4072307,18.6134768,restaurant,Ryba i Ryż Sushi Bar,https://www.google.com/maps/place/Ryba+i+Ry%C5%BC+Sushi+Bar/data=!4m7!3m6!1s0x46fd0ba61f8d8d4b:0x106c75d58b9bc14e!8m2!3d54.4072307!4d18.6134768!16s%2Fg%2F11qns3s4k3!19sChIJS42NH6YL_UYRTsGbi9V1bBA?authuser=0&hl=en&rclk=1
54.3501442,18.6603279,restaurant,Ritz,https://www.google.com/maps/place/Ritz/data=!4m7!3m6!1s0x46fd730a0a9908b5:0x2ddfe6cff26cf063!8m2!3d54.3501442!4d18.6603279!16s%2Fg%2F11b8b33cf6!19sChIJtQiZCgpz_UYRY_Bs8s_m3y0?authuser=0&hl=en&rclk=1
54.351229,18.657649,restaurant,Zafishowani,https://www.google.com/maps/place/Zafishowani/data=!4m7!3m6!1s0x46fd730a9ac2f87d:0x982577f81ece8878!8m2!3d54.351229!4d18.657649!16s%2Fg%2F1tpljf6q!19sChIJffjCmgpz_UYReIjOHvh3JZg?authuser=0&hl=en&rclk=1
54.3476473,18.6586279,restaurant,Magari Gdańsk,https://www.google.com/maps/place/Magari+Gda%C5%84sk/data=!4m7!3m6!1s0x46fd731cef5cb717:0xaf7cecb610cbb6a0!8m2!3d54.3476473!4d18.6586279!16s%2Fg%2F11tdc38vl4!19sChIJF7dc7xxz_UYRoLbLELbsfK8?authuser=0&hl=en&rclk=1
54.425639,18.473127,restaurant,Żabka,https://www.google.com/maps/place/%C5%BBabka/data=!4m7!3m6!1s0x46fda1ed2ead1825:0x3a6c70c17c3e13d7!8m2!3d54.425639!4d18.473127!16s%2Fg%2F11gg_t313y!19sChIJJRitLu2h_UYR1xM-fMFwbDo?authuser=0&hl=en&rclk=1
54.418244,18.4803399,restaurant,Żabka,https://www.google.com/maps/place/%C5%BBabka/data=!4m7!3m6!1s0x46fd9f448ce86291:0x3a60014b3b11422a!8m2!3d54.418244!4d18.4803399!16s%2Fg%2F11s_vctk4y!19sChIJkWLojESf_UYRKkIRO0sBYDo?authuser=0&hl=en&rclk=1
54.3966893,18.5219124,restaurant,Rybakówka Fish restaurant,https://www.google.com/maps/place/Rybak%C3%B3wka+Fish+restaurant/data=!4m7!3m6!1s0x46fd755d0a213c85:0x6e476214a0f4f9a9!8m2!3d54.3966893!4d18.5219124!16s%2Fg%2F11b6gp78xj!19sChIJhTwhCl11_UYRqfn0oBRiR24?authuser=0&hl=en&rclk=1
54.408617,18.5539292,restaurant,Chicken In The Mouth,https://www.google.com/maps/place/Chicken+In+The+Mouth/data=!4m7!3m6!1s0x46fd75563ad3a2ef:0xb7bbd71de34c9efb!8m2!3d54.408617!4d18.5539292!16s%2Fg%2F11lgh20v7g!19sChIJ76LTOlZ1_UYR-55M4x3Xu7c?authuser=0&hl=en&rclk=1
54.4090098,18.559651,restaurant,FELICE Ristorante,https://www.google.com/maps/place/FELICE+Ristorante/data=!4m7!3m6!1s0x46fd75b494bbf82b:0x2ee28293350951b3!8m2!3d54.4090098!4d18.559651!16s%2Fg%2F11h1970kq2!19sChIJK_i7lLR1_UYRs1EJNZOC4i4?authuser=0&hl=en&rclk=1
54.4092374,18.5563518,restaurant,Cysteria,https://www.google.com/maps/place/Cysteria/data=!4m7!3m6!1s0x46fd755afc206bcd:0xb16e69369d98752d!8m2!3d54.4092374!4d18.5563518!16s%2Fg%2F11t3hwv1n1!19sChIJzWsg_Fp1_UYRLXWYnTZpbrE?authuser=0&hl=en&rclk=1
54.4089037,18.5591545,restaurant,Tu Można Marzyć,https://www.google.com/maps/place/Tu+Mo%C5%BCna+Marzy%C4%87/data=!4m7!3m6!1s0x46fd7534f570265f:0xe6857f9e23cb091a!8m2!3d54.4089037!4d18.5591545!16s%2Fg%2F11gh2t3d7v!19sChIJXyZw9TR1_UYRGgnLI55_heY?authuser=0&hl=en&rclk=1
54.4182727,18.5663867,restaurant,BISTRO POBITEGARY,https://www.google.com/maps/place/BISTRO+POBITEGARY/data=!4m7!3m6!1s0x46fd0ac93cb57a0d:0x416f1493fabb73f!8m2!3d54.4182727!4d18.5663867!16s%2Fg%2F1ptvqswr8!19sChIJDXq1PMkK_UYRP7erP0nxFgQ?authuser=0&hl=en&rclk=1
54.40911,18.5669807,restaurant,Pierogarnia Mandu Gdańsk Oliwa,https://www.google.com/maps/place/Pierogarnia+Mandu+Gda%C5%84sk+Oliwa/data=!4m7!3m6!1s0x46fd7532dd08953d:0xb3564fb4e5f05e43!8m2!3d54.40911!4d18.5669807!16s%2Fg%2F11b5yrsl1p!19sChIJPZUI3TJ1_UYRQ17w5bRPVrM?authuser=0&hl=en&rclk=1
54.4088444,18.5599674,restaurant,Pinata Mexican Food,https://www.google.com/maps/place/Pinata+Mexican+Food/data=!4m7!3m6!1s0x46fd7534899a35d7:0x4db30131f443fc83!8m2!3d54.4088444!4d18.5599674!16s%2Fg%2F11bxjk30bm!19sChIJ1zWaiTR1_UYRg_xD9DEBs00?authuser=0&hl=en&rclk=1
54.4089981,18.5596033,restaurant,Jak się masz? Bistro,https://www.google.com/maps/place/Jak+si%C4%99+masz%3F+Bistro/data=!4m7!3m6!1s0x46fd75348adba65d:0xa4818ded00c2e2e8!8m2!3d54.4089981!4d18.5596033!16s%2Fg%2F11g6nlnwnd!19sChIJXabbijR1_UYR6OLCAO2NgaQ?authuser=0&hl=en&rclk=1
54.4110279,18.6301156,restaurant,Mnie to Rybka,https://www.google.com/maps/place/Mnie+to+Rybka/data=!4m7!3m6!1s0x46fd0b4887e3b9bb:0x3b6b14c71b22352!8m2!3d54.4110279!4d18.6301156!16s%2Fg%2F11c3w3y9m6!19sChIJu7njh0gL_UYRUiOycUyxtgM?authuser=0&hl=en&rclk=1
54.409258,18.6366711,restaurant,Smażalnia Ryb Knaga,https://www.google.com/maps/place/Sma%C5%BCalnia+Ryb+Knaga/data=!4m7!3m6!1s0x46fd0b4f0d4cb3b3:0x69c9919cbc5e68ff!8m2!3d54.409258!4d18.6366711!16s%2Fg%2F11bc6z8_xj!19sChIJs7NMDU8L_UYR_2hevJyRyWk?authuser=0&hl=en&rclk=1
54.4108646,18.6294606,restaurant,Tapas Rybka,https://www.google.com/maps/place/Tapas+Rybka/data=!4m7!3m6!1s0x46fd0b4864771f85:0xa2709bd00029435a!8m2!3d54.4108646!4d18.6294606!16s%2Fg%2F1hm2664rk!19sChIJhR93ZEgL_UYRWkMpANCbcKI?authuser=0&hl=en&rclk=1
54.3583931,18.6465064,restaurant,Panorama,https://www.google.com/maps/place/Panorama/data=!4m7!3m6!1s0x46fd737127f1c78f:0x607fe9383f86fda1!8m2!3d54.3583931!4d18.6465064!16s%2Fg%2F1tcwpv6x!19sChIJj8fxJ3Fz_UYRof2GPzjpf2A?authuser=0&hl=en&rclk=1
54.3822066,18.4650672,restaurant,The Flame. Restaurant & Bar,https://www.google.com/maps/place/The+Flame.+Restaurant+%26+Bar/data=!4m7!3m6!1s0x46fd9fcadb40f2a5:0xa881645238108d3d!8m2!3d54.3822066!4d18.4650672!16s%2Fg%2F11bwp1_p5b!19sChIJpfJA28qf_UYRPY0QOFJkgag?authuser=0&hl=en&rclk=1
54.3912406,18.5736588,restaurant,Mystery Restaurant,https://www.google.com/maps/place/Mystery+Restaurant/data=!4m7!3m6!1s0x46fd75aba41db6a5:0xea3a28825c74192b!8m2!3d54.3912406!4d18.5736588!16s%2Fg%2F11h91p5l03!19sChIJpbYdpKt1_UYRKxl0XIIoOuo?authuser=0&hl=en&rclk=1
54.4087702,18.5584478,restaurant,Ryż,https://www.google.com/maps/place/Ry%C5%BC/data=!4m7!3m6!1s0x46fd75345906d929:0x3490bf3fa74be896!8m2!3d54.4087702!4d18.5584478!16s%2Fg%2F11d_74n92_!19sChIJKdkGWTR1_UYRluhLpz-_kDQ?authuser=0&hl=en&rclk=1
54.4027475,18.5711914,restaurant,LOBSTER,https://www.google.com/maps/place/LOBSTER/data=!4m7!3m6!1s0x46fd752e8ca69c47:0x408161a0cfa7d10c!8m2!3d54.4027475!4d18.5711914!16s%2Fg%2F11b6d4bzb4!19sChIJR5ymjC51_UYRDNGnz6BhgUA?authuser=0&hl=en&rclk=1
54.4048349,18.5869599,restaurant,Mantra,https://www.google.com/maps/place/Mantra/data=!4m7!3m6!1s0x46fd74d57c22b6f7:0x1326ae94856c5120!8m2!3d54.4048349!4d18.5869599!16s%2Fg%2F1hc6k_n1d!19sChIJ97YifNV0_UYRIFFshZSuJhM?authuser=0&hl=en&rclk=1
54.4065611,18.579951,restaurant,Śląska 19,https://www.google.com/maps/place/%C5%9Al%C4%85ska+19/data=!4m7!3m6!1s0x46fda72f475b39cb:0xcaab639be681f6b9!8m2!3d54.4065611!4d18.579951!16s%2Fg%2F11f4ljgy3_!19sChIJyzlbRy-n_UYRufaB5ptjq8o?authuser=0&hl=en&rclk=1
54.402699,18.5817336,restaurant,Sami Swoi Restauracja,https://www.google.com/maps/place/Sami+Swoi+Restauracja/data=!4m7!3m6!1s0x46fd75508767134f:0x14d2973fdf279772!8m2!3d54.402699!4d18.5817336!16s%2Fg%2F11jp0df7qw!19sChIJTxNnh1B1_UYRcpcn3z-X0hQ?authuser=0&hl=en&rclk=1
54.4090686,18.5979238,restaurant,Faloviec / kuchnia roślinna,https://www.google.com/maps/place/Faloviec+%2F+kuchnia+ro%C5%9Blinna/data=!4m7!3m6!1s0x46fd0b2c705daf27:0x407ccf9164ef0928!8m2!3d54.4090686!4d18.5979238!16s%2Fg%2F11c0tb8jyr!19sChIJJ69dcCwL_UYRKAnvZJHPfEA?authuser=0&hl=en&rclk=1
54.4110988,18.6297446,restaurant,Bella Maria kuchnia i przyjaciele,https://www.google.com/maps/place/Bella+Maria+kuchnia+i+przyjaciele/data=!4m7!3m6!1s0x46fd0ba4f4a3e6ed:0x2a3f41b5ac1c5e03!8m2!3d54.4110988!4d18.6297446!16s%2Fg%2F11s1z788vk!19sChIJ7eaj9KQL_UYRA14crLVBPyo?authuser=0&hl=en&rclk=1
54.4044563,18.6270838,restaurant,Stołówka akademicka,https://www.google.com/maps/place/Sto%C5%82%C3%B3wka+akademicka/data=!4m7!3m6!1s0x46fd0b4bbcc7183f:0xcbc978806cdcd2ff!8m2!3d54.4044563!4d18.6270838!16s%2Fg%2F11fy4dcfh_!19sChIJPxjHvEsL_UYR_9LcbIB4ycs?authuser=0&hl=en&rclk=1
54.410045,18.6061457,restaurant,Whiskey On The Rocks,https://www.google.com/maps/place/Whiskey+On+The+Rocks/data=!4m7!3m6!1s0x46fd0a90e3470949:0x14206d58282aa8be!8m2!3d54.410045!4d18.6061457!16s%2Fg%2F11bzsf17_f!19sChIJSQlH45AK_UYRvqgqKFhtIBQ?authuser=0&hl=en&rclk=1
54.4068178,18.6393251,restaurant,SurfBurger Brzeźno,https://www.google.com/maps/place/SurfBurger+Brze%C5%BAno/data=!4m7!3m6!1s0x46fda76110334509:0x250c049d55ed7b18!8m2!3d54.4068178!4d18.6393251!16s%2Fg%2F11lgkw7n76!19sChIJCUUzEGGn_UYRGHvtVZ0EDCU?authuser=0&hl=en&rclk=1
54.4103217,18.6011584,restaurant,Pizzeria Prendo Gusto,https://www.google.com/maps/place/Pizzeria+Prendo+Gusto/data=!4m7!3m6!1s0x46fd0b09c54d7dbb:0x78c1c3de30a107aa!8m2!3d54.4103217!4d18.6011584!16s%2Fg%2F11f6d7f3lt!19sChIJu31NxQkL_UYRqgehMN7DwXg?authuser=0&hl=en&rclk=1
54.4013314,18.6621244,restaurant,PIZZERIA TAORMINA,https://www.google.com/maps/place/PIZZERIA+TAORMINA/data=!4m7!3m6!1s0x46fd0cadd5b5361f:0xe832209442f28ca9!8m2!3d54.4013314!4d18.6621244!16s%2Fg%2F1thk_jzg!19sChIJHza11a0M_UYRqYzyQpQgMug?authuser=0&hl=en&rclk=1
54.4018062,18.6725738,restaurant,Perła Bałtyku,https://www.google.com/maps/place/Per%C5%82a+Ba%C5%82tyku/data=!4m7!3m6!1s0x46fd0cb1d58d7075:0x52a6baa17b31c7dd!8m2!3d54.4018062!4d18.6725738!16s%2Fg%2F11h0zn9rd!19sChIJdXCN1bEM_UYR3ccxe6G6plI?authuser=0&hl=en&rclk=1
54.3953786,18.6432439,restaurant,YAMA SUSHI,https://www.google.com/maps/place/YAMA+SUSHI/data=!4m7!3m6!1s0x46fd75630c565583:0x3c64817dcbee1564!8m2!3d54.3953786!4d18.6432439!16s%2Fg%2F11rs2tvljh!19sChIJg1VWDGN1_UYRZBXuy32BZDw?authuser=0&hl=en&rclk=1
54.3989547,18.6462778,restaurant,Żabka,https://www.google.com/maps/place/%C5%BBabka/data=!4m7!3m6!1s0x46fd0bde2614f099:0x56fd5cda8ae42a22!8m2!3d54.3989547!4d18.6462778!16s%2Fg%2F11rr740s9m!19sChIJmfAUJt4L_UYRIirkitpc_VY?authuser=0&hl=en&rclk=1
54.3508407,18.6552628,restaurant,Shanti,https://www.google.com/maps/place/Shanti/data=!4m7!3m6!1s0x46fd738cd75e8eeb:0x5c19ad23d4963170!8m2!3d54.3508407!4d18.6552628!16s%2Fg%2F11s3wtm9_r!19sChIJ645e14xz_UYRcDGW1COtGVw?authuser=0&hl=en&rclk=1
54.3565725,18.652307,restaurant,IBIS KITCHEN,https://www.google.com/maps/place/IBIS+KITCHEN/data=!4m7!3m6!1s0x46fd737471b5f115:0x9a1b8ed8f3b0b398!8m2!3d54.3565725!4d18.652307!16s%2Fg%2F11gb3qxkk1!19sChIJFfG1cXRz_UYRmLOw89iOG5o?authuser=0&hl=en&rclk=1
54.3561586,18.6514113,restaurant,Mercury Hotel,https://www.google.com/maps/place/Mercury+Hotel/data=!4m7!3m6!1s0x46fd73abc6cbff91:0xae10433d96dc6375!8m2!3d54.3561586!4d18.6514113!16s%2Fg%2F11h1yg7jqv!19sChIJkf_Lxqtz_UYRdWPclj1DEK4?authuser=0&hl=en&rclk=1
54.3869444,18.4641667,restaurant,Meating Point Azymutalna 11,https://www.google.com/maps/place/Meating+Point+Azymutalna+11/data=!4m7!3m6!1s0x46fd9f3de640b601:0x958841a15d89c333!8m2!3d54.3869444!4d18.4641667!16s%2Fg%2F11ghpt22w_!19sChIJAbZA5j2f_UYRM8OJXaFBiJU?authuser=0&hl=en&rclk=1
54.38248,18.465409,restaurant,Flying Bistro,https://www.google.com/maps/place/Flying+Bistro/data=!4m7!3m6!1s0x46fd9ff923edc611:0x28abe66a10ba858e!8m2!3d54.38248!4d18.465409!16s%2Fg%2F11pv6625c6!19sChIJEcbtI_mf_UYRjoW6EGrmqyg?authuser=0&hl=en&rclk=1
54.3795752,18.4857005,restaurant,Restauracja Odlotowa,https://www.google.com/maps/place/Restauracja+Odlotowa/data=!4m7!3m6!1s0x46fd9ffd0b305245:0x74968743ed144b1a!8m2!3d54.3795752!4d18.4857005!16s%2Fg%2F11fj87q65h!19sChIJRVIwC_2f_UYRGksU7UOHlnQ?authuser=0&hl=en&rclk=1
54.381742,18.4667284,restaurant,Restauracja McDonald's,https://www.google.com/maps/place/Restauracja+McDonald's/data=!4m7!3m6!1s0x46fd9fcb4ae9f8ab:0x7934e40ebee36dea!8m2!3d54.381742!4d18.4667284!16s%2Fg%2F11fz27k_wf!19sChIJq_jpSsuf_UYR6m3jvg7kNHk?authuser=0&hl=en&rclk=1
54.3932571,18.3855133,restaurant,Lis i Kura,https://www.google.com/maps/place/Lis+i+Kura/data=!4m7!3m6!1s0x46fd9ed87d1f490d:0x8a4eb4d157b0f299!8m2!3d54.3932571!4d18.3855133!16s%2Fg%2F11bwym3rcn!19sChIJDUkffdie_UYRmfKwV9G0Too?authuser=0&hl=en&rclk=1
54.3716284,18.3623227,restaurant,Golonkowy Raj,https://www.google.com/maps/place/Golonkowy+Raj/data=!4m7!3m6!1s0x46fd9eb704144513:0x9b9393e420f39fee!8m2!3d54.3716284!4d18.3623227!16s%2Fg%2F11bc8zb4yz!19sChIJE0UUBLee_UYR7p_zIOSTk5s?authuser=0&hl=en&rclk=1
54.3635508,18.4940722,restaurant,Bistro „Sałata na Kanapie”,https://www.google.com/maps/place/Bistro+%E2%80%9ESa%C5%82ata+na+Kanapie%E2%80%9D/data=!4m7!3m6!1s0x46fd7576e53c47a5:0x7929a72db739208f!8m2!3d54.3635508!4d18.4940722!16s%2Fg%2F11rznrgl_x!19sChIJpUc85XZ1_UYRjyA5ty2nKXk?authuser=0&hl=en&rclk=1
54.3733635,18.5177644,restaurant,Cristal pierogi i pizza,https://www.google.com/maps/place/Cristal+pierogi+i+pizza/data=!4m7!3m6!1s0x46fd75ca31fc0b23:0xe2cc0969f9078e55!8m2!3d54.3733635!4d18.5177644!16s%2Fg%2F11fm49zg4p!19sChIJIwv8Mcp1_UYRVY4H-WkJzOI?authuser=0&hl=en&rclk=1
54.38944,18.483263,restaurant,Żabka,https://www.google.com/maps/place/%C5%BBabka/data=!4m7!3m6!1s0x46fd9f7ceabeaa15:0xf6b91c9cc5a536d5!8m2!3d54.38944!4d18.483263!16s%2Fg%2F11q8jdb1bn!19sChIJFaq-6nyf_UYR1TalxZwcufY?authuser=0&hl=en&rclk=1
54.3856384,18.4860497,restaurant,MAGNIFICO,https://www.google.com/maps/place/MAGNIFICO/data=!4m7!3m6!1s0x46fd9fcf90a2b011:0x5e114f48c5fcf192!8m2!3d54.3856384!4d18.4860497!16s%2Fg%2F11g8cr5ymx!19sChIJEbCikM-f_UYRkvH8xUhPEV4?authuser=0&hl=en&rclk=1
54.3795753,18.4857263,restaurant,Hotel Faros,https://www.google.com/maps/place/Hotel+Faros/data=!4m10!3m9!1s0x46fd9fd36a22373b:0xa32efdf038885229!5m2!4m1!1i2!8m2!3d54.3795753!4d18.4857263!16s%2Fg%2F11cjrf4f05!19sChIJOzciatOf_UYRKVKIOPD9LqM?authuser=0&hl=en&rclk=1
54.4034229,18.5711382,restaurant,Natka Take Away,https://www.google.com/maps/place/Natka+Take+Away/data=!4m7!3m6!1s0x46fd75e8e2bf51c7:0x6bb7cfef32f5c90!8m2!3d54.4034229!4d18.5711382!16s%2Fg%2F11h01x243w!19sChIJx1G_4uh1_UYRkFwv8_58uwY?authuser=0&hl=en&rclk=1
54.4033034,18.5705144,restaurant,Treinta y Tres,https://www.google.com/maps/place/Treinta+y+Tres/data=!4m7!3m6!1s0x46fd75e329b436f1:0x4d2883b10d358ecf!8m2!3d54.4033034!4d18.5705144!16s%2Fg%2F11h9pc3_c1!19sChIJ8Ta0KeN1_UYRz441DbGDKE0?authuser=0&hl=en&rclk=1
54.398794,18.568031,restaurant,ARARAT SMAKI ORIENTU kebab,https://www.google.com/maps/place/ARARAT+SMAKI+ORIENTU+kebab/data=!4m7!3m6!1s0x46fd752580513cfb:0xea348d63d970cdc1!8m2!3d54.398794!4d18.568031!16s%2Fg%2F11bv30mgst!19sChIJ-zxRgCV1_UYRwc1w2WONNOo?authuser=0&hl=en&rclk=1
54.3945902,18.5810311,restaurant,Set,https://www.google.com/maps/place/Set/data=!4m7!3m6!1s0x46fd749449c99727:0x6b636aa52158a4de!8m2!3d54.3945902!4d18.5810311!16s%2Fg%2F1thd0ht2!19sChIJJ5fJSZR0_UYR3qRYIaVqY2s?authuser=0&hl=en&rclk=1
54.3883368,18.5900767,restaurant,Tutti Santi,https://www.google.com/maps/place/Tutti+Santi/data=!4m7!3m6!1s0x46fd74dcb8a38449:0xc56beee3effaf970!8m2!3d54.3883368!4d18.5900767!16s%2Fg%2F11dym1lhjq!19sChIJSYSjuNx0_UYRcPn67-Pua8U?authuser=0&hl=en&rclk=1
54.3914784,18.5904474,restaurant,Restauracja Kredens,https://www.google.com/maps/place/Restauracja+Kredens/data=!4m7!3m6!1s0x46fd74db0e0fce35:0xfa46d6578cbc59dc!8m2!3d54.3914784!4d18.5904474!16s%2Fg%2F11b7pyyzj9!19sChIJNc4PDtt0_UYR3Fm8jFfWRvo?authuser=0&hl=en&rclk=1
54.3880044,18.6149982,restaurant,Nocna Mafia - Zaspa,https://www.google.com/maps/place/Nocna+Mafia+-+Zaspa/data=!4m7!3m6!1s0x46fd75b4239760e9:0xe411845bc3eea535!8m2!3d54.3880044!4d18.6149982!16s%2Fg%2F11jy_7ntgn!19sChIJ6WCXI7R1_UYRNaXuw1uEEeQ?authuser=0&hl=en&rclk=1
54.3889126,18.5942637,restaurant,Mama Indii Restauracja Indyjska,https://www.google.com/maps/place/Mama+Indii+Restauracja+Indyjska/data=!4m7!3m6!1s0x46fd75fc54d7a383:0x708fcf6cb2ddee6d!8m2!3d54.3889126!4d18.5942637!16s%2Fg%2F11nx2vrg_m!19sChIJg6PXVPx1_UYRbe7dsmzPj3A?authuser=0&hl=en&rclk=1
54.388085,18.600283,restaurant,Restauracja U Seniora,https://www.google.com/maps/place/Restauracja+U+Seniora/data=!4m7!3m6!1s0x46fd74c3fe2610a5:0x8ad54bda45be9d22!8m2!3d54.388085!4d18.600283!16s%2Fg%2F11f4xf344s!19sChIJpRAm_sN0_UYRIp2-RdpL1Yo?authuser=0&hl=en&rclk=1
54.3928112,18.6056883,restaurant,Asia Taste Gdańsk,https://www.google.com/maps/place/Asia+Taste+Gda%C5%84sk/data=!4m7!3m6!1s0x46fd74c61e37652d:0xbed1f3ae73d8ac45!8m2!3d54.3928112!4d18.6056883!16s%2Fg%2F11f2b27_mh!19sChIJLWU3HsZ0_UYRRazYc67z0b4?authuser=0&hl=en&rclk=1
54.3871333,18.6281693,restaurant,Mangon - kulinarnie zakręceni,https://www.google.com/maps/place/Mangon+-+kulinarnie+zakr%C4%99ceni/data=!4m7!3m6!1s0x46fd75afeea7c965:0x49a7d403a028c7b9!8m2!3d54.3871333!4d18.6281693!16s%2Fg%2F11jg7gcwcm!19sChIJZcmn7q91_UYRuccooAPUp0k?authuser=0&hl=en&rclk=1
54.3905269,18.6090926,restaurant,Desi India,https://www.google.com/maps/place/Desi+India/data=!4m7!3m6!1s0x46fd75d1ea462041:0x86a22be97c1d61c7!8m2!3d54.3905269!4d18.6090926!16s%2Fg%2F11swm6q866!19sChIJQSBG6tF1_UYRx2EdfOkrooY?authuser=0&hl=en&rclk=1
54.3966803,18.6034437,restaurant,MusheSushi,https://www.google.com/maps/place/MusheSushi/data=!4m7!3m6!1s0x46fd75761ce5ac85:0x80bb62ad3a74d064!8m2!3d54.3966803!4d18.6034437!16s%2Fg%2F11sfphpl5w!19sChIJhazlHHZ1_UYRZNB0Oq1iu4A?authuser=0&hl=en&rclk=1
54.3932412,18.6099628,restaurant,La Bottega Passione Italiana,https://www.google.com/maps/place/La+Bottega+Passione+Italiana/data=!4m7!3m6!1s0x46fd739e8726171b:0x56fa67d5f01277b7!8m2!3d54.3932412!4d18.6099628!16s%2Fg%2F11fm52y_jx!19sChIJGxcmh55z_UYRt3cS8NVn-lY?authuser=0&hl=en&rclk=1
54.3925827,18.610062,restaurant,Burger Majster,https://www.google.com/maps/place/Burger+Majster/data=!4m7!3m6!1s0x46fd74c86deebc87:0x57722fe4ba6baa78!8m2!3d54.3925827!4d18.610062!16s%2Fg%2F11bv5v6xck!19sChIJh7zubch0_UYReKpruuQvclc?authuser=0&hl=en&rclk=1
54.3886464,18.6533919,restaurant,Bistro Parrots,https://www.google.com/maps/place/Bistro+Parrots/data=!4m7!3m6!1s0x46fd7326e195bf4d:0x8c921f647eb09ffe!8m2!3d54.3886464!4d18.6533919!16s%2Fg%2F11kdp6_tzk!19sChIJTb-V4SZz_UYR_p-wfmQfkow?authuser=0&hl=en&rclk=1
54.3854816,18.6246745,restaurant,Pizzeria Marco,https://www.google.com/maps/place/Pizzeria+Marco/data=!4m7!3m6!1s0x46fd74bb441469e7:0xe6bdc4029d928db2!8m2!3d54.3854816!4d18.6246745!16s%2Fg%2F1thtn8xn!19sChIJ52kURLt0_UYRso2SnQLEveY?authuser=0&hl=en&rclk=1
54.403856,18.6361762,restaurant,Pizzeria La Parma,https://www.google.com/maps/place/Pizzeria+La+Parma/data=!4m7!3m6!1s0x46fd0b4deb0310e9:0xd63e44819f8334f3!8m2!3d54.403856!4d18.6361762!16s%2Fg%2F1tdfgcwy!19sChIJ6RAD600L_UYR8zSDn4FEPtY?authuser=0&hl=en&rclk=1
54.350229,18.650241,restaurant,Restauracja KOS,https://www.google.com/maps/place/Restauracja+KOS/data=!4m7!3m6!1s0x46fd739fb9ecb7b7:0x5cc6a496d49bfebc!8m2!3d54.350229!4d18.650241!16s%2Fg%2F1v5_839t!19sChIJt7fsuZ9z_UYRvP6b1Jakxlw?authuser=0&hl=en&rclk=1
54.3722271,18.5209879,restaurant,Wook,https://www.google.com/maps/place/Wook/data=!4m7!3m6!1s0x46fd7576824f00a7:0x56468c9ccff9c95b!8m2!3d54.3722271!4d18.5209879!16s%2Fg%2F1tgm1k43!19sChIJpwBPgnZ1_UYRW8n5z5yMRlY?authuser=0&hl=en&rclk=1
54.3720109,18.5208006,restaurant,Timo Sushi Gdańsk,https://www.google.com/maps/place/Timo+Sushi+Gda%C5%84sk/data=!4m7!3m6!1s0x46fd759e25b8a82d:0xf50f18f2222ff00c!8m2!3d54.3720109!4d18.5208006!16s%2Fg%2F11gb3n5lsl!19sChIJLai4JZ51_UYRDPAvIvIYD_U?authuser=0&hl=en&rclk=1
54.3721838,18.519153,restaurant,Sphinx,https://www.google.com/maps/place/Sphinx/data=!4m7!3m6!1s0x46fd75761b027535:0x7728d24b4cc99aa4!8m2!3d54.3721838!4d18.519153!16s%2Fg%2F1tc_cyzr!19sChIJNXUCG3Z1_UYRpJrJTEvSKHc?authuser=0&hl=en&rclk=1
54.3781122,18.5758711,restaurant,Wild Bean Cafe,https://www.google.com/maps/place/Wild+Bean+Cafe/data=!4m7!3m6!1s0x46fd755d8a4578a5:0x4b646bb6a568330e!8m2!3d54.3781122!4d18.5758711!16s%2Fg%2F11rnf2w3qs!19sChIJpXhFil11_UYRDjNopbZrZEs?authuser=0&hl=en&rclk=1
54.3918634,18.5772742,restaurant,Zajezdnia Pizza,https://www.google.com/maps/place/Zajezdnia+Pizza/data=!4m7!3m6!1s0x46fd74d8ad0648db:0xcbc4ba109a83485a!8m2!3d54.3918634!4d18.5772742!16s%2Fg%2F11f105hw3_!19sChIJ20gGrdh0_UYRWkiDmhC6xMs?authuser=0&hl=en&rclk=1
54.3835465,18.5914461,restaurant,LULA food & drink,https://www.google.com/maps/place/LULA+food+%26+drink/data=!4m7!3m6!1s0x46fd74e82609aa23:0x62819e4054007172!8m2!3d54.3835465!4d18.5914461!16s%2Fg%2F11b6hypyxp!19sChIJI6oJJuh0_UYRcnEAVECegWI?authuser=0&hl=en&rclk=1
54.3836111,18.5888889,restaurant,ELIKSIR Restaurant & Cocktailbar,https://www.google.com/maps/place/ELIKSIR+Restaurant+%26+Cocktailbar/data=!4m7!3m6!1s0x46fd74e805fefcd1:0x3a9c6c0390ed886c!8m2!3d54.3836111!4d18.5888889!16s%2Fg%2F11bx0dhvs0!19sChIJ0fz-Beh0_UYRbIjtkANsnDo?authuser=0&hl=en&rclk=1
54.3833285,18.5916443,restaurant,Enklava Restaurant & Cafe,https://www.google.com/maps/place/Enklava+Restaurant+%26+Cafe/data=!4m7!3m6!1s0x46fd74e82e572b21:0x3c530fc8bd804329!8m2!3d54.3833285!4d18.5916443!16s%2Fg%2F11f33hz5kd!19sChIJIStXLuh0_UYRKUOAvcgPUzw?authuser=0&hl=en&rclk=1
54.3829197,18.6052765,restaurant,Zater Orient Grill,https://www.google.com/maps/place/Zater+Orient+Grill/data=!4m7!3m6!1s0x46fd75b95b1445a3:0x5fb58b028a160d8b!8m2!3d54.3829197!4d18.6052765!16s%2Fg%2F11fqt1rfm5!19sChIJo0UUW7l1_UYRiw0WigKLtV8?authuser=0&hl=en&rclk=1
54.3751491,18.61598,restaurant,Restauracja Wreszcie,https://www.google.com/maps/place/Restauracja+Wreszcie/data=!4m7!3m6!1s0x46fd74974652a9f3:0x4b25dab1ea294596!8m2!3d54.3751491!4d18.61598!16s%2Fg%2F1vxw6zd9!19sChIJ86lSRpd0_UYRlkUp6rHaJUs?authuser=0&hl=en&rclk=1
54.381133,18.6134461,restaurant,Stacja Wrzeszcz bistro & bar,https://www.google.com/maps/place/Stacja+Wrzeszcz+bistro+%26+bar/data=!4m7!3m6!1s0x46fd75080d398b49:0x81f278b941c84940!8m2!3d54.381133!4d18.6134461!16s%2Fg%2F11r_mkkjwr!19sChIJSYs5DQh1_UYRQEnIQbl48oE?authuser=0&hl=en&rclk=1
54.3792656,18.6072484,restaurant,Chang - Thai Street Food,https://www.google.com/maps/place/Chang+-+Thai+Street+Food/data=!4m7!3m6!1s0x46fd75c6ee3fbcd3:0x6eb9c500d6ca1726!8m2!3d54.3792656!4d18.6072484!16s%2Fg%2F11fb0qg786!19sChIJ07w_7sZ1_UYRJhfK1gDFuW4?authuser=0&hl=en&rclk=1
54.380591,18.603988,restaurant,Kebab orient Wrzeszcz,https://www.google.com/maps/place/Kebab+orient+Wrzeszcz/data=!4m7!3m6!1s0x46fd75b6bbd72689:0x8448c9233929101!8m2!3d54.380591!4d18.603988!16s%2Fg%2F11s6j0cx2d!19sChIJiSbXu7Z1_UYRAZGSM5KMRAg?authuser=0&hl=en&rclk=1
54.3828085,18.6080735,restaurant,Hewelke Restaurant & Bakery,https://www.google.com/maps/place/Hewelke+Restaurant+%26+Bakery/data=!4m7!3m6!1s0x46fd75743274ab6d:0x2f55161cc781dbc0!8m2!3d54.3828085!4d18.6080735!16s%2Fg%2F11t04ycl9r!19sChIJbat0MnR1_UYRwNuBxxwWVS8?authuser=0&hl=en&rclk=1
54.375265,18.6166199,restaurant,Thali Gdańsk,https://www.google.com/maps/place/Thali+Gda%C5%84sk/data=!4m7!3m6!1s0x46fd75822f9dbe71:0x1a293792e8f7512b!8m2!3d54.375265!4d18.6166199!16s%2Fg%2F11spltvv_f!19sChIJcb6dL4J1_UYRK1H36JI3KRo?authuser=0&hl=en&rclk=1
54.3793753,18.6071481,restaurant,Tommy's burgers,https://www.google.com/maps/place/Tommy's+burgers/data=!4m7!3m6!1s0x46fd75694ced29a3:0x4ab5978c11fe1a3f!8m2!3d54.3793753!4d18.6071481!16s%2Fg%2F11l7mwhch0!19sChIJoyntTGl1_UYRPxr-EYyXtUo?authuser=0&hl=en&rclk=1
54.384036,18.6389727,restaurant,Bufet w centrum biurowym MP100,https://www.google.com/maps/place/Bufet+w+centrum+biurowym+MP100/data=!4m7!3m6!1s0x46fd74a711ccedb9:0xd06a28980f688523!8m2!3d54.384036!4d18.6389727!16s%2Fg%2F11f4ld79sl!19sChIJue3MEad0_UYRI4VoD5goatA?authuser=0&hl=en&rclk=1
54.3879031,18.6252098,restaurant,Ideolo Pizza,https://www.google.com/maps/place/Ideolo+Pizza/data=!4m7!3m6!1s0x46fd751c4d363517:0xb04780365c12ade7!8m2!3d54.3879031!4d18.6252098!16s%2Fg%2F11rxxzk7nz!19sChIJFzU2TRx1_UYR560SXDaAR7A?authuser=0&hl=en&rclk=1
54.379033,18.632798,restaurant,Simba,https://www.google.com/maps/place/Simba/data=!4m7!3m6!1s0x46fd74a1b0b369f7:0x77f85d97c4fffe6b!8m2!3d54.379033!4d18.632798!16s%2Fg%2F1tj2m4mw!19sChIJ92mzsKF0_UYRa_7_xJdd-Hc?authuser=0&hl=en&rclk=1
54.3740063,18.6267712,restaurant,Surf Burger,https://www.google.com/maps/place/Surf+Burger/data=!4m7!3m6!1s0x46fd749ec82ca61b:0x1a5cd51ee797e65c!8m2!3d54.3740063!4d18.6267712!16s%2Fg%2F11g8t_87bj!19sChIJG6YsyJ50_UYRXOaX5x7VXBo?authuser=0&hl=en&rclk=1
54.3727742,18.6250903,restaurant,LEKKO Good Food & Friends,https://www.google.com/maps/place/LEKKO+Good+Food+%26+Friends/data=!4m7!3m6!1s0x46fd7554de8ebb1b:0x25e325df2ad06205!8m2!3d54.3727742!4d18.6250903!16s%2Fg%2F11fmfz1b02!19sChIJG7uO3lR1_UYRBWLQKt8l4yU?authuser=0&hl=en&rclk=1
54.3774789,18.6501269,restaurant,Bar ALICJA,https://www.google.com/maps/place/Bar+ALICJA/data=!4m7!3m6!1s0x46fd735c536b121f:0x8fb4729c3011985e!8m2!3d54.3774789!4d18.6501269!16s%2Fg%2F11c5hj30_l!19sChIJHxJrU1xz_UYRXpgRMJxytI8?authuser=0&hl=en&rclk=1
54.3551935,18.6630526,restaurant,Motlava Restaurant,https://www.google.com/maps/place/Motlava+Restaurant/data=!4m7!3m6!1s0x46fd730b906e66c5:0x5e31c1e3449a712d!8m2!3d54.3551935!4d18.6630526!16s%2Fg%2F11g6yn4qsj!19sChIJxWZukAtz_UYRLXGaROPBMV4?authuser=0&hl=en&rclk=1
54.3882028,18.6526074,restaurant,Chilli Bistro,https://www.google.com/maps/place/Chilli+Bistro/data=!4m7!3m6!1s0x46fd73d55be32763:0x23c4c4d1506da272!8m2!3d54.3882028!4d18.6526074!16s%2Fg%2F11fhvygd24!19sChIJYyfjW9Vz_UYRcqJtUNHExCM?authuser=0&hl=en&rclk=1
54.356859,18.6495715,restaurant,Masala Restaurant,https://www.google.com/maps/place/Masala+Restaurant/data=!4m7!3m6!1s0x46fd73769e177213:0xf91c33aa83dac73d!8m2!3d54.356859!4d18.6495715!16s%2Fg%2F1tghn8wc!19sChIJE3IXnnZz_UYRPcfag6ozHPk?authuser=0&hl=en&rclk=1
54.3478225,18.6568074,restaurant,Restauracja TRUE,https://www.google.com/maps/place/Restauracja+TRUE/data=!4m7!3m6!1s0x46fd73374dd45d4b:0x65143ca00dcd101b!8m2!3d54.3478225!4d18.6568074!16s%2Fg%2F11h2p5bc0w!19sChIJS13UTTdz_UYRGxDNDaA8FGU?authuser=0&hl=en&rclk=1
54.349176,18.6576852,restaurant,Billy's American Restaurants Chmielna,https://www.google.com/maps/place/Billy's+American+Restaurants+Chmielna/data=!4m7!3m6!1s0x46fd734bc6b197dd:0x579a62b820c4abf7!8m2!3d54.349176!4d18.6576852!16s%2Fg%2F11rg9yptx_!19sChIJ3Zexxktz_UYR96vEILhimlc?authuser=0&hl=en&rclk=1
54.3758354,18.520193,restaurant,KFC Gdańsk Matarnia,https://www.google.com/maps/place/KFC+Gda%C5%84sk+Matarnia/data=!4m7!3m6!1s0x46fd757439338c45:0x788aeb245a06d192!8m2!3d54.3758354!4d18.520193!16s%2Fg%2F1tfrqm5s!19sChIJRYwzOXR1_UYRktEGWiTring?authuser=0&hl=en&rclk=1
54.3575,18.5788889,restaurant,Fresco - Lunch & Restaurant Morena,https://www.google.com/maps/place/Fresco+-+Lunch+%26+Restaurant+Morena/data=!4m7!3m6!1s0x46fd745eaa92bf0f:0x4f2e94184698e340!8m2!3d54.3575!4d18.5788889!16s%2Fg%2F11cmhthx8t!19sChIJD7-Sql50_UYRQOOYRhiULk8?authuser=0&hl=en&rclk=1
54.376703,18.5648251,restaurant,Pizzeria da Raffaele,https://www.google.com/maps/place/Pizzeria+da+Raffaele/data=!4m7!3m6!1s0x46fd7502ac3cc6cb:0xaf5c29d93db31011!8m2!3d54.376703!4d18.5648251!16s%2Fg%2F11c6lkzdcq!19sChIJy8Y8rAJ1_UYRERCzPdkpXK8?authuser=0&hl=en&rclk=1
54.3807275,18.5898744,restaurant,POBITEGARY . Wrzeszcz,https://www.google.com/maps/place/POBITEGARY+.+Wrzeszcz/data=!4m7!3m6!1s0x46fd74e8e555db71:0x650faffb0ef1e08c!8m2!3d54.3807275!4d18.5898744!16s%2Fg%2F11c0vxxdzp!19sChIJcdtV5eh0_UYRjODxDvuvD2U?authuser=0&hl=en&rclk=1
54.3811658,18.5924714,restaurant,Jaffa Eat & Drink,https://www.google.com/maps/place/Jaffa+Eat+%26+Drink/data=!4m7!3m6!1s0x46fd7506cd29ac85:0x99987071931069e5!8m2!3d54.3811658!4d18.5924714!16s%2Fg%2F11h_7k_55y!19sChIJhawpzQZ1_UYR5WkQk3FwmJk?authuser=0&hl=en&rclk=1
54.378558,18.5985479,restaurant,Restauracja Hacjenda,https://www.google.com/maps/place/Restauracja+Hacjenda/data=!4m7!3m6!1s0x46fd74eb0b5cd52d:0x1588702afa75b838!8m2!3d54.378558!4d18.5985479!16s%2Fg%2F1v3hyp4m!19sChIJLdVcC-t0_UYROLh1-ipwiBU?authuser=0&hl=en&rclk=1
54.3806644,18.5898427,restaurant,PING PONG,https://www.google.com/maps/place/PING+PONG/data=!4m7!3m6!1s0x46fd74e8e4cafa99:0xb91900cc6096bd87!8m2!3d54.3806644!4d18.5898427!16s%2Fg%2F11cs1dn_7c!19sChIJmfrK5Oh0_UYRh72WYMwAGbk?authuser=0&hl=en&rclk=1
54.3803309,18.5874402,restaurant,PLAN A,https://www.google.com/maps/place/PLAN+A/data=!4m7!3m6!1s0x46fd7526d8251701:0xd0a83171c620109e!8m2!3d54.3803309!4d18.5874402!16s%2Fg%2F11ngg7l5_x!19sChIJARcl2CZ1_UYRnhAgxnExqNA?authuser=0&hl=en&rclk=1
54.3816262,18.5874848,restaurant,Gyozilla Sushi & Cocktails,https://www.google.com/maps/place/Gyozilla+Sushi+%26+Cocktails/data=!4m7!3m6!1s0x46fd75ce5583a6d5:0x196d05e94fcecfaa!8m2!3d54.3816262!4d18.5874848!16s%2Fg%2F11t7vqy49x!19sChIJ1aaDVc51_UYRqs_OT-kFbRk?authuser=0&hl=en&rclk=1
54.378109,18.5758514,restaurant,Wild Bean Cafe,https://www.google.com/maps/place/Wild+Bean+Cafe/data=!4m7!3m6!1s0x46fd758a7a05e9d7:0x2d263339535d2831!8m2!3d54.378109!4d18.5758514!16s%2Fg%2F11fwgr3cj_!19sChIJ1-kFeop1_UYRMShdUzkzJi0?authuser=0&hl=en&rclk=1
54.3657873,18.6224574,restaurant,Good Food,https://www.google.com/maps/place/Good+Food/data=!4m7!3m6!1s0x46fd7507f758b6a1:0x9101b65bf6392c18!8m2!3d54.3657873!4d18.6224574!16s%2Fg%2F11jq0ck56q!19sChIJobZY9wd1_UYRGCw59lu2AZE?authuser=0&hl=en&rclk=1
54.3692427,18.6078442,restaurant,Trufla Bistro,https://www.google.com/maps/place/Trufla+Bistro/data=!4m7!3m6!1s0x46fd75c28afb7b5d:0xc4ca29e8f0b7b11b!8m2!3d54.3692427!4d18.6078442!16s%2Fg%2F11q3t145vr!19sChIJXXv7isJ1_UYRG7G38OgpysQ?authuser=0&hl=en&rclk=1
54.3741203,18.6131405,restaurant,Felino,https://www.google.com/maps/place/Felino/data=!4m7!3m6!1s0x46fd7568b315bfbf:0x7e31d0f1e04a4909!8m2!3d54.3741203!4d18.6131405!16s%2Fg%2F11j1sk1w28!19sChIJv78Vs2h1_UYRCUlK4PHQMX4?authuser=0&hl=en&rclk=1
54.365277,18.6269,restaurant,Restauracja Trattoria La Cantina Kuchnia włoska,https://www.google.com/maps/place/Restauracja+Trattoria+La+Cantina+Kuchnia+w%C5%82oska/data=!4m7!3m6!1s0x46fd748294324445:0x38f3411dc5728093!8m2!3d54.365277!4d18.6269!16s%2Fg%2F124yl7vck!19sChIJRUQylIJ0_UYRk4ByxR1B8zg?authuser=0&hl=en&rclk=1
54.3734546,18.6261657,restaurant,PIZZA SUBITO,https://www.google.com/maps/place/PIZZA+SUBITO/data=!4m7!3m6!1s0x46fd749eb1424451:0x65f84f4cfdcb2df6!8m2!3d54.3734546!4d18.6261657!16s%2Fg%2F11cm4b6psx!19sChIJUURCsZ50_UYR9i3L_UxP-GU?authuser=0&hl=en&rclk=1
54.3612876,18.6501588,restaurant,Amber Side Restaurant&Bar,https://www.google.com/maps/place/Amber+Side+Restaurant%26Bar/data=!4m7!3m6!1s0x46fd74a66c6d20a1:0x52ff26ab3355da24!8m2!3d54.3612876!4d18.6501588!16s%2Fg%2F11r8_p49n!19sChIJoSBtbKZ0_UYRJNpVM6sm_1I?authuser=0&hl=en&rclk=1
54.3609705,18.7160055,restaurant,ROZWAŁKOWANI,https://www.google.com/maps/place/ROZWA%C5%81KOWANI/data=!4m7!3m6!1s0x46fd73d1f06cbd51:0x601569a7c88db78b!8m2!3d54.3609705!4d18.7160055!16s%2Fg%2F11j8m95r6w!19sChIJUb1s8NFz_UYRi7eNyKdpFWA?authuser=0&hl=en&rclk=1
54.3548144,18.6629314,restaurant,Correze Restaurant,https://www.google.com/maps/place/Correze+Restaurant/data=!4m7!3m6!1s0x46fd730b8539db1b:0xbd1cf7ebfff14141!8m2!3d54.3548144!4d18.6629314!16s%2Fg%2F11ddxt97wj!19sChIJG9s5hQtz_UYRQUHx_-v3HL0?authuser=0&hl=en&rclk=1
54.3611729,18.7156116,restaurant,ControlFood,https://www.google.com/maps/place/ControlFood/data=!4m7!3m6!1s0x46fd72e8876761f7:0xa9fa3d80ae9e7f9a!8m2!3d54.3611729!4d18.7156116!16s%2Fg%2F12hk2h1yw!19sChIJ92Fnh-hy_UYRmn-eroA9-qk?authuser=0&hl=en&rclk=1
54.3508589,18.6506231,restaurant,Restauracja Gdańska,https://www.google.com/maps/place/Restauracja+Gda%C5%84ska/data=!4m7!3m6!1s0x46fd739fc568d80b:0xa4352213660aca39!8m2!3d54.3508589!4d18.6506231!16s%2Fg%2F1th1src2!19sChIJC9hoxZ9z_UYROcoKZhMiNaQ?authuser=0&hl=en&rclk=1
54.3450744,18.534854,restaurant,Restauracja Wyśmienicie,https://www.google.com/maps/place/Restauracja+Wy%C5%9Bmienicie/data=!4m7!3m6!1s0x46fd7597c4de5b9d:0xaaabc4a0b567e896!8m2!3d54.3450744!4d18.534854!16s%2Fg%2F11tc51x3cv!19sChIJnVvexJd1_UYRluhntaDEq6o?authuser=0&hl=en&rclk=1
54.352668,18.5088401,restaurant,Pizzeria Bella,https://www.google.com/maps/place/Pizzeria+Bella/data=!4m7!3m6!1s0x46fd75810ea7054d:0x97cf7672d6274aae!8m2!3d54.352668!4d18.5088401!16s%2Fg%2F11pzx37y3y!19sChIJTQWnDoF1_UYRrkon1nJ2z5c?authuser=0&hl=en&rclk=1
54.3522526,18.4986527,restaurant,Pani Burger z dostawą,https://www.google.com/maps/place/Pani+Burger+z+dostaw%C4%85/data=!4m7!3m6!1s0x46fd75ed2243d45f:0xd670faeacce833c8!8m2!3d54.3522526!4d18.4986527!16s%2Fg%2F11bxc57hjf!19sChIJX9RDIu11_UYRyDPozOr6cNY?authuser=0&hl=en&rclk=1
54.3526553,18.5113137,restaurant,Kreska Mąki,https://www.google.com/maps/place/Kreska+M%C4%85ki/data=!4m7!3m6!1s0x46fd75277a4f835d:0x268a77aa062fbb0a!8m2!3d54.3526553!4d18.5113137!16s%2Fg%2F11s6vy1shz!19sChIJXYNPeid1_UYRCrsvBqp3iiY?authuser=0&hl=en&rclk=1
54.3503842,18.5119884,restaurant,Wild Bean Cafe,https://www.google.com/maps/place/Wild+Bean+Cafe/data=!4m7!3m6!1s0x46fd75bbffce78d9:0xceafd79b3b886cce!8m2!3d54.3503842!4d18.5119884!16s%2Fg%2F11jh1jzj21!19sChIJ2XjO_7t1_UYRzmyIO5vXr84?authuser=0&hl=en&rclk=1
54.3525533,18.5136145,restaurant,Rolki - Sushi to go,https://www.google.com/maps/place/Rolki+-+Sushi+to+go/data=!4m7!3m6!1s0x46fd75c83a000d45:0xb813775a8bb449c5!8m2!3d54.3525533!4d18.5136145!16s%2Fg%2F11r0hmbbf9!19sChIJRQ0AOsh1_UYRxUm0i1p3E7g?authuser=0&hl=en&rclk=1
54.3584332,18.4916702,restaurant,Żabka,https://www.google.com/maps/place/%C5%BBabka/data=!4m7!3m6!1s0x46fd758c6dc8a161:0xe67e0da4af4cfb60!8m2!3d54.3584332!4d18.4916702!16s%2Fg%2F11fzf6n07d!19sChIJYaHIbYx1_UYRYPtMr6QNfuY?authuser=0&hl=en&rclk=1
54.3519185,18.5251339,restaurant,Mąka i Oliwa,https://www.google.com/maps/place/M%C4%85ka+i+Oliwa/data=!4m7!3m6!1s0x46fd75d9c04c0c37:0xb127518e3cbeb3e5!8m2!3d54.3519185!4d18.5251339!16s%2Fg%2F11rj4zc11_!19sChIJNwxMwNl1_UYR5bO-PI5RJ7E?authuser=0&hl=en&rclk=1
54.3519081,18.5252531,restaurant,Republika Burgera,https://www.google.com/maps/place/Republika+Burgera/data=!4m7!3m6!1s0x46fd75ef39ccd933:0xf9141ec3531a886b!8m2!3d54.3519081!4d18.5252531!16s%2Fg%2F11sfqmm5h5!19sChIJM9nMOe91_UYRa4gaU8MeFPk?authuser=0&hl=en&rclk=1
54.3516543,18.5254383,restaurant,Bistro Polskie,https://www.google.com/maps/place/Bistro+Polskie/data=!4m7!3m6!1s0x46fd75a0158a13ad:0xf89e1a3b5ca89be8!8m2!3d54.3516543!4d18.5254383!16s%2Fg%2F11hn8yxy36!19sChIJrROKFaB1_UYR6JuoXDsanvg?authuser=0&hl=en&rclk=1
54.3520451,18.524639,restaurant,BERLIN DÖNER KEBAP,https://www.google.com/maps/place/BERLIN+D%C3%96NER+KEBAP/data=!4m7!3m6!1s0x46fd74db6afd25eb:0x783ade67cbcb2a2a!8m2!3d54.3520451!4d18.524639!16s%2Fg%2F1hc3lz7z0!19sChIJ6yX9att0_UYRKirLy2feOng?authuser=0&hl=en&rclk=1
54.3513704,18.5499701,restaurant,Susharnia Park,https://www.google.com/maps/place/Susharnia+Park/data=!4m7!3m6!1s0x46fd7582a080d9c5:0x5ee49e517146d96d!8m2!3d54.3513704!4d18.5499701!16s%2Fg%2F11tf97xcm6!19sChIJxdmAoIJ1_UYRbdlGcVGe5F4?authuser=0&hl=en&rclk=1
54.3513411,18.5504266,restaurant,Siesta kitchen&cocktailbar,https://www.google.com/maps/place/Siesta+kitchen%26cocktailbar/data=!4m7!3m6!1s0x46fd75500b564049:0x96dfed3d06fbd20d!8m2!3d54.3513411!4d18.5504266!16s%2Fg%2F11s61fj5xt!19sChIJSUBWC1B1_UYRDdL7Bj3t35Y?authuser=0&hl=en&rclk=1
54.3556776,18.5765216,restaurant,Widziały Gały,https://www.google.com/maps/place/Widzia%C5%82y+Ga%C5%82y/data=!4m7!3m6!1s0x46fd75316770412d:0xc720a58141bc0318!8m2!3d54.3556776!4d18.5765216!16s%2Fg%2F11s84l745x!19sChIJLUFwZzF1_UYRGAO8QYGlIMc?authuser=0&hl=en&rclk=1
54.3507949,18.5567189,restaurant,REDNEK Pulled Pork & Beef Burgers,https://www.google.com/maps/place/REDNEK+Pulled+Pork+%26+Beef+Burgers/data=!4m7!3m6!1s0x46fd73ac3b984415:0x2ed108d9c6686c6b!8m2!3d54.3507949!4d18.5567189!16s%2Fg%2F11fnj3kpxw!19sChIJFUSYO6xz_UYRa2xoxtkI0S4?authuser=0&hl=en&rclk=1
54.3600202,18.5899896,restaurant,Restauracja Di Amadeo,https://www.google.com/maps/place/Restauracja+Di+Amadeo/data=!4m7!3m6!1s0x46fd75befc9a4a99:0x733bd3726dc5a407!8m2!3d54.3600202!4d18.5899896!16s%2Fg%2F11q3zlkwhh!19sChIJmUqa_L51_UYRB6TFbXLTO3M?authuser=0&hl=en&rclk=1
54.3581357,18.587858,restaurant,Restauracja Przepis na,https://www.google.com/maps/place/Restauracja+Przepis+na/data=!4m7!3m6!1s0x46fd75d15244a29d:0x4c4a9abfc6fe7544!8m2!3d54.3581357!4d18.587858!16s%2Fg%2F11gpnclpq0!19sChIJnaJEUtF1_UYRRHX-xr-aSkw?authuser=0&hl=en&rclk=1
54.357196,18.5850649,restaurant,Easybar,https://www.google.com/maps/place/Easybar/data=!4m7!3m6!1s0x46fd745e13c33d15:0x2945b0813b7d61de!8m2!3d54.357196!4d18.5850649!16s%2Fg%2F11c2r8k78j!19sChIJFT3DE150_UYR3mF9O4GwRSk?authuser=0&hl=en&rclk=1
54.3527227,18.5939346,restaurant,North Fish,https://www.google.com/maps/place/North+Fish/data=!4m7!3m6!1s0x46fd759051dbe941:0x5702a394bb18a91c!8m2!3d54.3527227!4d18.5939346!16s%2Fg%2F11f6g0rgw_!19sChIJQenbUZB1_UYRHKkYu5SjAlc?authuser=0&hl=en&rclk=1
54.3559713,18.6133406,restaurant,Bufet - śniadania i obiady,https://www.google.com/maps/place/Bufet+-+%C5%9Bniadania+i+obiady/data=!4m7!3m6!1s0x46fd747e75d820b1:0x94d02ca8139a33f0!8m2!3d54.3559713!4d18.6133406!16s%2Fg%2F11f1n61grg!19sChIJsSDYdX50_UYR8DOaE6gs0JQ?authuser=0&hl=en&rclk=1
54.3542709,18.6447104,restaurant,Browar PG4,https://www.google.com/maps/place/Browar+PG4/data=!4m7!3m6!1s0x46fd737646df6a0b:0x834ad0414699e18b!8m2!3d54.3542709!4d18.6447104!16s%2Fg%2F11f106xqcf!19sChIJC2rfRnZz_UYRi-GZRkHQSoM?authuser=0&hl=en&rclk=1
54.3624356,18.6369866,restaurant,Winne Grono,https://www.google.com/maps/place/Winne+Grono/data=!4m7!3m6!1s0x46fd737b77a292e9:0x249b740b7f222137!8m2!3d54.3624356!4d18.6369866!16s%2Fg%2F11ckr555rc!19sChIJ6ZKid3tz_UYRNyEifwt0myQ?authuser=0&hl=en&rclk=1
54.3535767,18.6586159,restaurant,Restauracja Mercato,https://www.google.com/maps/place/Restauracja+Mercato/data=!4m7!3m6!1s0x46fd730b1f04341f:0xe84770482d9339a8!8m2!3d54.3535767!4d18.6586159!16s%2Fg%2F11h03y_tb!19sChIJHzQEHwtz_UYRqDmTLUhwR-g?authuser=0&hl=en&rclk=1
54.3497923,18.6603263,restaurant,Restauracja Bazar,https://www.google.com/maps/place/Restauracja+Bazar/data=!4m7!3m6!1s0x46fd73a0a3b827ef:0x99f40d14334f16f0!8m2!3d54.3497923!4d18.6603263!16s%2Fg%2F11cmtv1cp1!19sChIJ7ye4o6Bz_UYR8BZPMxQN9Jk?authuser=0&hl=en&rclk=1
54.3483423,18.6545189,restaurant,Mojito Cafe & Restaurant,https://www.google.com/maps/place/Mojito+Cafe+%26+Restaurant/data=!4m7!3m6!1s0x46fd73a04aa41505:0xe776f490a4450a4b!8m2!3d54.3483423!4d18.6545189!16s%2Fg%2F11btxcypkl!19sChIJBRWkSqBz_UYRSwpFpJD0duc?authuser=0&hl=en&rclk=1
54.3437323,18.8316954,restaurant,Restauracja Bursztynowa,https://www.google.com/maps/place/Restauracja+Bursztynowa/data=!4m7!3m6!1s0x46fd6ce05e63d245:0x4fde64b493cd3fe6!8m2!3d54.3437323!4d18.8316954!16s%2Fg%2F1tdb2zg2!19sChIJRdJjXuBs_UYR5j_Nk7Rk3k8?authuser=0&hl=en&rclk=1
54.3452004,18.8287104,restaurant,Zatoka Restauracja & Pizzeria,https://www.google.com/maps/place/Zatoka+Restauracja+%26+Pizzeria/data=!4m7!3m6!1s0x46fd6ce01d6b0a4f:0x92937ede043a2f05!8m2!3d54.3452004!4d18.8287104!16s%2Fg%2F11g9ny9jq8!19sChIJTwprHeBs_UYRBS86BN5-k5I?authuser=0&hl=en&rclk=1
54.3457845,18.4559788,restaurant,La Rosa Kuchnia Włoska,https://www.google.com/maps/place/La+Rosa+Kuchnia+W%C5%82oska/data=!4m7!3m6!1s0x46fd9fb628ea258b:0x7c382a9bfe92a0e4!8m2!3d54.3457845!4d18.4559788!16s%2Fg%2F11t7vr7g_q!19sChIJiyXqKLaf_UYR5KCS_psqOHw?authuser=0&hl=en&rclk=1
54.3538859,18.4204887,restaurant,Nazar Kebab,https://www.google.com/maps/place/Nazar+Kebab/data=!4m7!3m6!1s0x46fd9e7b34b392f9:0xbbc4a52f182123ce!8m2!3d54.3538859!4d18.4204887!16s%2Fg%2F1hc3wtghg!19sChIJ-ZKzNHue_UYRziMhGC-lxLs?authuser=0&hl=en&rclk=1
54.345898,18.454248,restaurant,Red Box Kebab Leźno,https://www.google.com/maps/place/Red+Box+Kebab+Le%C5%BAno/data=!4m7!3m6!1s0x46fd9f62ef158f5d:0x66de80e7d2c1e74b!8m2!3d54.345898!4d18.454248!16s%2Fg%2F11rjv7f7ng!19sChIJXY8V72Kf_UYRS-fB0ueA3mY?authuser=0&hl=en&rclk=1
54.3445549,18.4338074,restaurant,Lezno Palace Hotel,https://www.google.com/maps/place/Lezno+Palace+Hotel/data=!4m10!3m9!1s0x46fd9e0be334c8cb:0x9a0a71652efa6284!5m2!4m1!1i2!8m2!3d54.3445549!4d18.4338074!16s%2Fg%2F1tfphhnc!19sChIJy8g04wue_UYRhGL6LmVxCpo?authuser=0&hl=en&rclk=1
54.3937674,18.4050057,restaurant,Stacja Sushi,https://www.google.com/maps/place/Stacja+Sushi/data=!4m7!3m6!1s0x46fd9f428491bd67:0xc7c6ff1605821356!8m2!3d54.3937674!4d18.4050057!16s%2Fg%2F11h31zkqh1!19sChIJZ72RhEKf_UYRVhOCBRb_xsc?authuser=0&hl=en&rclk=1
54.3511458,18.6498512,restaurant,Restauracja Zeppelin,https://www.google.com/maps/place/Restauracja+Zeppelin/data=!4m7!3m6!1s0x46fd739e3aaa8d2d:0x8e90a1745da3aa7b!8m2!3d54.3511458!4d18.6498512!16s%2Fg%2F1tdcq6jb!19sChIJLY2qOp5z_UYRe6qjXXShkI4?authuser=0&hl=en&rclk=1
54.342185,18.5101375,restaurant,MOZZARELLA,https://www.google.com/maps/place/MOZZARELLA/data=!4m7!3m6!1s0x46fd7563ec295a5b:0xa7d48a8fe1160aeb!8m2!3d54.342185!4d18.5101375!16s%2Fg%2F11s87r12px!19sChIJW1op7GN1_UYR6woW4Y-K1Kc?authuser=0&hl=en&rclk=1
54.3495998,18.5347699,restaurant,SushiRola,https://www.google.com/maps/place/SushiRola/data=!4m7!3m6!1s0x46fd75051503789d:0x86fedfdb6292f039!8m2!3d54.3495998!4d18.5347699!16s%2Fg%2F11f9fnt62b!19sChIJnXgDFQV1_UYROfCSYtvf_oY?authuser=0&hl=en&rclk=1
54.350234,18.5342853,restaurant,„Bardzo Włosko!” Pizza i Wino,https://www.google.com/maps/place/%E2%80%9EBardzo+W%C5%82osko!%E2%80%9D+Pizza+i+Wino/data=!4m7!3m6!1s0x46fd75af9bf80bdf:0x8dbfa7967d75e30!8m2!3d54.350234!4d18.5342853!16s%2Fg%2F11l8p44y0k!19sChIJ3wv4m691_UYRMF7XZ3n62wg?authuser=0&hl=en&rclk=1
54.3490285,18.5667859,restaurant,da Mario pizza e fritti,https://www.google.com/maps/place/da+Mario+pizza+e+fritti/data=!4m7!3m6!1s0x46fd7500864bd28d:0x18eef4bc24684c48!8m2!3d54.3490285!4d18.5667859!16s%2Fg%2F11jnxxvfjy!19sChIJjdJLhgB1_UYRSExoJLz07hg?authuser=0&hl=en&rclk=1
54.3394005,18.5593672,restaurant,Plaża Piekarza,https://www.google.com/maps/place/Pla%C5%BCa+Piekarza/data=!4m7!3m6!1s0x46fd7438e08465f1:0x43fe93d49d124a26!8m2!3d54.3394005!4d18.5593672!16s%2Fg%2F11f_zn1fl7!19sChIJ8WWE4Dh0_UYRJkoSndST_kM?authuser=0&hl=en&rclk=1
54.3506132,18.5870893,restaurant,Wokbar - Asian Street Food,https://www.google.com/maps/place/Wokbar+-+Asian+Street+Food/data=!4m7!3m6!1s0x46fd750bef748b99:0xbd976000b2b4ce7d!8m2!3d54.3506132!4d18.5870893!16s%2Fg%2F11rrprv3f8!19sChIJmYt07wt1_UYRfc60sgBgl70?authuser=0&hl=en&rclk=1
54.3512016,18.5878241,restaurant,TOP GUN Grill Bar,https://www.google.com/maps/place/TOP+GUN+Grill+Bar/data=!4m7!3m6!1s0x46fd75ce8693c495:0x2e69c4082d872aeb!8m2!3d54.3512016!4d18.5878241!16s%2Fg%2F11j3x0f2qc!19sChIJlcSThs51_UYR6yqHLQjEaS4?authuser=0&hl=en&rclk=1
54.3501727,18.6446715,restaurant,Billy's American Restaurants Forum Gdańsk,https://www.google.com/maps/place/Billy's+American+Restaurants+Forum+Gda%C5%84sk/data=!4m7!3m6!1s0x46fd73603b12d8f7:0x9ff7468ea54531e8!8m2!3d54.3501727!4d18.6446715!16s%2Fg%2F11ghq3ptbp!19sChIJ99gSO2Bz_UYR6DFFpY5G958?authuser=0&hl=en&rclk=1
54.349346,18.643527,restaurant,North Fish,https://www.google.com/maps/place/North+Fish/data=!4m7!3m6!1s0x46fd73dd102c973b:0xa547e1483d084328!8m2!3d54.349346!4d18.643527!16s%2Fg%2F11f654db9c!19sChIJO5csEN1z_UYRKEMIPUjhR6U?authuser=0&hl=en&rclk=1
54.349346,18.643527,restaurant,LEPIONE C.H. Forum Gdańsk,https://www.google.com/maps/place/LEPIONE+C.H.+Forum+Gda%C5%84sk/data=!4m7!3m6!1s0x46fd73867ac0c7e7:0xe0c2ccc310ac97e9!8m2!3d54.349346!4d18.643527!16s%2Fg%2F11tj38px37!19sChIJ58fAeoZz_UYR6ZesEMPMwuA?authuser=0&hl=en&rclk=1
54.342905,18.694006,restaurant,Wild Bean Cafe,https://www.google.com/maps/place/Wild+Bean+Cafe/data=!4m7!3m6!1s0x46fd72566fdefedd:0xd8e1fe46ce6f2c39!8m2!3d54.342905!4d18.694006!16s%2Fg%2F11j8ldk31t!19sChIJ3f7eb1Zy_UYROSxvzkb-4dg?authuser=0&hl=en&rclk=1
54.3460807,18.6641635,restaurant,Papieroovka Restaurant,https://www.google.com/maps/place/Papieroovka+Restaurant/data=!4m7!3m6!1s0x46fd73a65fd02385:0x713de23d6019c3a9!8m2!3d54.3460807!4d18.6641635!16s%2Fg%2F11c56r2xsk!19sChIJhSPQX6Zz_UYRqcMZYD3iPXE?authuser=0&hl=en&rclk=1
54.3508557,18.7919161,restaurant,Pizza Plus on the Island,https://www.google.com/maps/place/Pizza+Plus+on+the+Island/data=!4m7!3m6!1s0x46fd6dcadd8bca63:0x696035962bc1b1ef!8m2!3d54.3508557!4d18.7919161!16s%2Fg%2F11h477tbgw!19sChIJY8qL3cpt_UYR77HBK5Y1YGk?authuser=0&hl=en&rclk=1
54.3442,18.827347,restaurant,Tawerna Delfin,https://www.google.com/maps/place/Tawerna+Delfin/data=!4m7!3m6!1s0x46fd6d1fd991939f:0xd80bd96a1719236!8m2!3d54.3442!4d18.827347!16s%2Fg%2F11zsnpzq0!19sChIJn5OR2R9t_UYRNpJxoZa9gA0?authuser=0&hl=en&rclk=1
54.337381,18.8235601,restaurant,Bałtycka Biesiada,https://www.google.com/maps/place/Ba%C5%82tycka+Biesiada/data=!4m7!3m6!1s0x46fd6def704769ff:0x1143e71395d3e92!8m2!3d54.337381!4d18.8235601!16s%2Fg%2F11jq_xg38d!19sChIJ_2lHcO9t_UYRkj5dOXE-FAE?authuser=0&hl=en&rclk=1
54.345212,18.8288578,restaurant,Tawerna Pod Żaglami,https://www.google.com/maps/place/Tawerna+Pod+%C5%BBaglami/data=!4m7!3m6!1s0x46fd6ce0032f9def:0xdb721133a5c15fa8!8m2!3d54.345212!4d18.8288578!16s%2Fg%2F11cnb3r9v_!19sChIJ750vA-Bs_UYRqF_BpTMRcts?authuser=0&hl=en&rclk=1
54.343908,18.827689,restaurant,Restauracja DUO,https://www.google.com/maps/place/Restauracja+DUO/data=!4m7!3m6!1s0x46fd6d4aaa36a76b:0x722fa1e80960d99b!8m2!3d54.343908!4d18.827689!16s%2Fg%2F11sy_79ch2!19sChIJa6c2qkpt_UYRm9lgCeihL3I?authuser=0&hl=en&rclk=1
54.3460155,18.8321051,restaurant,Ryba w Sieci,https://www.google.com/maps/place/Ryba+w+Sieci/data=!4m7!3m6!1s0x46fd6d2270a3497f:0x998d0e34e4758447!8m2!3d54.3460155!4d18.8321051!16s%2Fg%2F11g1q1d305!19sChIJf0mjcCJt_UYRR4R15DQOjZk?authuser=0&hl=en&rclk=1
54.344158,18.830226,restaurant,Żabka,https://www.google.com/maps/place/%C5%BBabka/data=!4m7!3m6!1s0x46fd6d80c0c002cf:0x3990a4098d94ba51!8m2!3d54.344158!4d18.830226!16s%2Fg%2F11gk8v28cj!19sChIJzwLAwIBt_UYRUbqUjQmkkDk?authuser=0&hl=en&rclk=1
54.3511096,18.8337861,restaurant,Bar Leśna Wyspa,https://www.google.com/maps/place/Bar+Le%C5%9Bna+Wyspa/data=!4m7!3m6!1s0x46fd6df1a4a1ff6b:0xd426cb4facca1bbc!8m2!3d54.3511096!4d18.8337861!16s%2Fg%2F11g0zxkgk3!19sChIJa_-hpPFt_UYRvBvKrE_LJtQ?authuser=0&hl=en&rclk=1
54.3264976,18.5357936,restaurant,Monte Carlo Pizza i Wino,https://www.google.com/maps/place/Monte+Carlo+Pizza+i+Wino/data=!4m7!3m6!1s0x46fd742c9a1b5e8d:0x1eb8a0897a1971aa!8m2!3d54.3264976!4d18.5357936!16s%2Fg%2F11b8t6jw_n!19sChIJjV4bmix0_UYRqnEZeomguB4?authuser=0&hl=en&rclk=1
54.3391236,18.555493,restaurant,Restauracja Olimp,https://www.google.com/maps/place/Restauracja+Olimp/data=!4m7!3m6!1s0x46fd751d3102a935:0xf1c36aeebfac070b!8m2!3d54.3391236!4d18.555493!16s%2Fg%2F11h036586h!19sChIJNakCMR11_UYRCwesv-5qw_E?authuser=0&hl=en&rclk=1
54.339605,18.563658,restaurant,Craft Burger,https://www.google.com/maps/place/Craft+Burger/data=!4m7!3m6!1s0x46fd7503810dd8db:0x675c04a8d14acc38!8m2!3d54.339605!4d18.563658!16s%2Fg%2F11s5hl6395!19sChIJ29gNgQN1_UYROMxK0agEXGc?authuser=0&hl=en&rclk=1
54.3381021,18.5872978,restaurant,POLLY'S BURGER,https://www.google.com/maps/place/POLLY'S+BURGER/data=!4m7!3m6!1s0x46fd75e049314617:0xdecb8a5ab84b60d!8m2!3d54.3381021!4d18.5872978!16s%2Fg%2F11ptv0jl2h!19sChIJF0YxSeB1_UYRDbaEq6W47A0?authuser=0&hl=en&rclk=1
54.3380425,18.5837546,restaurant,Unomomento,https://www.google.com/maps/place/Unomomento/data=!4m7!3m6!1s0x46fd75d846a027c1:0x63161cd648a33aab!8m2!3d54.3380425!4d18.5837546!16s%2Fg%2F11ryhd56p_!19sChIJwSegRth1_UYRqzqjSNYcFmM?authuser=0&hl=en&rclk=1
54.3296619,18.6052576,restaurant,ChoNoTu BURGER,https://www.google.com/maps/place/ChoNoTu+BURGER/data=!4m7!3m6!1s0x46fd73f613eca1af:0x9b835902b4743677!8m2!3d54.3296619!4d18.6052576!16s%2Fg%2F11dfvk03l9!19sChIJr6HsE_Zz_UYRdzZ0tAJZg5s?authuser=0&hl=en&rclk=1
54.348413,18.6128423,restaurant,Buffalo Burger,https://www.google.com/maps/place/Buffalo+Burger/data=!4m7!3m6!1s0x46fd74784c2b7a87:0x3b99d12bec2abb7f!8m2!3d54.348413!4d18.6128423!16s%2Fg%2F11fkmz21ts!19sChIJh3orTHh0_UYRf7sq7CvRmTs?authuser=0&hl=en&rclk=1
54.3377778,18.6075,restaurant,Restauracja Bazylia,https://www.google.com/maps/place/Restauracja+Bazylia/data=!4m7!3m6!1s0x46fd74756e7e082d:0x64b46316e97f2d05!8m2!3d54.3377778!4d18.6075!16s%2Fg%2F1pty553nf!19sChIJLQh-bnV0_UYRBS1_6RZjtGQ?authuser=0&hl=en&rclk=1
54.3374035,18.6127596,restaurant,Papudajnia / Muller Empire Aven,https://www.google.com/maps/place/Papudajnia+%2F+Muller+Empire+Aven/data=!4m7!3m6!1s0x46fd73ee975b7c4f:0x9eb50c8316dddf84!8m2!3d54.3374035!4d18.6127596!16s%2Fg%2F11rht6kz0x!19sChIJT3xbl-5z_UYRhN_dFoMMtZ4?authuser=0&hl=en&rclk=1
54.3377621,18.6029078,restaurant,Wild Bean Cafe,https://www.google.com/maps/place/Wild+Bean+Cafe/data=!4m7!3m6!1s0x46fd7474c3864903:0xe6847b5de6af9d70!8m2!3d54.3377621!4d18.6029078!16s%2Fg%2F11f8kpw5m6!19sChIJA0mGw3R0_UYRcJ2v5l17hOY?authuser=0&hl=en&rclk=1
54.332432,18.583249,restaurant,Kobo Burger,https://www.google.com/maps/place/Kobo+Burger/data=!4m7!3m6!1s0x46fd7411a75aaaa9:0x7b039df07fa63356!8m2!3d54.332432!4d18.583249!16s%2Fg%2F11g6bw30p9!19sChIJqapapxF0_UYRVjOmf_CdA3s?authuser=0&hl=en&rclk=1
54.3280226,18.6147066,restaurant,ZAUFAJNI Food & Cocktail Bar,https://www.google.com/maps/place/ZAUFAJNI+Food+%26+Cocktail+Bar/data=!4m7!3m6!1s0x46fd73f1744bbc43:0x7ee8ed2b40fabaae!8m2!3d54.3280226!4d18.6147066!16s%2Fg%2F11g86m6x8j!19sChIJQ7xLdPFz_UYRrrr6QCvt6H4?authuser=0&hl=en&rclk=1
54.3472966,18.6567509,restaurant,Restauracja Chmielna by Grzegorz Labuda,https://www.google.com/maps/place/Restauracja+Chmielna+by+Grzegorz+Labuda/data=!4m7!3m6!1s0x46fd73f03b9ceaf1:0x8ab95f556af51cbe!8m2!3d54.3472966!4d18.6567509!16s%2Fg%2F11fqj_ffy3!19sChIJ8eqcO_Bz_UYRvhz1alVfuYo?authuser=0&hl=en&rclk=1
54.3478502,18.6550497,restaurant,T-bone Steak House Restaurant,https://www.google.com/maps/place/T-bone+Steak+House+Restaurant/data=!4m7!3m6!1s0x46fd73a1b18f8dd5:0x38f800316e92c4d9!8m2!3d54.3478502!4d18.6550497!16s%2Fg%2F11cmd90k59!19sChIJ1Y2PsaFz_UYR2cSSbjEA-Dg?authuser=0&hl=en&rclk=1
54.3497332,18.6539736,restaurant,Mariacka 1 Food & Wine,https://www.google.com/maps/place/Mariacka+1+Food+%26+Wine/data=!4m7!3m6!1s0x46fd739dd885c783:0xf950f38818166aa9!8m2!3d54.3497332!4d18.6539736!16s%2Fg%2F11nmztr71x!19sChIJg8eF2J1z_UYRqWoWGIjzUPk?authuser=0&hl=en&rclk=1
54.3205556,18.5244443,restaurant,Tabun,https://www.google.com/maps/place/Tabun/data=!4m10!3m9!1s0x46fd73a0326919e5:0xbc21ab3f6445e91e!5m2!4m1!1i2!8m2!3d54.3205556!4d18.5244443!16s%2Fg%2F1tpb9p3x!19sChIJ5RlpMqBz_UYRHulFZD-rIbw?authuser=0&hl=en&rclk=1
54.3191701,18.5007458,restaurant,Restauracja Rodzinna,https://www.google.com/maps/place/Restauracja+Rodzinna/data=!4m7!3m6!1s0x46fd7671d88f9141:0xab8907e3cdf6c25f!8m2!3d54.3191701!4d18.5007458!16s%2Fg%2F11h7zf7127!19sChIJQZGP2HF2_UYRX8L2zeMHias?authuser=0&hl=en&rclk=1
54.320262,18.5082939,restaurant,KARCZMA SWOJAK,https://www.google.com/maps/place/KARCZMA+SWOJAK/data=!4m7!3m6!1s0x46fd767aff22f95d:0xd875f18866f1941!8m2!3d54.320262!4d18.5082939!16s%2Fg%2F11b6hykr7f!19sChIJXfki_3p2_UYRQRlvhhhfhw0?authuser=0&hl=en&rclk=1
54.3205556,18.5244443,restaurant,Tabun,https://www.google.com/maps/place/Tabun/data=!4m7!3m6!1s0x46fd73a0326919e5:0xbc21ab3f6445e91e!8m2!3d54.3205556!4d18.5244443!16s%2Fg%2F1tpb9p3x!19sChIJ5RlpMqBz_UYRHulFZD-rIbw?authuser=0&hl=en&rclk=1
54.3241224,18.5482788,restaurant,Wild Bean Cafe,https://www.google.com/maps/place/Wild+Bean+Cafe/data=!4m7!3m6!1s0x46fd742795443959:0x65d17b069d76a180!8m2!3d54.3241224!4d18.5482788!16s%2Fg%2F11ghp3dm5k!19sChIJWTlElSd0_UYRgKF2nQZ70WU?authuser=0&hl=en&rclk=1
54.3203524,18.5514108,restaurant,Beijing Bar,https://www.google.com/maps/place/Beijing+Bar/data=!4m7!3m6!1s0x46fd778f33b8d18b:0x3a8bff95f519a7e!8m2!3d54.3203524!4d18.5514108!16s%2Fg%2F11hh7lds2y!19sChIJi9G4M493_UYRfppRX_m_qAM?authuser=0&hl=en&rclk=1
54.3235739,18.5560224,restaurant,Suszkove Love,https://www.google.com/maps/place/Suszkove+Love/data=!4m7!3m6!1s0x46fd755863280367:0x4d11ca94626a138a!8m2!3d54.3235739!4d18.5560224!16s%2Fg%2F11sm7y5pft!19sChIJZwMoY1h1_UYRihNqYpTKEU0?authuser=0&hl=en&rclk=1
54.3267404,18.5623425,restaurant,cacko pizza,https://www.google.com/maps/place/cacko+pizza/data=!4m7!3m6!1s0x46fd75324e751925:0xead42eb3e7dc1df3!8m2!3d54.3267404!4d18.5623425!16s%2Fg%2F11tbw8r867!19sChIJJRl1TjJ1_UYR8x3c57Mu1Oo?authuser=0&hl=en&rclk=1
54.3220532,18.5613502,restaurant,Dolce Pomodoro,https://www.google.com/maps/place/Dolce+Pomodoro/data=!4m7!3m6!1s0x46fd75ca8240eadb:0x1a89e8094f28c910!8m2!3d54.3220532!4d18.5613502!16s%2Fg%2F11jj_yx4l5!19sChIJ2-pAgsp1_UYREMkoTwnoiRo?authuser=0&hl=en&rclk=1
54.3285965,18.5827695,restaurant,Misja Burrito,https://www.google.com/maps/place/Misja+Burrito/data=!4m7!3m6!1s0x46fd755d5a541a0f:0x484815623ecf5fd6!8m2!3d54.3285965!4d18.5827695!16s%2Fg%2F11syx4_3hy!19sChIJDxpUWl11_UYR1l_PPmIVSEg?authuser=0&hl=en&rclk=1
54.3312241,18.5654093,restaurant,Bistro Jabłoniowa Cafe,https://www.google.com/maps/place/Bistro+Jab%C5%82oniowa+Cafe/data=!4m7!3m6!1s0x46fd7422d2fac8ad:0xa353007a9e7a86d!8m2!3d54.3312241!4d18.5654093!16s%2Fg%2F11fy95848d!19sChIJrcj60iJ0_UYRbajnqQcwNQo?authuser=0&hl=en&rclk=1
54.3193037,18.5936318,restaurant,Szamot Pizza,https://www.google.com/maps/place/Szamot+Pizza/data=!4m7!3m6!1s0x46fd75d85e96af07:0xa697b563f6ac535d!8m2!3d54.3193037!4d18.5936318!16s%2Fg%2F11ftkx94tj!19sChIJB6-WXth1_UYRXVOs9mO1l6Y?authuser=0&hl=en&rclk=1
54.3280314,18.5818006,restaurant,Brilliant Sushi,https://www.google.com/maps/place/Brilliant+Sushi/data=!4m7!3m6!1s0x46fd75a09191f2f1:0x254f485e5de59b8a!8m2!3d54.3280314!4d18.5818006!16s%2Fg%2F11rtmz89jw!19sChIJ8fKRkaB1_UYRipvlXV5ITyU?authuser=0&hl=en&rclk=1
54.3278404,18.6147793,restaurant,Raban - Asian Street Food,https://www.google.com/maps/place/Raban+-+Asian+Street+Food/data=!4m7!3m6!1s0x46fd73b3e28351fb:0xcba9d6246bb2e7f9!8m2!3d54.3278404!4d18.6147793!16s%2Fg%2F11h2l8jv_0!19sChIJ-1GD4rNz_UYR-eeyayTWqcs?authuser=0&hl=en&rclk=1
54.3260095,18.6104785,restaurant,Asia Hoanmy,https://www.google.com/maps/place/Asia+Hoanmy/data=!4m7!3m6!1s0x46fd73fe60351fc3:0x4afeafb55fd8be0d!8m2!3d54.3260095!4d18.6104785!16s%2Fg%2F11h88td1r9!19sChIJwx81YP5z_UYRDb7YX7Wv_ko?authuser=0&hl=en&rclk=1
54.3368966,18.6375343,restaurant,Grill Bar Gdańsk,https://www.google.com/maps/place/Grill+Bar+Gda%C5%84sk/data=!4m7!3m6!1s0x46fd7394200a2ebf:0x7f8e7784100ec58c!8m2!3d54.3368966!4d18.6375343!16s%2Fg%2F11qnk7ymkw!19sChIJvy4KIJRz_UYRjMUOEIR3jn8?authuser=0&hl=en&rclk=1
54.3336359,18.6160648,restaurant,Sushi Shama,https://www.google.com/maps/place/Sushi+Shama/data=!4m7!3m6!1s0x46fd73c4b02f622b:0x610d82963c08d791!8m2!3d54.3336359!4d18.6160648!16s%2Fg%2F11rjkbwx9k!19sChIJK2IvsMRz_UYRkdcIPJaCDWE?authuser=0&hl=en&rclk=1
54.3408722,18.6589017,restaurant,Stara Kuchnia Restauracja,https://www.google.com/maps/place/Stara+Kuchnia+Restauracja/data=!4m7!3m6!1s0x46fd731f87c342dd:0x711fb052f624496e!8m2!3d54.3408722!4d18.6589017!16s%2Fg%2F11pygn7dkj!19sChIJ3ULDhx9z_UYRbkkk9lKwH3E?authuser=0&hl=en&rclk=1
54.343355,18.662228,restaurant,Przyganiał Kocioł Wokowi,https://www.google.com/maps/place/Przygania%C5%82+Kocio%C5%82+Wokowi/data=!4m7!3m6!1s0x46fd73976a888459:0x335f43a7221dc34b!8m2!3d54.343355!4d18.662228!16s%2Fg%2F11h1mj04f7!19sChIJWYSIapdz_UYRS8MdIqdDXzM?authuser=0&hl=en&rclk=1
54.3203524,18.5514108,restaurant,Mgazin,https://www.google.com/maps/place/Mgazin/data=!4m7!3m6!1s0x46fd774309315929:0x4de277782adda4d8!8m2!3d54.3203524!4d18.5514108!16s%2Fg%2F11g_rmrrhm!19sChIJKVkxCUN3_UYR2KTdKnh34k0?authuser=0&hl=en&rclk=1
54.3002815,18.5332356,restaurant,Churrascaria Pousada Kumaki,https://www.google.com/maps/place/Churrascaria+Pousada+Kumaki/data=!4m7!3m6!1s0x46fd76ed19a3ed9f:0x3678945eedd61957!8m2!3d54.3002815!4d18.5332356!16s%2Fg%2F1ptxnzms7!19sChIJn-2jGe12_UYRVxnW7V6UeDY?authuser=0&hl=en&rclk=1
54.3111806,18.5504151,restaurant,Good FOOD,https://www.google.com/maps/place/Good+FOOD/data=!4m7!3m6!1s0x46fd76978085774b:0x8958af45e6138b46!8m2!3d54.3111806!4d18.5504151!16s%2Fg%2F11g6xp7f_r!19sChIJS3eFgJd2_UYRRosT5kWvWIk?authuser=0&hl=en&rclk=1
54.3110993,18.5674068,restaurant,Snack Bar Burger,https://www.google.com/maps/place/Snack+Bar+Burger/data=!4m7!3m6!1s0x46fd777cde0c5a53:0xda0111e1db1879c6!8m2!3d54.3110993!4d18.5674068!16s%2Fg%2F1hhl84247!19sChIJU1oM3nx3_UYRxnkY2-ERAdo?authuser=0&hl=en&rclk=1
54.3085605,18.5677609,restaurant,Pizzeria Olimp,https://www.google.com/maps/place/Pizzeria+Olimp/data=!4m7!3m6!1s0x46fd76a35476a003:0x740f02acb1a8af2e!8m2!3d54.3085605!4d18.5677609!16s%2Fg%2F1tgp8zk3!19sChIJA6B2VKN2_UYRLq-osawCD3Q?authuser=0&hl=en&rclk=1
54.317386,18.555478,restaurant,Pod Zegarem,https://www.google.com/maps/place/Pod+Zegarem/data=!4m7!3m6!1s0x46fd769f22837ba5:0x415c6dc64a684bcb!8m2!3d54.317386!4d18.555478!16s%2Fg%2F12hn7zg1f!19sChIJpXuDIp92_UYRy0toSsZtXEE?authuser=0&hl=en&rclk=1
54.3148868,18.5693546,restaurant,Lamh Kebab gdansk,https://www.google.com/maps/place/Lamh+Kebab+gdansk/data=!4m7!3m6!1s0x46fd77e4c78ac789:0xa544f85b60050073!8m2!3d54.3148868!4d18.5693546!16s%2Fg%2F11t89cr7nj!19sChIJiceKx-R3_UYRcwAFYFv4RKU?authuser=0&hl=en&rclk=1
54.3147542,18.5915129,restaurant,Porta via,https://www.google.com/maps/place/Porta+via/data=!4m7!3m6!1s0x46fd76aab84bd5d9:0x8f4d22de296fcc19!8m2!3d54.3147542!4d18.5915129!16s%2Fg%2F11g8lsvb8q!19sChIJ2dVLuKp2_UYRGcxvKd4iTY8?authuser=0&hl=en&rclk=1
54.3127922,18.5971743,restaurant,Pizzeria Serotonina,https://www.google.com/maps/place/Pizzeria+Serotonina/data=!4m7!3m6!1s0x46fd71f1ac407583:0x3e242dd37bf75841!8m2!3d54.3127922!4d18.5971743!16s%2Fg%2F11fvp_kd3s!19sChIJg3VArPFx_UYRQVj3e9MtJD4?authuser=0&hl=en&rclk=1
54.3142174,18.591369,restaurant,PEPE PIZZA,https://www.google.com/maps/place/PEPE+PIZZA/data=!4m7!3m6!1s0x46fd76aac8b9c115:0x901f4c321ef05ed4!8m2!3d54.3142174!4d18.591369!16s%2Fg%2F11b7rtyvsx!19sChIJFcG5yKp2_UYR1F7wHjJMH5A?authuser=0&hl=en&rclk=1
54.3251415,18.6056694,restaurant,Pizzeria Ujeścisko | Orunia Górna - Ideolo Pizza,https://www.google.com/maps/place/Pizzeria+Uje%C5%9Bcisko+%7C+Orunia+G%C3%B3rna+-+Ideolo+Pizza/data=!4m7!3m6!1s0x46fd73154136b413:0x3a4445cd5ea3c8b!8m2!3d54.3251415!4d18.6056694!16s%2Fg%2F11rxxzjy67!19sChIJE7Q2QRVz_UYRizzq1VxEpAM?authuser=0&hl=en&rclk=1
54.347553,18.658569,restaurant,PURO Hotel Gdańsk Stare Miasto,https://www.google.com/maps/place/PURO+Hotel+Gda%C5%84sk+Stare+Miasto/data=!4m10!3m9!1s0x46fd73a12045c0b3:0xcdc46389186d4f74!5m2!4m1!1i2!8m2!3d54.347553!4d18.658569!16s%2Fg%2F11b61qx6s0!19sChIJs8BFIKFz_UYRdE9tGIljxM0?authuser=0&hl=en&rclk=1
54.348854,18.65775,restaurant,"Radisson Hotel & Suites, Gdansk","https://www.google.com/maps/place/Radisson+Hotel+%26+Suites,+Gdansk/data=!4m10!3m9!1s0x46fd73a0f15eb6d3:0xdba2deee9bf2a3e9!5m2!4m1!1i2!8m2!3d54.348854!4d18.65775!16s%2Fg%2F11gxf7ggx0!19sChIJ07Ze8aBz_UYR6aPym-7eots?authuser=0&hl=en&rclk=1"
54.3044173,18.7601595,restaurant,Oberża Pod Lipami,https://www.google.com/maps/place/Ober%C5%BCa+Pod+Lipami/data=!4m10!3m9!1s0x46fd6debff6cd02d:0xcd2b9a8879932c75!5m2!4m1!1i2!8m2!3d54.3044173!4d18.7601595!16s%2Fg%2F1tgn3f6w!19sChIJLdBs_-tt_UYRdSyTeYiaK80?authuser=0&hl=en&rclk=1
54.2921043,18.5308153,restaurant,Jastny Dwór,https://www.google.com/maps/place/Jastny+Dw%C3%B3r/data=!4m7!3m6!1s0x46fd7791ef727a81:0x2493b4781518b314!8m2!3d54.2921043!4d18.5308153!16s%2Fg%2F11gh9p08kg!19sChIJgXpy75F3_UYRFLMYFXi0kyQ?authuser=0&hl=en&rclk=1
54.3036834,18.5452572,restaurant,Patrizio - Restauracja i Pizzeria,https://www.google.com/maps/place/Patrizio+-+Restauracja+i+Pizzeria/data=!4m7!3m6!1s0x46fd7695abb7a8d1:0xfdd851c5e4812b04!8m2!3d54.3036834!4d18.5452572!16s%2Fg%2F12qflfzv1!19sChIJ0ai3q5V2_UYRBCuB5MVR2P0?authuser=0&hl=en&rclk=1
54.2772411,18.5510473,restaurant,Chata nad Radunią,https://www.google.com/maps/place/Chata+nad+Raduni%C4%85/data=!4m7!3m6!1s0x46fd77ce8393299f:0x741bc45258bb78b!8m2!3d54.2772411!4d18.5510473!16s%2Fg%2F11q27kw_70!19sChIJnymTg853_UYRi7eLJUW8QQc?authuser=0&hl=en&rclk=1
54.3002404,18.5331985,restaurant,Vieira Café,https://www.google.com/maps/place/Vieira+Caf%C3%A9/data=!4m7!3m6!1s0x46fd7798dd810751:0x35784eefebc77696!8m2!3d54.3002404!4d18.5331985!16s%2Fg%2F11glx9wl4m!19sChIJUQeB3Zh3_UYRlnbH6-9OeDU?authuser=0&hl=en&rclk=1
54.2958983,18.5353765,restaurant,Pizzeria Donatello,https://www.google.com/maps/place/Pizzeria+Donatello/data=!4m7!3m6!1s0x46fd771cb9caf5f3:0x2f6561f38bf81242!8m2!3d54.2958983!4d18.5353765!16s%2Fg%2F11q3rrd963!19sChIJ8_XKuRx3_UYRQhL4i_NhZS8?authuser=0&hl=en&rclk=1
54.2958218,18.5353025,restaurant,Kebabisto - Kebab,https://www.google.com/maps/place/Kebabisto+-+Kebab/data=!4m7!3m6!1s0x46fd778905b6fabf:0x91e48601f6ce6374!8m2!3d54.2958218!4d18.5353025!16s%2Fg%2F11sprs_fdq!19sChIJv_q2BYl3_UYRdGPO9gGG5JE?authuser=0&hl=en&rclk=1
54.3023593,18.5763584,restaurant,Pizzeria Viva La Pizza,https://www.google.com/maps/place/Pizzeria+Viva+La+Pizza/data=!4m7!3m6!1s0x46fd76b3e8a23117:0xe8ab7848bd5dc81d!8m2!3d54.3023593!4d18.5763584!16s%2Fg%2F11byx7xyqn!19sChIJFzGi6LN2_UYRHchdvUh4q-g?authuser=0&hl=en&rclk=1
54.3092436,18.561922,restaurant,KFC,https://www.google.com/maps/place/KFC/data=!4m7!3m6!1s0x46fd76bb53e7e61d:0x62a406eb096bc308!8m2!3d54.3092436!4d18.561922!16s%2Fg%2F11gbxygf15!19sChIJHebnU7t2_UYRCMNrCesGpGI?authuser=0&hl=en&rclk=1
54.3153756,18.5718534,restaurant,Tymaks,https://www.google.com/maps/place/Tymaks/data=!4m7!3m6!1s0x46fd77d919d1b515:0x9bf9452189bc5ff1!8m2!3d54.3153756!4d18.5718534!16s%2Fg%2F11sbd7ybpv!19sChIJFbXRGdl3_UYR8V-8iSFF-Zs?authuser=0&hl=en&rclk=1
54.3014953,18.5782497,restaurant,5 smaków,https://www.google.com/maps/place/5+smak%C3%B3w/data=!4m7!3m6!1s0x46fd76b384122c39:0x4a2daf6fc428683b!8m2!3d54.3014953!4d18.5782497!16s%2Fg%2F119tpqsmz!19sChIJOSwShLN2_UYRO2goxG-vLUo?authuser=0&hl=en&rclk=1
54.3013784,18.5788062,restaurant,Hito Sushi,https://www.google.com/maps/place/Hito+Sushi/data=!4m7!3m6!1s0x46fd76b3825d01a1:0xce2ef121f94b8ed8!8m2!3d54.3013784!4d18.5788062!16s%2Fg%2F1hm2qptl8!19sChIJoQFdgrN2_UYR2I5L-SHxLs4?authuser=0&hl=en&rclk=1
54.3059306,18.5695278,restaurant,Kebab MARRAKESH Kowale,https://www.google.com/maps/place/Kebab+MARRAKESH+Kowale/data=!4m7!3m6!1s0x46fd77a015d132dd:0xe5396e43e348d78b!8m2!3d54.3059306!4d18.5695278!16s%2Fg%2F11rvjws7sk!19sChIJ3TLRFaB3_UYRi9dI40NuOeU?authuser=0&hl=en&rclk=1
54.306754,18.597259,restaurant,Żabka,https://www.google.com/maps/place/%C5%BBabka/data=!4m7!3m6!1s0x46fd71517716e613:0x5eee744d4035d847!8m2!3d54.306754!4d18.597259!16s%2Fg%2F11fylyryq0!19sChIJE-YWd1Fx_UYRR9g1QE107l4?authuser=0&hl=en&rclk=1
54.3213249,18.6312218,restaurant,Restauracja Portowa,https://www.google.com/maps/place/Restauracja+Portowa/data=!4m7!3m6!1s0x46fd73e80c149789:0xc1da6ad3a4d10c25!8m2!3d54.3213249!4d18.6312218!16s%2Fg%2F11cny1c6gh!19sChIJiZcUDOhz_UYRJQzRpNNq2sE?authuser=0&hl=en&rclk=1
54.3090931,18.6010353,restaurant,Żabka,https://www.google.com/maps/place/%C5%BBabka/data=!4m7!3m6!1s0x46fd71eaa6f966a7:0x7b7dfd3ad05fb27d!8m2!3d54.3090931!4d18.6010353!16s%2Fg%2F11h11297f3!19sChIJp2b5pupx_UYRfbJf0Dr9fXs?authuser=0&hl=en&rclk=1
54.2690851,18.6239112,restaurant,Da Grasso,https://www.google.com/maps/place/Da+Grasso/data=!4m7!3m6!1s0x46fd718e344d656f:0x49233905e099085b!8m2!3d54.2690851!4d18.6239112!16s%2Fg%2F11n88n11vg!19sChIJb2VNNI5x_UYRWwiZ4AU5I0k?authuser=0&hl=en&rclk=1
54.378517,18.6070831,restaurant,Bunny Handroll Sushi,https://www.google.com/maps/place/Bunny+Handroll+Sushi/data=!4m7!3m6!1s0x46fd749455300cc7:0x419351dd30e1dc77!8m2!3d54.378517!4d18.6070831!16s%2Fg%2F11c6zyp_d1!19sChIJxwwwVZR0_UYRd9zhMN1Rk0E?authuser=0&hl=en&rclk=1
54.4435883,18.5672779,restaurant,Sztuczka Bistro i Wino,https://www.google.com/maps/place/Sztuczka+Bistro+i+Wino/data=!4m7!3m6!1s0x46fd0a91f03f1553:0x4d35de24c06c1072!8m2!3d54.4435883!4d18.5672779!16s%2Fg%2F11c72lx7qm!19sChIJUxU_8JEK_UYRchBswCTeNU0?authuser=0&hl=en&rclk=1
54.345362,18.6554915,restaurant,Restauracja Qubus Gdańsk,https://www.google.com/maps/place/Restauracja+Qubus+Gda%C5%84sk/data=!4m7!3m6!1s0x46fd732c320c94fb:0xf4b13ca20b264955!8m2!3d54.345362!4d18.6554915!16s%2Fg%2F11grv3l70b!19sChIJ-5QMMixz_UYRVUkmC6I8sfQ?authuser=0&hl=en&rclk=1
54.2877788,18.5059533,restaurant,Panda Sushi,https://www.google.com/maps/place/Panda+Sushi/data=!4m7!3m6!1s0x46fd77b11450608f:0x1fe9d5975a2b6c6e!8m2!3d54.2877788!4d18.5059533!16s%2Fg%2F11p4_kpls3!19sChIJj2BQFLF3_UYRbmwrWpfV6R8?authuser=0&hl=en&rclk=1
54.3493135,18.6490742,restaurant,CHEF food&friends,https://www.google.com/maps/place/CHEF+food%26friends/data=!4m7!3m6!1s0x46fd739fa98218b9:0x7ab1924d5d175b2e!8m2!3d54.3493135!4d18.6490742!16s%2Fg%2F11dxnpmywj!19sChIJuRiCqZ9z_UYRLlsXXU2SsXo?authuser=0&hl=en&rclk=1
54.3037025,18.6113098,restaurant,Żabka,https://www.google.com/maps/place/%C5%BBabka/data=!4m7!3m6!1s0x46fd7127c44d25f9:0xed4c738027dc7d54!8m2!3d54.3037025!4d18.6113098!16s%2Fg%2F11rmww04pj!19sChIJ-SVNxCdx_UYRVH3cJ4BzTO0?authuser=0&hl=en&rclk=1
54.2619227,18.6567389,restaurant,American Crunchy Chicken,https://www.google.com/maps/place/American+Crunchy+Chicken/data=!4m7!3m6!1s0x46fd71b4e6915555:0xa51d66876584df6e!8m2!3d54.2619227!4d18.6567389!16s%2Fg%2F11hzwbrz10!19sChIJVVWR5rRx_UYRbt-EZYdmHaU?authuser=0&hl=en&rclk=1
54.2749526,18.8701199,restaurant,PizzaLove Cedry Małe Cedry Wielkie,https://www.google.com/maps/place/PizzaLove+Cedry+Ma%C5%82e+Cedry+Wielkie/data=!4m7!3m6!1s0x46fd6b0054fb41d7:0xce0b5e113148cf8e!8m2!3d54.2749526!4d18.8701199!16s%2Fg%2F11qr972k6c!19sChIJ10H7VABr_UYRjs9IMRFeC84?authuser=0&hl=en&rclk=1
54.2490828,18.8664712,restaurant,ML. Restauracja,https://www.google.com/maps/place/ML.+Restauracja/data=!4m7!3m6!1s0x46fd6956349b261d:0x1a842dc7e38a371a!8m2!3d54.2490828!4d18.8664712!16s%2Fg%2F1tr8k7_2!19sChIJHSabNFZp_UYRGjeK48cthBo?authuser=0&hl=en&rclk=1
54.2717647,18.467599,restaurant,Żabka,https://www.google.com/maps/place/%C5%BBabka/data=!4m7!3m6!1s0x46fd7789cdc40d0f:0xe2f3705b1de6cbdb!8m2!3d54.2717647!4d18.467599!16s%2Fg%2F11j81f0pwc!19sChIJDw3EzYl3_UYR28vmHVtw8-I?authuser=0&hl=en&rclk=1
54.271687,18.46644,restaurant,"Bez Cukrzenia - wegańskie, naturalne wypieki bez cukru","https://www.google.com/maps/place/Bez+Cukrzenia+-+wega%C5%84skie,+naturalne+wypieki+bez+cukru/data=!4m7!3m6!1s0x46fd7714ccd2f5f1:0xd02458c61366aefc!8m2!3d54.271687!4d18.46644!16s%2Fg%2F11j53ggb2c!19sChIJ8fXSzBR3_UYR_K5mE8ZYJNA?authuser=0&hl=en&rclk=1"
54.2784432,18.4219214,restaurant,Hotel Venus,https://www.google.com/maps/place/Hotel+Venus/data=!4m10!3m9!1s0x46fd9d7da859ef55:0x37de1c3c0d4bfefd!5m2!4m1!1i2!8m2!3d54.2784432!4d18.4219214!16s%2Fg%2F1tczj4_r!19sChIJVe9ZqH2d_UYR_f5LDTwc3jc?authuser=0&hl=en&rclk=1
54.2678455,18.5666686,restaurant,Marilyn BAR,https://www.google.com/maps/place/Marilyn+BAR/data=!4m7!3m6!1s0x46fd71287c42e455:0x4035cbee44cb2d58!8m2!3d54.2678455!4d18.5666686!16s%2Fg%2F1td9zcpc!19sChIJVeRCfChx_UYRWC3LRO7LNUA?authuser=0&hl=en&rclk=1
54.2770855,18.5508834,restaurant,4 Pory Roku Restauracja i Nocleg,https://www.google.com/maps/place/4+Pory+Roku+Restauracja+i+Nocleg/data=!4m10!3m9!1s0x46fd77fa2cead2ed:0xebce47598dc62237!5m2!4m1!1i2!8m2!3d54.2770855!4d18.5508834!16s%2Fg%2F11jtfbg87l!19sChIJ7dLqLPp3_UYRNyLGjVlHzus?authuser=0&hl=en&rclk=1
54.2707405,18.5895023,restaurant,Mona,https://www.google.com/maps/place/Mona/data=!4m7!3m6!1s0x46fd70df59bcb3f5:0x128ce9568ce13ab9!8m2!3d54.2707405!4d18.5895023!16s%2Fg%2F11g_rfrfd!19sChIJ9bO8Wd9w_UYRuTrhjFbpjBI?authuser=0&hl=en&rclk=1
54.2596776,18.5626764,restaurant,Sielanka Arciszewo,https://www.google.com/maps/place/Sielanka+Arciszewo/data=!4m7!3m6!1s0x46fd71853eccb6a7:0x50a51cd14ed270f1!8m2!3d54.2596776!4d18.5626764!16s%2Fg%2F11p70vsjdh!19sChIJp7bMPoVx_UYR8XDSTtEcpVA?authuser=0&hl=en&rclk=1
54.2725948,18.5824182,restaurant,Zapiekanki Kloss Food,https://www.google.com/maps/place/Zapiekanki+Kloss+Food/data=!4m7!3m6!1s0x46fd71cf277e88eb:0x49b959581534b9e!8m2!3d54.2725948!4d18.5824182!16s%2Fg%2F11q3tk_rxm!19sChIJ64h-J89x_UYRnktTgZWVmwQ?authuser=0&hl=en&rclk=1
54.2753262,18.5846735,restaurant,Bafra Kebab,https://www.google.com/maps/place/Bafra+Kebab/data=!4m7!3m6!1s0x46fd71d24132e69d:0xf33c30808a2742d0!8m2!3d54.2753262!4d18.5846735!16s%2Fg%2F11sbd2bxf0!19sChIJneYyQdJx_UYR0EInioAwPPM?authuser=0&hl=en&rclk=1
54.2758851,18.6036715,restaurant,"""Smaki jak u mamy""",https://www.google.com/maps/place/%22Smaki+jak+u+mamy%22/data=!4m7!3m6!1s0x46fd71809e3591f3:0x7f03f4ee823dc70c!8m2!3d54.2758851!4d18.6036715!16s%2Fg%2F11h0_ngq1l!19sChIJ85E1noBx_UYRDMc9gu70A38?authuser=0&hl=en&rclk=1
54.2732988,18.613702,restaurant,ŻarłoWóz,https://www.google.com/maps/place/%C5%BBar%C5%82oW%C3%B3z/data=!4m7!3m6!1s0x46fd71b4f6bfbf2f:0x640fa5e4771169f8!8m2!3d54.2732988!4d18.613702!16s%2Fg%2F11t0rdrmqs!19sChIJL7-_9rRx_UYR-GkRd-SlD2Q?authuser=0&hl=en&rclk=1
54.261755,18.6345873,restaurant,Bar & Restauracja FRYTAS,https://www.google.com/maps/place/Bar+%26+Restauracja+FRYTAS/data=!4m7!3m6!1s0x46fd7053f54f4757:0xe4b6d87e65001311!8m2!3d54.261755!4d18.6345873!16s%2Fg%2F1tf_g2w3!19sChIJV0dP9VNw_UYRERMAZX7YtuQ?authuser=0&hl=en&rclk=1
54.260519,18.63798,restaurant,Restauracja KAMELEON,https://www.google.com/maps/place/Restauracja+KAMELEON/data=!4m7!3m6!1s0x46fd705300d349b7:0xf46c620f3f0f4480!8m2!3d54.260519!4d18.63798!16s%2Fg%2F1hc0z3dxq!19sChIJt0nTAFNw_UYRgEQPPw9ibPQ?authuser=0&hl=en&rclk=1
54.254,18.6325269,restaurant,Pierogarnia Pruszcz,https://www.google.com/maps/place/Pierogarnia+Pruszcz/data=!4m7!3m6!1s0x46fd705093a1dd49:0x2cf8c495a2d403!8m2!3d54.254!4d18.6325269!16s%2Fg%2F11cjpb396f!19sChIJSd2hk1Bw_UYRA9SilcT4LAA?authuser=0&hl=en&rclk=1
54.2691178,18.6276529,restaurant,Zawijane Bistro,https://www.google.com/maps/place/Zawijane+Bistro/data=!4m7!3m6!1s0x46fd7100e79d4b13:0x3a86dc836029b47!8m2!3d54.2691178!4d18.6276529!16s%2Fg%2F11b5yvnvbz!19sChIJE0ud5wBx_UYRR5sCNshtqAM?authuser=0&hl=en&rclk=1
54.2662423,18.6556039,restaurant,Wild Bean Cafe,https://www.google.com/maps/place/Wild+Bean+Cafe/data=!4m7!3m6!1s0x46fd71adea94069b:0x7fa04a65944c0a01!8m2!3d54.2662423!4d18.6556039!16s%2Fg%2F11jh1j7cdl!19sChIJmwaU6q1x_UYRAQpMlGVKoH8?authuser=0&hl=en&rclk=1
54.2473325,18.6437832,restaurant,Poszarpani / Poszarpani Pizza i Przyjaciele,https://www.google.com/maps/place/Poszarpani+%2F+Poszarpani+Pizza+i+Przyjaciele/data=!4m7!3m6!1s0x46fd71dd5d56ab0d:0x7bfd7f5ca98805bc!8m2!3d54.2473325!4d18.6437832!16s%2Fg%2F11fsksg7wf!19sChIJDatWXd1x_UYRvAWIqVx__Xs?authuser=0&hl=en&rclk=1
54.34627,18.6586018,restaurant,The Garden Brasserie,https://www.google.com/maps/place/The+Garden+Brasserie/data=!4m7!3m6!1s0x46fd73a1490558eb:0xfc05ca9560b0d88c!8m2!3d54.34627!4d18.6586018!16s%2Fg%2F1vcjkymq!19sChIJ61gFSaFz_UYRjNiwYJXKBfw?authuser=0&hl=en&rclk=1
54.347303,18.658663,restaurant,"Trzynastka food, drink & chillout","https://www.google.com/maps/place/Trzynastka+food,+drink+%26+chillout/data=!4m7!3m6!1s0x46fd73de016230e7:0x85dde0696af5f14d!8m2!3d54.347303!4d18.658663!16s%2Fg%2F11rjvzwcbg!19sChIJ5zBiAd5z_UYRTfH1amng3YU?authuser=0&hl=en&rclk=1"
54.2514203,18.844768,restaurant,Cedrowy Dworek,https://www.google.com/maps/place/Cedrowy+Dworek/data=!4m10!3m9!1s0x46fd693655014e27:0xeeb0422ffb851482!5m2!4m1!1i2!8m2!3d54.2514203!4d18.844768!16s%2Fg%2F11y2h96v6!19sChIJJ04BVTZp_UYRghSF-y9CsO4?authuser=0&hl=en&rclk=1
54.2695198,18.4697324,restaurant,NYC KEBAB,https://www.google.com/maps/place/NYC+KEBAB/data=!4m7!3m6!1s0x46fd7761afb7eca5:0x39d4aa96ea8ec471!8m2!3d54.2695198!4d18.4697324!16s%2Fg%2F11l8rd2m2y!19sChIJpey3r2F3_UYRccSO6paq1Dk?authuser=0&hl=en&rclk=1
54.2676629,18.5661646,restaurant,Miód Malina,https://www.google.com/maps/place/Mi%C3%B3d+Malina/data=!4m7!3m6!1s0x46fd717486519ab1:0xd8577e3f8ad17ae!8m2!3d54.2676629!4d18.5661646!16s%2Fg%2F11gnpkvkr5!19sChIJsZpRhnRx_UYRrhet-ON3hQ0?authuser=0&hl=en&rclk=1
54.2697637,18.5916956,restaurant,Symonowicz R. Mała gastronomia,https://www.google.com/maps/place/Symonowicz+R.+Ma%C5%82a+gastronomia/data=!4m7!3m6!1s0x46fd70df999970bb:0xca1f5dc8273ea0dd!8m2!3d54.2697637!4d18.5916956!16s%2Fg%2F1ptw4yrzz!19sChIJu3CZmd9w_UYR3aA-J8hdH8o?authuser=0&hl=en&rclk=1
54.2627401,18.6366706,restaurant,Przystanek - Crêpes & Wine,https://www.google.com/maps/place/Przystanek+-+Cr%C3%AApes+%26+Wine/data=!4m7!3m6!1s0x46fd71b704f7a1d9:0x2b84040e6aefe8f7!8m2!3d54.2627401!4d18.6366706!16s%2Fg%2F11qzxl81jl!19sChIJ2aH3BLdx_UYR9-jvag4EhCs?authuser=0&hl=en&rclk=1
54.2654434,18.6315897,restaurant,To Jest To!,https://www.google.com/maps/place/To+Jest+To!/data=!4m7!3m6!1s0x46fd71fcf2e44641:0x397afac32e02ddfe!8m2!3d54.2654434!4d18.6315897!16s%2Fg%2F11q2b5sjdc!19sChIJQUbk8vxx_UYR_t0CLsP6ejk?authuser=0&hl=en&rclk=1
54.2658089,18.6385265,restaurant,Macaroni Sebastiano,https://www.google.com/maps/place/Macaroni+Sebastiano/data=!4m7!3m6!1s0x46fd71b9a4a05b7f:0x4d8c8e676fc43ea6!8m2!3d54.2658089!4d18.6385265!16s%2Fg%2F11qb3rct1d!19sChIJf1ugpLlx_UYRpj7Eb2eOjE0?authuser=0&hl=en&rclk=1
54.2702229,18.6263537,restaurant,Bursztyn Pizza,https://www.google.com/maps/place/Bursztyn+Pizza/data=!4m7!3m6!1s0x46fd7100c2d26489:0x6f72a18ee7678989!8m2!3d54.2702229!4d18.6263537!16s%2Fg%2F11bysjs5vn!19sChIJiWTSwgBx_UYRiYln546hcm8?authuser=0&hl=en&rclk=1
54.2619227,18.6567389,restaurant,Wok. Restauracja,https://www.google.com/maps/place/Wok.+Restauracja/data=!4m7!3m6!1s0x46fd71cb1cc158cf:0x4eba8cea7e92e949!8m2!3d54.2619227!4d18.6567389!16s%2Fg%2F1td2l52k!19sChIJz1jBHMtx_UYRSemSfuqMuk4?authuser=0&hl=en&rclk=1
