lat,lon,type,title,link
54.4449854,18.4232174,school,Przedszkole Niepubliczne Smoczek,https://www.google.com/maps/place/Przedszkole+Niepubliczne+Smoczek/data=!4m7!3m6!1s0x46fda1e4e05c13cd:0x7c5db8790912715d!8m2!3d54.4449854!4d18.4232174!16s%2Fg%2F1tx45qyy!19sChIJzRNc4OSh_UYRXXESCXm4XXw?authuser=0&hl=en&rclk=1
54.5246375,18.5120215,school,Gdynia International School - Preschool and Primary School,https://www.google.com/maps/place/Gdynia+International+School+-+Preschool+and+Primary+School/data=!4m7!3m6!1s0x46fda7356bfe1751:0x7f2725bc9e790889!8m2!3d54.5246375!4d18.5120215!16s%2Fg%2F1pp2xbb32!19sChIJURf-azWn_UYRiQh5nrwlJ38?authuser=0&hl=en&rclk=1
54.4433131,18.4169423,school,MyTime centrum językowe dla dzieci i młodzieży,https://www.google.com/maps/place/MyTime+centrum+j%C4%99zykowe+dla+dzieci+i+m%C5%82odzie%C5%BCy/data=!4m7!3m6!1s0x46fda1e52da4474f:0xe042e0101b3993e1!8m2!3d54.4433131!4d18.4169423!16s%2Fg%2F11g9q8vrw_!19sChIJT0ekLeWh_UYR4ZM5GxDgQuA?authuser=0&hl=en&rclk=1
54.4408924,18.417816,school,Green Elephant Academy Przedszkole Żłobek Chwaszczyno,https://www.google.com/maps/place/Green+Elephant+Academy+Przedszkole+%C5%BB%C5%82obek+Chwaszczyno/data=!4m7!3m6!1s0x46fda1a1619f924d:0xe69a79ae928a8449!8m2!3d54.4408924!4d18.417816!16s%2Fg%2F11rts3q6cs!19sChIJTZKfYaGh_UYRSYSKkq55muY?authuser=0&hl=en&rclk=1
54.379371,18.614906,school,International School of Gdansk,https://www.google.com/maps/place/International+School+of+Gdansk/data=!4m7!3m6!1s0x46fd74aa343e13b9:0x99f87bdc9b5697!8m2!3d54.379371!4d18.614906!16s%2Fg%2F1tdgnjdc!19sChIJuRM-NKp0_UYRl1ab3Hv4mQA?authuser=0&hl=en&rclk=1
54.4735977,18.3814665,school,Briton School,https://www.google.com/maps/place/Briton+School/data=!4m7!3m6!1s0x46fda247bdb03dc1:0xe28974318adb3932!8m2!3d54.4735977!4d18.3814665!16s%2Fg%2F1tf5cfk_!19sChIJwT2wvUei_UYRMjnbijF0ieI?authuser=0&hl=en&rclk=1
54.4278451,18.4774215,school,Empire Music School,https://www.google.com/maps/place/Empire+Music+School/data=!4m7!3m6!1s0x46fda02781fa2ddd:0x1ded66831b544773!8m2!3d54.4278451!4d18.4774215!16s%2Fg%2F11b66d_dxt!19sChIJ3S36gSeg_UYRc0dUG4Nm7R0?authuser=0&hl=en&rclk=1
54.4842366,18.526699,school,American Primary School,https://www.google.com/maps/place/American+Primary+School/data=!4m7!3m6!1s0x46fda0ea0f894951:0xdbe661b8b05fcc72!8m2!3d54.4842366!4d18.526699!16s%2Fg%2F1v41z48w!19sChIJUUmJD-qg_UYRcsxfsLhh5ts?authuser=0&hl=en&rclk=1
54.4645317,18.4958379,school,Primary School No. 20,https://www.google.com/maps/place/Primary+School+No.+20/data=!4m7!3m6!1s0x46fda056614c689f:0xb57a21f3cc13f090!8m2!3d54.4645317!4d18.4958379!16s%2Fg%2F1tg33xr9!19sChIJn2hMYVag_UYRkPATzPMherU?authuser=0&hl=en&rclk=1
54.4688452,18.4883018,school,After School Club,https://www.google.com/maps/place/After+School+Club/data=!4m7!3m6!1s0x46fda100022744db:0xe32f8c520dce405f!8m2!3d54.4688452!4d18.4883018!16s%2Fg%2F11f542lxsv!19sChIJ20QnAgCh_UYRX0DODVKML-M?authuser=0&hl=en&rclk=1
54.4117389,18.5994278,school,British International School Gdańsk,https://www.google.com/maps/place/British+International+School+Gda%C5%84sk/data=!4m7!3m6!1s0x46fd0b2ead94167b:0x4e8913856912f949!8m2!3d54.4117389!4d18.5994278!16s%2Fg%2F1tdq4pz8!19sChIJexaUrS4L_UYRSfkSaYUTiU4?authuser=0&hl=en&rclk=1
54.4252621,18.4865806,school,Creative Make Up School Anna Żywiecka,https://www.google.com/maps/place/Creative+Make+Up+School+Anna+%C5%BBywiecka/data=!4m7!3m6!1s0x46fda1a6be47b2db:0x4d30271b11a50dc6!8m2!3d54.4252621!4d18.4865806!16s%2Fg%2F11jmbfbv0q!19sChIJ27JHvqah_UYRxg2lERsnME0?authuser=0&hl=en&rclk=1
54.4190499,18.5929165,school,British International School Gdańsk (BISG),https://www.google.com/maps/place/British+International+School+Gda%C5%84sk+(BISG)/data=!4m7!3m6!1s0x46fd0ad83efb98ed:0xa832be8761dbf647!8m2!3d54.4190499!4d18.5929165!16s%2Fg%2F11c1th8sjx!19sChIJ7Zj7PtgK_UYRR_bbYYe-Mqg?authuser=0&hl=en&rclk=1
54.454757,18.5496497,school,"Sopocka Szkoła Montessori-Żłobek, Przedszkole, Szkoła Podstawowa","https://www.google.com/maps/place/Sopocka+Szko%C5%82a+Montessori-%C5%BB%C5%82obek,+Przedszkole,+Szko%C5%82a+Podstawowa/data=!4m7!3m6!1s0x46fda097819393a7:0xc404eb926f70784a!8m2!3d54.454757!4d18.5496497!16s%2Fg%2F1tk6z5lv!19sChIJp5OTgZeg_UYRSnhwb5LrBMQ?authuser=0&hl=en&rclk=1"
54.4298463,18.654511,school,English Avenue,https://www.google.com/maps/place/English+Avenue/data=!4m7!3m6!1s0x46fda07f3bd00001:0xbc4cac290637e56d!8m2!3d54.4298463!4d18.654511!16s%2Fg%2F11hyxnpb0c!19sChIJAQDQO3-g_UYRbeU3BimsTLw?authuser=0&hl=en&rclk=1
54.448408,18.5417299,school,Przedszkole nr 2 im. Jana Brzechwy,https://www.google.com/maps/place/Przedszkole+nr+2+im.+Jana+Brzechwy/data=!4m7!3m6!1s0x46fda1bd07ec5641:0xd3876f6ac1f0bafd!8m2!3d54.448408!4d18.5417299!16s%2Fg%2F11s5dwgzj8!19sChIJQVbsB72h_UYR_brwwWpvh9M?authuser=0&hl=en&rclk=1
54.4575591,18.535223,school,Tinkerbell School Marta Łomnicka,https://www.google.com/maps/place/Tinkerbell+School+Marta+%C5%81omnicka/data=!4m7!3m6!1s0x46fda07c969c2645:0x60895d5bf39cc891!8m2!3d54.4575591!4d18.535223!16s%2Fg%2F1pzr6w_0n!19sChIJRSaclnyg_UYRkcic81tdiWA?authuser=0&hl=en&rclk=1
54.438852,18.5610458,school,Edukator s.c.,https://www.google.com/maps/place/Edukator+s.c./data=!4m7!3m6!1s0x46fd0a96d9716067:0x3212963a917fc1c8!8m2!3d54.438852!4d18.5610458!16s%2Fg%2F1tfslp5g!19sChIJZ2Bx2ZYK_UYRyMF_kTqWEjI?authuser=0&hl=en&rclk=1
54.4387156,18.5698106,school,School No. 1 in them. Maria Sklodowska-Curie,https://www.google.com/maps/place/School+No.+1+in+them.+Maria+Sklodowska-Curie/data=!4m7!3m6!1s0x46fd0a937f1a70a3:0x2517bbba7de5a710!8m2!3d54.4387156!4d18.5698106!16s%2Fg%2F12ml2yw5w!19sChIJo3Aaf5MK_UYREKflfbq7FyU?authuser=0&hl=en&rclk=1
54.4387072,18.5569221,school,English Unlimited Sp. z oo,https://www.google.com/maps/place/English+Unlimited+Sp.+z+oo/data=!4m7!3m6!1s0x46fd0a976668789b:0x8725bca312d66a76!8m2!3d54.4387072!4d18.5569221!16s%2Fg%2F1wd3tr9f!19sChIJm3hoZpcK_UYRdmrWEqO8JYc?authuser=0&hl=en&rclk=1
54.4508944,18.5619639,school,Przedszkole nr 5,https://www.google.com/maps/place/Przedszkole+nr+5/data=!4m7!3m6!1s0x46fd0a867587bdcb:0x48f800603a736382!8m2!3d54.4508944!4d18.5619639!16s%2Fg%2F1tfslp5d!19sChIJy72HdYYK_UYRgmNzOmAA-Eg?authuser=0&hl=en&rclk=1
54.4491264,18.5625019,school,Szkoła Podstawowa z Oddziałami Sportowymi nr 7 im. T. Kościuszki,https://www.google.com/maps/place/Szko%C5%82a+Podstawowa+z+Oddzia%C5%82ami+Sportowymi+nr+7+im.+T.+Ko%C5%9Bciuszki/data=!4m7!3m6!1s0x46fd0a858dc4d7b7:0x437f57e98a414a2d!8m2!3d54.4491264!4d18.5625019!16s%2Fg%2F1tdzptv7!19sChIJt9fEjYUK_UYRLUpBiulXf0M?authuser=0&hl=en&rclk=1
54.4240329,18.5848117,school,Primary School No. 77,https://www.google.com/maps/place/Primary+School+No.+77/data=!4m7!3m6!1s0x46fd0adb6514a4b1:0xdd4308a8a7bd42c5!8m2!3d54.4240329!4d18.5848117!16s%2Fg%2F1tj2gl24!19sChIJsaQUZdsK_UYRxUK9p6gIQ90?authuser=0&hl=en&rclk=1
54.4245539,18.5723263,school,"Driving School ""Education-Linguist""",https://www.google.com/maps/place/Driving+School+%22Education-Linguist%22/data=!4m7!3m6!1s0x46fd0ac69cc213cd:0x1ede10248b1434b4!8m2!3d54.4245539!4d18.5723263!16s%2Fg%2F11c2qkw257!19sChIJzRPCnMYK_UYRtDQUiyQQ3h4?authuser=0&hl=en&rclk=1
54.422398,18.576423,school,Primary School No. 89,https://www.google.com/maps/place/Primary+School+No.+89/data=!4m7!3m6!1s0x46fd0ac50e4d8a9d:0x7960f3850550bd94!8m2!3d54.422398!4d18.576423!16s%2Fg%2F1tk66ctb!19sChIJnYpNDsUK_UYRlL1QBYXzYHk?authuser=0&hl=en&rclk=1
54.439887,18.417741,school,Szkoła Podstawowa im. Adama Mickiewicza w Chwaszczynie,https://www.google.com/maps/place/Szko%C5%82a+Podstawowa+im.+Adama+Mickiewicza+w+Chwaszczynie/data=!4m7!3m6!1s0x46fda1e49d3943d3:0x7810a6b0e3be4913!8m2!3d54.439887!4d18.417741!16s%2Fg%2F1tffhgkj!19sChIJ00M5neSh_UYRE0m-47CmEHg?authuser=0&hl=en&rclk=1
54.4263953,18.4827754,school,"Szkoła gitarowa ""Silver Guitar School""",https://www.google.com/maps/place/Szko%C5%82a+gitarowa+%22Silver+Guitar+School%22/data=!4m7!3m6!1s0x46fda02721b9a89b:0x1510ab2367c3aab7!8m2!3d54.4263953!4d18.4827754!16s%2Fg%2F11f4m9zftx!19sChIJm6i5ISeg_UYRt6rDZyOrEBU?authuser=0&hl=en&rclk=1
54.430855,18.4681665,school,Hydrostacja Osowa. Szkoła pływania,https://www.google.com/maps/place/Hydrostacja+Osowa.+Szko%C5%82a+p%C5%82ywania/data=!4m7!3m6!1s0x46fda19ec72e02b3:0x8bf5225241221885!8m2!3d54.430855!4d18.4681665!16s%2Fg%2F11g0dw384p!19sChIJswIux56h_UYRhRgiQVIi9Ys?authuser=0&hl=en&rclk=1
54.4409622,18.5458837,school,Chiński dla Dzieci,https://www.google.com/maps/place/Chi%C5%84ski+dla+Dzieci/data=!4m7!3m6!1s0x46fd0b6d4917510b:0xeb0a16d5cfecb9a4!8m2!3d54.4409622!4d18.5458837!16s%2Fg%2F11pyc1gd8t!19sChIJC1EXSW0L_UYRpLnsz9UWCus?authuser=0&hl=en&rclk=1
54.436887,18.5620269,school,Educhem,https://www.google.com/maps/place/Educhem/data=!4m7!3m6!1s0x46fd0b5c15bb1585:0x10a94879b4a89317!8m2!3d54.436887!4d18.5620269!16s%2Fg%2F11fntd2czm!19sChIJhRW7FVwL_UYRF5OotHlIqRA?authuser=0&hl=en&rclk=1
54.430549,18.56334,school,Niepubliczna Szkoła Podstawowa Lokomotywa,https://www.google.com/maps/place/Niepubliczna+Szko%C5%82a+Podstawowa+Lokomotywa/data=!4m7!3m6!1s0x46fd0a90420ec589:0xcf7d780764c99156!8m2!3d54.430549!4d18.56334!16s%2Fg%2F1tx8rx15!19sChIJicUOQpAK_UYRVpHJZAd4fc8?authuser=0&hl=en&rclk=1
54.4363473,18.5669117,school,Niepubliczne Przedszkole Anglojęzyczne Sopot,https://www.google.com/maps/place/Niepubliczne+Przedszkole+Angloj%C4%99zyczne+Sopot/data=!4m7!3m6!1s0x46fd0a94504beee5:0x9edb1736f4b06f89!8m2!3d54.4363473!4d18.5669117!16s%2Fg%2F1tfc0qcw!19sChIJ5e5LUJQK_UYRiW-w9DYX254?authuser=0&hl=en&rclk=1
54.438702,18.5570301,school,Eu Kids,https://www.google.com/maps/place/Eu+Kids/data=!4m7!3m6!1s0x46fd0a976668789b:0x2e95b3ccdcfdad53!8m2!3d54.438702!4d18.5570301!16s%2Fg%2F1th272cp!19sChIJm3hoZpcK_UYRU6393MyzlS4?authuser=0&hl=en&rclk=1
54.3957202,18.6083733,school,Primary School No. 48,https://www.google.com/maps/place/Primary+School+No.+48/data=!4m7!3m6!1s0x46fd74c9196b75e1:0xae561eb08d5441a4!8m2!3d54.3957202!4d18.6083733!16s%2Fg%2F1tfb9vkn!19sChIJ4XVrGcl0_UYRpEFUjbAeVq4?authuser=0&hl=en&rclk=1
54.4138399,18.5953916,school,Secondary School for Adults,https://www.google.com/maps/place/Secondary+School+for+Adults/data=!4m7!3m6!1s0x46fd0b29afb74523:0xc792563053705d21!8m2!3d54.4138399!4d18.5953916!16s%2Fg%2F1vcl2g5v!19sChIJI0W3rykL_UYRIV1wUzBWksc?authuser=0&hl=en&rclk=1
54.418106,18.4803539,school,QL School,https://www.google.com/maps/place/QL+School/data=!4m7!3m6!1s0x46fd9f8c07f4ddbd:0xbad114f4ccf0f375!8m2!3d54.418106!4d18.4803539!16s%2Fg%2F1hc2zbgpj!19sChIJvd30B4yf_UYRdfPwzPQU0bo?authuser=0&hl=en&rclk=1
54.42201,18.4547328,school,Przedszkole Puchatek,https://www.google.com/maps/place/Przedszkole+Puchatek/data=!4m7!3m6!1s0x46fd9f78a8ff3ad5:0xc8e8c902c8b9b5b6!8m2!3d54.42201!4d18.4547328!16s%2Fg%2F11ckz35qng!19sChIJ1Tr_qHif_UYRtrW5yALJ6Mg?authuser=0&hl=en&rclk=1
54.425164,18.477505,school,Wydawnictwo Sampi,https://www.google.com/maps/place/Wydawnictwo+Sampi/data=!4m7!3m6!1s0x46fda0278d02c767:0x18dfec5fea8f1386!8m2!3d54.425164!4d18.477505!16s%2Fg%2F11bwn7jtl3!19sChIJZ8cCjSeg_UYRhhOP6l_s3xg?authuser=0&hl=en&rclk=1
54.4251578,18.4775802,school,Meritum Centrum Pomiarowo-Dydaktyczne,https://www.google.com/maps/place/Meritum+Centrum+Pomiarowo-Dydaktyczne/data=!4m7!3m6!1s0x46fda0278daa5595:0x9440869c381649!8m2!3d54.4251578!4d18.4775802!16s%2Fg%2F11bwn7xmmw!19sChIJlVWqjSeg_UYRSRY4nIZAlAA?authuser=0&hl=en&rclk=1
54.4290712,18.4681492,school,Przedszkole Niepubliczne Mój Kotek,https://www.google.com/maps/place/Przedszkole+Niepubliczne+M%C3%B3j+Kotek/data=!4m7!3m6!1s0x46fda02bd310019d:0xe6e2a4b8b6a9586e!8m2!3d54.4290712!4d18.4681492!16s%2Fg%2F1v5k1q25!19sChIJnQEQ0yug_UYRbliptrik4uY?authuser=0&hl=en&rclk=1
54.4305647,18.4682271,school,Primary School No. 81,https://www.google.com/maps/place/Primary+School+No.+81/data=!4m7!3m6!1s0x46fda02be9707a07:0x1216397745b4a503!8m2!3d54.4305647!4d18.4682271!16s%2Fg%2F1tlvn6nk!19sChIJB3pw6Sug_UYRA6W0RXc5FhI?authuser=0&hl=en&rclk=1
54.409695,18.5572519,school,FREGATA Primary School for Boys,https://www.google.com/maps/place/FREGATA+Primary+School+for+Boys/data=!4m7!3m6!1s0x46fd753503815ce7:0x88fe7888ce6ea3b5!8m2!3d54.409695!4d18.5572519!16s%2Fg%2F1hc1pgsyp!19sChIJ51yBAzV1_UYRtaNuzoh4_og?authuser=0&hl=en&rclk=1
54.42256,18.5992049,school,Bambini 3. Przedszkole Montessori,https://www.google.com/maps/place/Bambini+3.+Przedszkole+Montessori/data=!4m7!3m6!1s0x46fd0b20b1e6e073:0x86f0b2059dd42150!8m2!3d54.42256!4d18.5992049!16s%2Fg%2F1ptzv0q95!19sChIJc-DmsSAL_UYRUCHUnQWy8IY?authuser=0&hl=en&rclk=1
54.42237,18.5895449,school,Nadmorskie Przedszkole Montessori,https://www.google.com/maps/place/Nadmorskie+Przedszkole+Montessori/data=!4m7!3m6!1s0x46fd0ad967ab9ffd:0x5ffc9b9515562e9b!8m2!3d54.42237!4d18.5895449!16s%2Fg%2F11fmxz13p3!19sChIJ_Z-rZ9kK_UYRmy5WFZWb_F8?authuser=0&hl=en&rclk=1
54.418086,18.5867109,school,Primary School No. 60,https://www.google.com/maps/place/Primary+School+No.+60/data=!4m7!3m6!1s0x46fd0ad74e2b0e35:0x6bc821b46bf3887d!8m2!3d54.418086!4d18.5867109!16s%2Fg%2F1tf7fc1z!19sChIJNQ4rTtcK_UYRfYjza7QhyGs?authuser=0&hl=en&rclk=1
54.4095207,18.6307357,school,Primary School No. 20,https://www.google.com/maps/place/Primary+School+No.+20/data=!4m7!3m6!1s0x46fd0b48e89bd305:0xb8fc911e8e569314!8m2!3d54.4095207!4d18.6307357!16s%2Fg%2F1tcxyhzw!19sChIJBdOb6EgL_UYRFJNWjh6R_Lg?authuser=0&hl=en&rclk=1
54.4168821,18.445729,school,Zielona Kraina Montessori,https://www.google.com/maps/place/Zielona+Kraina+Montessori/data=!4m7!3m6!1s0x46fd9f673fc00215:0x16822f6fa0091054!8m2!3d54.4168821!4d18.445729!16s%2Fg%2F11fgm68nzz!19sChIJFQLAP2ef_UYRVBAJoG8vghY?authuser=0&hl=en&rclk=1
54.3881267,18.3832516,school,Cool School Szkoła Językowa,https://www.google.com/maps/place/Cool+School+Szko%C5%82a+J%C4%99zykowa/data=!4m7!3m6!1s0x46fd9f2043312e6b:0x189ce0e87899ed4!8m2!3d54.3881267!4d18.3832516!16s%2Fg%2F11cmdrxxrc!19sChIJay4xQyCf_UYR1J6Jhw7OiQE?authuser=0&hl=en&rclk=1
54.417581,18.4560249,school,NOWY ŚWIAT Niepubliczna Szkoła Podstawowa,https://www.google.com/maps/place/NOWY+%C5%9AWIAT+Niepubliczna+Szko%C5%82a+Podstawowa/data=!4m7!3m6!1s0x46fd9f82d907eaaf:0x3191396a900b0fdd!8m2!3d54.417581!4d18.4560249!16s%2Fg%2F11cs39k6pr!19sChIJr-oH2YKf_UYR3Q8LkGo5kTE?authuser=0&hl=en&rclk=1
54.4174777,18.4538591,school,HAPPY KIDS OSOWA Niepubliczne Przedszkole i Żłobek,https://www.google.com/maps/place/HAPPY+KIDS+OSOWA+Niepubliczne+Przedszkole+i+%C5%BB%C5%82obek/data=!4m7!3m6!1s0x46fd9f9d33ccf78f:0xabd56fae6bfc6fed!8m2!3d54.4174777!4d18.4538591!16s%2Fg%2F1tfbx4hy!19sChIJj_fMM52f_UYR7W_8a65v1as?authuser=0&hl=en&rclk=1
54.4118806,18.5561066,school,Primary School No. 23,https://www.google.com/maps/place/Primary+School+No.+23/data=!4m7!3m6!1s0x46fd7535520f5165:0x46c3908f70c90dcf!8m2!3d54.4118806!4d18.5561066!16s%2Fg%2F1tx4n14y!19sChIJZVEPUjV1_UYRzw3JcI-Qw0Y?authuser=0&hl=en&rclk=1
54.4096575,18.5572876,school,Przedszkole Fregata - Oliwa,https://www.google.com/maps/place/Przedszkole+Fregata+-+Oliwa/data=!4m7!3m6!1s0x46fd74d04a51c54d:0xae1fece055b1ae91!8m2!3d54.4096575!4d18.5572876!16s%2Fg%2F1tdncyw_!19sChIJTcVRStB0_UYRka6xVeDsH64?authuser=0&hl=en&rclk=1
54.4126435,18.5735679,school,Chrześcijańskie Przedszkole Montessori,https://www.google.com/maps/place/Chrze%C5%9Bcija%C5%84skie+Przedszkole+Montessori/data=!4m7!3m6!1s0x46fd0a8460cd65c5:0x24493e578f88dd82!8m2!3d54.4126435!4d18.5735679!16s%2Fg%2F11xxsh9gf!19sChIJxWXNYIQK_UYRgt2Ij1c-SSQ?authuser=0&hl=en&rclk=1
54.4289756,18.5636285,school,Sopocka Akademia Nauk Stosowanych,https://www.google.com/maps/place/Sopocka+Akademia+Nauk+Stosowanych/data=!4m7!3m6!1s0x46fd0a9423b4b015:0x1669fc411c12d93a!8m2!3d54.4289756!4d18.5636285!16s%2Fg%2F11fd6dgl5f!19sChIJFbC0I5QK_UYROtkSHEH8aRY?authuser=0&hl=en&rclk=1
54.412854,18.589489,school,Zespół Szkolno-Przedszkolny nr 1 w Gdańsku (drugi budynek),https://www.google.com/maps/place/Zesp%C3%B3%C5%82+Szkolno-Przedszkolny+nr+1+w+Gda%C5%84sku+(drugi+budynek)/data=!4m7!3m6!1s0x46fd0bdaa4a1535d:0xc49e442adb51ea23!8m2!3d54.412854!4d18.589489!16s%2Fg%2F11h915gzw0!19sChIJXVOhpNoL_UYRI-pR2ypEnsQ?authuser=0&hl=en&rclk=1
54.4090599,18.5867774,school,Centrum Nauczania Matematyki MathRiders Gdańsk Północ,https://www.google.com/maps/place/Centrum+Nauczania+Matematyki+MathRiders+Gda%C5%84sk+P%C3%B3%C5%82noc/data=!4m7!3m6!1s0x46fd0ad601dd4723:0x5da96a169e8ffa3!8m2!3d54.4090599!4d18.5867774!16s%2Fg%2F11c0r5q7x8!19sChIJI0fdAdYK_UYRo__oaaGW2gU?authuser=0&hl=en&rclk=1
54.4130692,18.5891505,school,Chalo,https://www.google.com/maps/place/Chalo/data=!4m7!3m6!1s0x46fd0b423d26313f:0x2a4fbace0fb3927a!8m2!3d54.4130692!4d18.5891505!16s%2Fg%2F11h9500z45!19sChIJPzEmPUIL_UYRepKzD866Tyo?authuser=0&hl=en&rclk=1
54.4029111,18.627437,school,Gedanensis: Niepubliczne Przedszkole oraz Szkoła Podstawowa Gdańsk (Brzeźno),https://www.google.com/maps/place/Gedanensis:+Niepubliczne+Przedszkole+oraz+Szko%C5%82a+Podstawowa+Gda%C5%84sk+(Brze%C5%BAno)/data=!4m7!3m6!1s0x46fd0b4b6fddbf55:0xfa868523d556df1b!8m2!3d54.4029111!4d18.627437!16s%2Fg%2F1tfd5nn0!19sChIJVb_db0sL_UYRG99W1SOFhvo?authuser=0&hl=en&rclk=1
54.3920484,18.4055929,school,Niepubliczna Szkoła Podstawowa „AiB”,https://www.google.com/maps/place/Niepubliczna+Szko%C5%82a+Podstawowa+%E2%80%9EAiB%E2%80%9D/data=!4m7!3m6!1s0x46fd9fdca16b9fe5:0x79eaecdeac1dacf9!8m2!3d54.3920484!4d18.4055929!16s%2Fg%2F11sy1m7ldb!19sChIJ5Z9rodyf_UYR-awdrN7s6nk?authuser=0&hl=en&rclk=1
54.4210499,18.4790674,school,Szkoła podstawowa nr 33,https://www.google.com/maps/place/Szko%C5%82a+podstawowa+nr+33/data=!4m7!3m6!1s0x46fd9f8973a0b949:0x68bb5e2369e90702!8m2!3d54.4210499!4d18.4790674!16s%2Fg%2F11gbxbwq_x!19sChIJSbmgc4mf_UYRAgfpaSNeu2g?authuser=0&hl=en&rclk=1
54.4068721,18.5591485,school,V High School. Żeromskiego,https://www.google.com/maps/place/V+High+School.+%C5%BBeromskiego/data=!4m7!3m6!1s0x46fd75340fd77861:0xc2a319404c901dc6!8m2!3d54.4068721!4d18.5591485!16s%2Fg%2F122wbmqw!19sChIJYXjXDzR1_UYRxh2QTEAZo8I?authuser=0&hl=en&rclk=1
54.4047043,18.5761988,school,Little Harvard Private Kindergarten - Private Preschool,https://www.google.com/maps/place/Little+Harvard+Private+Kindergarten+-+Private+Preschool/data=!4m7!3m6!1s0x46fd752c0ad41c6b:0xb31b9c40dc8b298f!8m2!3d54.4047043!4d18.5761988!16s%2Fg%2F11c3x4vgp2!19sChIJaxzUCix1_UYRjymL3ECcG7M?authuser=0&hl=en&rclk=1
54.4027688,18.5715213,school,Thinking Zone – Szkoła Podstawowa i Liceum Ogólnokształcące,https://www.google.com/maps/place/Thinking+Zone+%E2%80%93+Szko%C5%82a+Podstawowa+i+Liceum+Og%C3%B3lnokszta%C5%82c%C4%85ce/data=!4m7!3m6!1s0x46fd752e6141ac47:0x78fe69a9da9ecc2d!8m2!3d54.4027688!4d18.5715213!16s%2Fg%2F11cm0pyp8r!19sChIJR6xBYS51_UYRLcye2qlp_ng?authuser=0&hl=en&rclk=1
54.4034839,18.5788623,school,Primary School 46,https://www.google.com/maps/place/Primary+School+46/data=!4m7!3m6!1s0x46fd752bcfa72c89:0xce15e022ea0b39ea!8m2!3d54.4034839!4d18.5788623!16s%2Fg%2F1hhhw0r14!19sChIJiSynzyt1_UYR6jkL6iLgFc4?authuser=0&hl=en&rclk=1
54.405522,18.6309418,school,RoboPlanet,https://www.google.com/maps/place/RoboPlanet/data=!4m7!3m6!1s0x46fd0b4c06c5fa07:0xca0036e66c9f544c!8m2!3d54.405522!4d18.6309418!16s%2Fg%2F11gh48q27t!19sChIJB_rFBkwL_UYRTFSfbOY2AMo?authuser=0&hl=en&rclk=1
54.4050097,18.644425,school,Zespół Szkół Ogólnokształcących Nr 10 im. Eugeniusza Kwiatkowskiego,https://www.google.com/maps/place/Zesp%C3%B3%C5%82+Szk%C3%B3%C5%82+Og%C3%B3lnokszta%C5%82c%C4%85cych+Nr+10+im.+Eugeniusza+Kwiatkowskiego/data=!4m7!3m6!1s0x46fd0b516e1d0cc9:0xd046cb616b1aacae!8m2!3d54.4050097!4d18.644425!16s%2Fg%2F1vm794dm!19sChIJyQwdblEL_UYRrqwaa2HLRtA?authuser=0&hl=en&rclk=1
54.402127,18.662468,school,Zespół Szkół Ogólnokształcących nr 5,https://www.google.com/maps/place/Zesp%C3%B3%C5%82+Szk%C3%B3%C5%82+Og%C3%B3lnokszta%C5%82c%C4%85cych+nr+5/data=!4m7!3m6!1s0x46fd0ca947aa4e8d:0x77ec25ad836449dd!8m2!3d54.402127!4d18.662468!16s%2Fg%2F1tgmtz4d!19sChIJjU6qR6kM_UYR3Ulkg60l7Hc?authuser=0&hl=en&rclk=1
54.398985,18.67164,school,Primary School No. 55,https://www.google.com/maps/place/Primary+School+No.+55/data=!4m7!3m6!1s0x46fd0cb2051ecbab:0x7a48154318e4d658!8m2!3d54.398985!4d18.67164!16s%2Fg%2F1tqnk99d!19sChIJq8seBbIM_UYRWNbkGEMVSHo?authuser=0&hl=en&rclk=1
54.3580527,18.6527194,school,Primary School No. 57,https://www.google.com/maps/place/Primary+School+No.+57/data=!4m7!3m6!1s0x46fd737392890949:0xeb2fca1d8e54d9cd!8m2!3d54.3580527!4d18.6527194!16s%2Fg%2F1tdr6wmz!19sChIJSQmJknNz_UYRzdlUjh3KL-s?authuser=0&hl=en&rclk=1
54.3567044,18.5985762,school,School of fish - Pracownia języków obcych,https://www.google.com/maps/place/School+of+fish+-+Pracownia+j%C4%99zyk%C3%B3w+obcych/data=!4m7!3m6!1s0x2371952e21f8ac21:0x270e15d3e28bc23e!8m2!3d54.3567044!4d18.5985762!16s%2Fg%2F11t2cz8qbz!19sChIJIaz4IS6VcSMRPsKL4tMVDic?authuser=0&hl=en&rclk=1
54.395956,18.4089593,school,Przedszkole Banino,https://www.google.com/maps/place/Przedszkole+Banino/data=!4m7!3m6!1s0x46fd9f240e188c79:0x379d17e76b4c6fbb!8m2!3d54.395956!4d18.4089593!16s%2Fg%2F124yk9f2z!19sChIJeYwYDiSf_UYRu29Ma-cXnTc?authuser=0&hl=en&rclk=1
54.3960412,18.4090114,school,Żłobek Niezapominajka,https://www.google.com/maps/place/%C5%BB%C5%82obek+Niezapominajka/data=!4m7!3m6!1s0x46fd9f194c4eb46d:0xa030be988e986e5f!8m2!3d54.3960412!4d18.4090114!16s%2Fg%2F11b7c82wrl!19sChIJbbROTBmf_UYRX26Yjpi-MKA?authuser=0&hl=en&rclk=1
54.3946222,18.4023442,school,Przedszkole Tęczowa Przygoda,https://www.google.com/maps/place/Przedszkole+T%C4%99czowa+Przygoda/data=!4m7!3m6!1s0x46fd9f1f72ce921d:0xd2b7c68426f486ac!8m2!3d54.3946222!4d18.4023442!16s%2Fg%2F11b5yy9p3w!19sChIJHZLOch-f_UYRrIb0JoTGt9I?authuser=0&hl=en&rclk=1
54.3959421,18.3998214,school,Szkoła Podstawowa im. ks. prałata Józefa Bigusa,https://www.google.com/maps/place/Szko%C5%82a+Podstawowa+im.+ks.+pra%C5%82ata+J%C3%B3zefa+Bigusa/data=!4m7!3m6!1s0x46fd9f1d71481f2b:0xc4d05ee6f285efed!8m2!3d54.3959421!4d18.3998214!16s%2Fg%2F11xvr54qk!19sChIJKx9IcR2f_UYR7e-F8uZe0MQ?authuser=0&hl=en&rclk=1
54.3687461,18.3958608,school,Primary School. Sec. Clement Wickiego,https://www.google.com/maps/place/Primary+School.+Sec.+Clement+Wickiego/data=!4m7!3m6!1s0x46fd9e324b47c407:0x915d0901ae87986a!8m2!3d54.3687461!4d18.3958608!16s%2Fg%2F1tpljf7m!19sChIJB8RHSzKe_UYRapiHrgEJXZE?authuser=0&hl=en&rclk=1
54.3968426,18.5186926,school,Żyrafia Osada,https://www.google.com/maps/place/%C5%BByrafia+Osada/data=!4m7!3m6!1s0x46fd755de826b9a1:0xc316572a4e973fcb!8m2!3d54.3968426!4d18.5186926!16s%2Fg%2F11fmxz6wrw!19sChIJobkm6F11_UYRyz-XTipXFsM?authuser=0&hl=en&rclk=1
54.4063936,18.5935365,school,Primary School No. 79,https://www.google.com/maps/place/Primary+School+No.+79/data=!4m7!3m6!1s0x46fd0b2b4af745df:0x4ddb9a50a076ec7f!8m2!3d54.4063936!4d18.5935365!16s%2Fg%2F11yn9n7_h!19sChIJ30X3SisL_UYRf-x2oFCa200?authuser=0&hl=en&rclk=1
54.3746249,18.6123527,school,My School. Centrum Edukacyjno - Usługowe MySchool Gdańsk,https://www.google.com/maps/place/My+School.+Centrum+Edukacyjno+-+Us%C5%82ugowe+MySchool+Gda%C5%84sk/data=!4m7!3m6!1s0x46fd74912c0b06db:0xc65b2fee123b7069!8m2!3d54.3746249!4d18.6123527!16s%2Fg%2F1tdfxdn6!19sChIJ2wYLLJF0_UYRaXA7Eu4vW8Y?authuser=0&hl=en&rclk=1
54.400186,18.666116,school,Przedszkole nr 23,https://www.google.com/maps/place/Przedszkole+nr+23/data=!4m7!3m6!1s0x46fd0cac284c922d:0x6871472d8a629612!8m2!3d54.400186!4d18.666116!16s%2Fg%2F1tltl1l0!19sChIJLZJMKKwM_UYREpZiii1HcWg?authuser=0&hl=en&rclk=1
54.400443,18.671143,school,Specjalny Ośrodek Szkolno - Wychowawczy Nr 2,https://www.google.com/maps/place/Specjalny+O%C5%9Brodek+Szkolno+-+Wychowawczy+Nr+2/data=!4m7!3m6!1s0x46fd0cae1c691acd:0xd66b6ec3750eaa69!8m2!3d54.400443!4d18.671143!16s%2Fg%2F1ptx5xfxk!19sChIJzRppHK4M_UYRaaoOdcNua9Y?authuser=0&hl=en&rclk=1
54.3506444,18.6489861,school,Academy of Fine Arts,https://www.google.com/maps/place/Academy+of+Fine+Arts/data=!4m7!3m6!1s0x46fd739e37d3fbf5:0xb294a3ca31a1451a!8m2!3d54.3506444!4d18.6489861!16s%2Fg%2F112yfqtc6!19sChIJ9fvTN55z_UYRGkWhMcqjlLI?authuser=0&hl=en&rclk=1
54.3609273,18.7159585,school,Sail in - School of English,https://www.google.com/maps/place/Sail+in+-+School+of+English/data=!4m7!3m6!1s0x46fd73cdbe1247c1:0xf32c785e86f4c888!8m2!3d54.3609273!4d18.7159585!16s%2Fg%2F11rfvwhx8b!19sChIJwUcSvs1z_UYRiMj0hl54LPM?authuser=0&hl=en&rclk=1
54.3767729,18.6230742,school,Oxford Language Center Language School,https://www.google.com/maps/place/Oxford+Language+Center+Language+School/data=!4m7!3m6!1s0x46fd74985ad304b5:0xcd5ba820b01f2bb9!8m2!3d54.3767729!4d18.6230742!16s%2Fg%2F1tfrfg68!19sChIJtQTTWph0_UYRuSsfsCCoW80?authuser=0&hl=en&rclk=1
54.270532,18.6146429,school,Progress - Szkoła Języków Obcych,https://www.google.com/maps/place/Progress+-+Szko%C5%82a+J%C4%99zyk%C3%B3w+Obcych/data=!4m7!3m6!1s0x46fd711ccd4e2ad9:0x97c6ce67f0189c81!8m2!3d54.270532!4d18.6146429!16s%2Fg%2F11h4mw7m66!19sChIJ2SpOzRxx_UYRgZwY8GfOxpc?authuser=0&hl=en&rclk=1
52.158448,21.0662749,school,British Primary School of Wilanow,https://www.google.com/maps/place/British+Primary+School+of+Wilanow/data=!4m7!3m6!1s0x47192d671fab0e93:0xc8aa816f2c3a446f!8m2!3d52.158448!4d21.0662749!16s%2Fg%2F11bysjv63r!19sChIJkw6rH2ctGUcRb0Q6LG-Bqsg?authuser=0&hl=en&rclk=1
52.189543,21.0549092,school,The British School Warsaw,https://www.google.com/maps/place/The+British+School+Warsaw/data=!4m7!3m6!1s0x471ecd4c12b48af7:0x299e2f6f48c8e2d2!8m2!3d52.189543!4d21.0549092!16s%2Fm%2F0105jvmt!19sChIJ94q0EkzNHkcR0uLISG8vnik?authuser=0&hl=en&rclk=1
52.0621003,20.9639535,school,Thames British School (Piaseczno Campus),https://www.google.com/maps/place/Thames+British+School+(Piaseczno+Campus)/data=!4m7!3m6!1s0x471931b14b739b77:0xfdefa7ca10b7ee63!8m2!3d52.0621003!4d20.9639535!16s%2Fg%2F11fk8zl6q3!19sChIJd5tzS7ExGUcRY-63EMqn7_0?authuser=0&hl=en&rclk=1
54.3913374,18.4062096,school,Przedszkole Przedszkolandia,https://www.google.com/maps/place/Przedszkole+Przedszkolandia/data=!4m7!3m6!1s0x46fd9f1e085a6493:0x98abe731dcff079a!8m2!3d54.3913374!4d18.4062096!16s%2Fg%2F11f3mbzc1v!19sChIJk2RaCB6f_UYRmgf_3DHnq5g?authuser=0&hl=en&rclk=1
54.3869647,18.423442,school,Przystanek Przygoda,https://www.google.com/maps/place/Przystanek+Przygoda/data=!4m7!3m6!1s0x46fd9efe1644fc63:0x84d51510bfaecaf7!8m2!3d54.3869647!4d18.423442!16s%2Fg%2F1ydpvbvfb!19sChIJY_xEFv6e_UYR98quvxAV1YQ?authuser=0&hl=en&rclk=1
54.3881906,18.4834117,school,Szkoła Podstawowa nr 82,https://www.google.com/maps/place/Szko%C5%82a+Podstawowa+nr+82/data=!4m7!3m6!1s0x46fd9fcfead13dcd:0x71857e6f9647e1db!8m2!3d54.3881906!4d18.4834117!16s%2Fg%2F1tc_v8qr!19sChIJzT3R6s-f_UYR2-FHlm9-hXE?authuser=0&hl=en&rclk=1
54.353283,18.512751,school,ADK-language school,https://www.google.com/maps/place/ADK-language+school/data=!4m7!3m6!1s0x46fd75ebd561f50d:0x3af7aafab7d27b45!8m2!3d54.353283!4d18.512751!16s%2Fg%2F11fpj83p2q!19sChIJDfVh1et1_UYRRXvSt_qq9zo?authuser=0&hl=en&rclk=1
54.4025442,18.5608478,school,Ogólnokształcące Liceum Programów Indywidualnych,https://www.google.com/maps/place/Og%C3%B3lnokszta%C5%82c%C4%85ce+Liceum+Program%C3%B3w+Indywidualnych/data=!4m7!3m6!1s0x46fd7530fc92e65d:0x133c76160e892140!8m2!3d54.4025442!4d18.5608478!16s%2Fg%2F11_dz4rqm!19sChIJXeaS_DB1_UYRQCGJDhZ2PBM?authuser=0&hl=en&rclk=1
54.3993007,18.5764541,school,Baby. Swimming school for babies,https://www.google.com/maps/place/Baby.+Swimming+school+for+babies/data=!4m7!3m6!1s0x46fda1251e1b0727:0x8997dae78a3522ee!8m2!3d54.3993007!4d18.5764541!16s%2Fg%2F11cn0qw26s!19sChIJJwcbHiWh_UYR7iI1iufal4k?authuser=0&hl=en&rclk=1
54.3915,18.5748,school,Przedszkole nr 77 Specjalne dla Dzieci z Porażeniem Mózgowym,https://www.google.com/maps/place/Przedszkole+nr+77+Specjalne+dla+Dzieci+z+Pora%C5%BCeniem+M%C3%B3zgowym/data=!4m7!3m6!1s0x46fd7520b0480b43:0x9c2c1f5dacf81be1!8m2!3d54.3915!4d18.5748!16s%2Fg%2F1w3459mq!19sChIJQwtIsCB1_UYR4Rv4rF0fLJw?authuser=0&hl=en&rclk=1
54.3875531,18.5789718,school,High School No IX,https://www.google.com/maps/place/High+School+No+IX/data=!4m7!3m6!1s0x46fd74de380697d1:0x246c984f7c96dd29!8m2!3d54.3875531!4d18.5789718!16s%2Fg%2F120pt8by!19sChIJ0ZcGON50_UYRKd2WfE-YbCQ?authuser=0&hl=en&rclk=1
54.387691,18.5892811,school,Korepetycje angielski,https://www.google.com/maps/place/Korepetycje+angielski/data=!4m7!3m6!1s0x46fd759afb84c295:0xb764b6f394a0c396!8m2!3d54.387691!4d18.5892811!16s%2Fg%2F11q24d4x0w!19sChIJlcKE-5p1_UYRlsOglPO2ZLc?authuser=0&hl=en&rclk=1
54.3951644,18.595938,school,Primary School No. 92,https://www.google.com/maps/place/Primary+School+No.+92/data=!4m7!3m6!1s0x46fd74d01cefceeb:0x99c72d804ae6f64f!8m2!3d54.3951644!4d18.595938!16s%2Fg%2F1tdbpkpw!19sChIJ687vHNB0_UYRT_bmSoAtx5k?authuser=0&hl=en&rclk=1
54.3854428,18.6094361,school,II High School,https://www.google.com/maps/place/II+High+School/data=!4m7!3m6!1s0x46fd74bf405ff893:0x59efd0dd4eaf6df2!8m2!3d54.3854428!4d18.6094361!16s%2Fg%2F1233rgry!19sChIJk_hfQL90_UYR8m2vTt3Q71k?authuser=0&hl=en&rclk=1
54.384953,18.6175303,school,Primary School No. 24,https://www.google.com/maps/place/Primary+School+No.+24/data=!4m7!3m6!1s0x46fd74bbf88cd307:0x201437856c987d3b!8m2!3d54.384953!4d18.6175303!16s%2Fg%2F1td4c79p!19sChIJB9OM-Lt0_UYRO32YbIU3FCA?authuser=0&hl=en&rclk=1
53.2853844,19.8487988,school,Vitas School,https://www.google.com/maps/place/Vitas+School/data=!4m7!3m6!1s0x4c3dc98353cf7e75:0xf55225eba229e680!8m2!3d53.2853844!4d19.8487988!16s%2Fg%2F11t75cxrzp!19sChIJdX7PU4PJPUwRgOYpouslUvU?authuser=0&hl=en&rclk=1
54.3900786,18.6392969,school,Publiczna Szkoła Podstawowa Hevelius,https://www.google.com/maps/place/Publiczna+Szko%C5%82a+Podstawowa+Hevelius/data=!4m7!3m6!1s0x46fd752f4018fd53:0xbf38fbaf2e7745c7!8m2!3d54.3900786!4d18.6392969!16s%2Fg%2F11pkjf70nt!19sChIJU_0YQC91_UYRx0V3Lq_7OL8?authuser=0&hl=en&rclk=1
54.3499556,18.5589468,school,ABC SCHOOL,https://www.google.com/maps/place/ABC+SCHOOL/data=!4m7!3m6!1s0x46fd744ec4caa859:0x47321553d156322!8m2!3d54.3499556!4d18.5589468!16s%2Fg%2F1yg56hy6x!19sChIJWajKxE50_UYRImMVPVUhcwQ?authuser=0&hl=en&rclk=1
54.3539746,18.5961844,school,"Be Montessori School, niepubliczna szkoła podstawowa Gdańsk Morena","https://www.google.com/maps/place/Be+Montessori+School,+niepubliczna+szko%C5%82a+podstawowa+Gda%C5%84sk+Morena/data=!4m7!3m6!1s0x46fd74646c57df79:0xd760d4a610a1e50d!8m2!3d54.3539746!4d18.5961844!16s%2Fg%2F11bv5v277w!19sChIJed9XbGR0_UYRDeWhEKbUYNc?authuser=0&hl=en&rclk=1"
54.3774717,18.6022307,school,Primary School No. 45,https://www.google.com/maps/place/Primary+School+No.+45/data=!4m7!3m6!1s0x46fd7494bbcaaf01:0xda145c6e21e52aef!8m2!3d54.3774717!4d18.6022307!16s%2Fg%2F1tg66sw8!19sChIJAa_Ku5R0_UYR7yrlIW5cFNo?authuser=0&hl=en&rclk=1
54.3737286,18.56595,school,Szkoła Podstawowa im.św.Jana De La Salle,https://www.google.com/maps/place/Szko%C5%82a+Podstawowa+im.%C5%9Bw.Jana+De+La+Salle/data=!4m7!3m6!1s0x46fd74fd9f70b05b:0xd9c84989a6fa62f!8m2!3d54.3737286!4d18.56595!16s%2Fg%2F1td9tt7l!19sChIJW7Bwn_10_UYRL6ZvmpiEnA0?authuser=0&hl=en&rclk=1
54.3759739,18.5620398,school,Zespół Kształcenia Podstawowego i Gimnazjalnego Szkoła Podstawowa nr 38 im. gen. S. Maczka,https://www.google.com/maps/place/Zesp%C3%B3%C5%82+Kszta%C5%82cenia+Podstawowego+i+Gimnazjalnego+Szko%C5%82a+Podstawowa+nr+38+im.+gen.+S.+Maczka/data=!4m7!3m6!1s0x46fd7502e7b65def:0x25439d5e02ad3582!8m2!3d54.3759739!4d18.5620398!16s%2Fg%2F1tpb9p49!19sChIJ71225wJ1_UYRgjWtAl6dQyU?authuser=0&hl=en&rclk=1
54.380697,18.5897669,school,ARTISTIC Niepubliczne Przedszkole Artystyczne,https://www.google.com/maps/place/ARTISTIC+Niepubliczne+Przedszkole+Artystyczne/data=!4m7!3m6!1s0x46fd74e8ef3abd05:0xfaca8b11058593f8!8m2!3d54.380697!4d18.5897669!16s%2Fg%2F11cn9k6577!19sChIJBb067-h0_UYR-JOFBRGLyvo?authuser=0&hl=en&rclk=1
54.3763943,18.6117108,school,Szkoły Parva,https://www.google.com/maps/place/Szko%C5%82y+Parva/data=!4m7!3m6!1s0x46fd7496bfd4ad01:0x55f098953e9bd2b5!8m2!3d54.3763943!4d18.6117108!16s%2Fg%2F11h1j2fc8g!19sChIJAa3Uv5Z0_UYRtdKbPpWY8FU?authuser=0&hl=en&rclk=1
54.3875315,18.6249276,school,Primary School No. 52,https://www.google.com/maps/place/Primary+School+No.+52/data=!4m7!3m6!1s0x46fd74badc6f6b77:0x45ce0b685767b539!8m2!3d54.3875315!4d18.6249276!16s%2Fg%2F1w0hz99j!19sChIJd2tv3Lp0_UYRObVnV2gLzkU?authuser=0&hl=en&rclk=1
54.3527221,18.6549777,school,Primary School No. 50,https://www.google.com/maps/place/Primary+School+No.+50/data=!4m7!3m6!1s0x46fd737536b091c7:0x35bb0008dd104185!8m2!3d54.3527221!4d18.6549777!16s%2Fg%2F1tg85bn5!19sChIJx5GwNnVz_UYRhUEQ3QgAuzU?authuser=0&hl=en&rclk=1
54.3584686,18.6473379,school,Mrija Language School,https://www.google.com/maps/place/Mrija+Language+School/data=!4m7!3m6!1s0x46fd73ce62b4af01:0x2788582dfc783474!8m2!3d54.3584686!4d18.6473379!16s%2Fg%2F11swrv9sb1!19sChIJAa-0Ys5z_UYRdDR4_C1YiCc?authuser=0&hl=en&rclk=1
54.3575068,18.7802123,school,Szkolenia motorowodne Ocean Team Sailing School,https://www.google.com/maps/place/Szkolenia+motorowodne+Ocean+Team+Sailing+School/data=!4m7!3m6!1s0x471427e8bc03cbab:0xf0f9fd9a0192289!8m2!3d54.3575068!4d18.7802123!16s%2Fg%2F11h48wyqjw!19sChIJq8sDvOgnFEcRiSIZoNmfDw8?authuser=0&hl=en&rclk=1
54.3509613,18.6511216,school,New School Tattoo,https://www.google.com/maps/place/New+School+Tattoo/data=!4m7!3m6!1s0x46fd739fc53a21a5:0x3ca0661b467b8dba!8m2!3d54.3509613!4d18.6511216!16s%2Fg%2F1tfwc5r_!19sChIJpSE6xZ9z_UYRuo17RhtmoDw?authuser=0&hl=en&rclk=1
54.3398485,18.508964,school,Primary School No. 84 to them. Brzechwa,https://www.google.com/maps/place/Primary+School+No.+84+to+them.+Brzechwa/data=!4m7!3m6!1s0x46fd75dcd03344db:0xe8957cf9e155723f!8m2!3d54.3398485!4d18.508964!16s%2Fg%2F1thpvjhr!19sChIJ20Qz0Nx1_UYRP3JV4fl8leg?authuser=0&hl=en&rclk=1
54.3584629,18.5746067,school,Primary School No. 2,https://www.google.com/maps/place/Primary+School+No.+2/data=!4m7!3m6!1s0x46fd745953e9848f:0x9d339fd12342b5bb!8m2!3d54.3584629!4d18.5746067!16s%2Fg%2F1jglvqjwf!19sChIJj4TpU1l0_UYRu7VCI9GfM50?authuser=0&hl=en&rclk=1
54.3673498,18.5917857,school,Trójmiejska Nie Szkoła Demokratyczna Kalejdoskop,https://www.google.com/maps/place/Tr%C3%B3jmiejska+Nie+Szko%C5%82a+Demokratyczna+Kalejdoskop/data=!4m7!3m6!1s0x46fd75e13950b481:0x5868561f5e471d45!8m2!3d54.3673498!4d18.5917857!16s%2Fg%2F11f6g23mn3!19sChIJgbRQOeF1_UYRRR1HXh9WaFg?authuser=0&hl=en&rclk=1
54.377132,18.5810801,school,Szkoła Podstawowa nr 27 im. Dzieci Zjednoczonej Europy,https://www.google.com/maps/place/Szko%C5%82a+Podstawowa+nr+27+im.+Dzieci+Zjednoczonej+Europy/data=!4m7!3m6!1s0x46fd74e5a798933d:0x6a0cf238bb06d5be!8m2!3d54.377132!4d18.5810801!16s%2Fg%2F1tp_526p!19sChIJPZOYp-V0_UYRvtUGuzjyDGo?authuser=0&hl=en&rclk=1
54.367283,18.6092511,school,Fregata School For Boys,https://www.google.com/maps/place/Fregata+School+For+Boys/data=!4m7!3m6!1s0x46fd748fa431d6a9:0x814c83547ea60e54!8m2!3d54.367283!4d18.6092511!16s%2Fg%2F11d_5_79z3!19sChIJqdYxpI90_UYRVA6mflSDTIE?authuser=0&hl=en&rclk=1
54.3665021,18.6301383,school,Niepubliczne Przedszkole im. Jana Pawła II,https://www.google.com/maps/place/Niepubliczne+Przedszkole+im.+Jana+Paw%C5%82a+II/data=!4m7!3m6!1s0x46fd7482adadb82d:0xeaf1b4180ae3434c!8m2!3d54.3665021!4d18.6301383!16s%2Fg%2F11bbw_v1r6!19sChIJLbitrYJ0_UYRTEPjChi08eo?authuser=0&hl=en&rclk=1
54.368134,18.614149,school,Spinlab Dj School Gdańsk,https://www.google.com/maps/place/Spinlab+Dj+School+Gda%C5%84sk/data=!4m7!3m6!1s0x46fd75dc5335e639:0xbd9c5aa2edd8ec0a!8m2!3d54.368134!4d18.614149!16s%2Fg%2F11ncm8z0z5!19sChIJOeY1U9x1_UYRCuzY7aJanL0?authuser=0&hl=en&rclk=1
54.3671271,18.6923737,school,Niepubliczny Żłobek i Przedszkole MegaMocni Koga - Stogi,https://www.google.com/maps/place/Niepubliczny+%C5%BB%C5%82obek+i+Przedszkole+MegaMocni+Koga+-+Stogi/data=!4m7!3m6!1s0x46fd731f4ef3894b:0x57b9f867523ce03!8m2!3d54.3671271!4d18.6923737!16s%2Fg%2F11cjk433qz!19sChIJS4nzTh9z_UYRA84jdYafewU?authuser=0&hl=en&rclk=1
54.352458,18.6466001,school,British School Ogólnopolska Szkoła Językowa,https://www.google.com/maps/place/British+School+Og%C3%B3lnopolska+Szko%C5%82a+J%C4%99zykowa/data=!4m7!3m6!1s0x46fd739e01e30a19:0xa8e8a3992fe2c2cc!8m2!3d54.352458!4d18.6466001!16s%2Fg%2F1v82_sxs!19sChIJGQrjAZ5z_UYRzMLiL5mj6Kg?authuser=0&hl=en&rclk=1
54.363755,18.715059,school,Kindergarten No. 16,https://www.google.com/maps/place/Kindergarten+No.+16/data=!4m7!3m6!1s0x46fd72e7f6cf88ff:0x97bc54ca47949496!8m2!3d54.363755!4d18.715059!16s%2Fg%2F1tdyjxk9!19sChIJ_4jP9udy_UYRlpSUR8pUvJc?authuser=0&hl=en&rclk=1
54.3557772,18.4940013,school,Przedszkole nr 8,https://www.google.com/maps/place/Przedszkole+nr+8/data=!4m7!3m6!1s0x46fd758d68b1a3a3:0x3a363d62448feba6!8m2!3d54.3557772!4d18.4940013!16s%2Fg%2F1tftpsp5!19sChIJo6OxaI11_UYRpuuPRGI9Njo?authuser=0&hl=en&rclk=1
54.3611662,18.4949855,school,Klub Malucha Domowy Raj,https://www.google.com/maps/place/Klub+Malucha+Domowy+Raj/data=!4m7!3m6!1s0x46fd758eedc220bb:0x1998ecf4db18d467!8m2!3d54.3611662!4d18.4949855!16s%2Fg%2F1tcvsk1l!19sChIJuyDC7Y51_UYRZ9QY2_TsmBk?authuser=0&hl=en&rclk=1
54.3522125,18.5112813,school,Pozytywna Szkoła Podstawowa w Gdańsku,https://www.google.com/maps/place/Pozytywna+Szko%C5%82a+Podstawowa+w+Gda%C5%84sku/data=!4m7!3m6!1s0x46fd75955cda2b01:0x77aed505b45ed57a!8m2!3d54.3522125!4d18.5112813!16s%2Fg%2F11bw61jwy5!19sChIJASvaXJV1_UYRetVetAXVrnc?authuser=0&hl=en&rclk=1
54.350234,18.5342853,school,ElfKids Przedszkole Anglojęzyczne Przytulna,https://www.google.com/maps/place/ElfKids+Przedszkole+Angloj%C4%99zyczne+Przytulna/data=!4m7!3m6!1s0x46fd7594e5af9451:0x24745507221ab14f!8m2!3d54.350234!4d18.5342853!16s%2Fg%2F11jrfxgs5p!19sChIJUZSv5ZR1_UYRT7EaIgdVdCQ?authuser=0&hl=en&rclk=1
54.3588783,18.5837137,school,Schoolout - nauka języka angielskiego,https://www.google.com/maps/place/Schoolout+-+nauka+j%C4%99zyka+angielskiego/data=!4m7!3m6!1s0x46fd745efbf61b6f:0x620935aa3cb0c66a!8m2!3d54.3588783!4d18.5837137!16s%2Fg%2F11c55vj17n!19sChIJbxv2-150_UYRasawPKo1CWI?authuser=0&hl=en&rclk=1
54.3571249,18.5735924,school,Niepubliczne Przedszkole Morenowy Raj,https://www.google.com/maps/place/Niepubliczne+Przedszkole+Morenowy+Raj/data=!4m7!3m6!1s0x46fd745a348b2649:0x4b2fe472f92a016f!8m2!3d54.3571249!4d18.5735924!16s%2Fg%2F1vq73j_w!19sChIJSSaLNFp0_UYRbwEq-XLkL0s?authuser=0&hl=en&rclk=1
54.3561525,18.6557894,school,Gdańska Autonomiczna Szkoła Podstawowa,https://www.google.com/maps/place/Gda%C5%84ska+Autonomiczna+Szko%C5%82a+Podstawowa/data=!4m7!3m6!1s0x46fd73749868fad9:0xd2e472dd03588001!8m2!3d54.3561525!4d18.6557894!16s%2Fg%2F11byz95hmk!19sChIJ2fpomHRz_UYRAYBYA91y5NI?authuser=0&hl=en&rclk=1
54.35649,18.650043,school,Cosinus Gdańsk - Szkoły Policealne i Licea dla dorosłych,https://www.google.com/maps/place/Cosinus+Gda%C5%84sk+-+Szko%C5%82y+Policealne+i+Licea+dla+doros%C5%82ych/data=!4m7!3m6!1s0x46fd7494e4bfb32b:0xa1e6c7f045774624!8m2!3d54.35649!4d18.650043!16s%2Fg%2F1tmqq1bn!19sChIJK7O_5JR0_UYRJEZ3RfDH5qE?authuser=0&hl=en&rclk=1
54.3586154,18.6911197,school,Szkoła Podstawowa nr 61 im. J. Wybickiego,https://www.google.com/maps/place/Szko%C5%82a+Podstawowa+nr+61+im.+J.+Wybickiego/data=!4m7!3m6!1s0x46fd731d176bcd63:0x10d0c4ab7f712774!8m2!3d54.3586154!4d18.6911197!16s%2Fg%2F1v2d_5_2!19sChIJY81rFx1z_UYRdCdxf6vE0BA?authuser=0&hl=en&rclk=1
54.3624381,18.7133002,school,Przedszkole nr 58,https://www.google.com/maps/place/Przedszkole+nr+58/data=!4m7!3m6!1s0x46fd72e7b901288f:0x4726bab769546061!8m2!3d54.3624381!4d18.7133002!16s%2Fg%2F1tvykg5k!19sChIJjygBuedy_UYRYWBUabe6Jkc?authuser=0&hl=en&rclk=1
54.3614797,18.7124219,school,Barrakuda Szkoła Pływania Gdańsk - pływanie niemowlaków - szkółka pływacka - nauka pływania dla dzieci i dorosłych Gdańsk,https://www.google.com/maps/place/Barrakuda+Szko%C5%82a+P%C5%82ywania+Gda%C5%84sk+-+p%C5%82ywanie+niemowlak%C3%B3w+-+szk%C3%B3%C5%82ka+p%C5%82ywacka+-+nauka+p%C5%82ywania+dla+dzieci+i+doros%C5%82ych+Gda%C5%84sk/data=!4m7!3m6!1s0x46fd731d84b3940b:0x58805be3f8ac4c5c!8m2!3d54.3614797!4d18.7124219!16s%2Fg%2F11gjv7lgy3!19sChIJC5SzhB1z_UYRXEys-ONbgFg?authuser=0&hl=en&rclk=1
54.360543,18.7373349,school,Szkoła Podstawowa nr 62,https://www.google.com/maps/place/Szko%C5%82a+Podstawowa+nr+62/data=!4m7!3m6!1s0x46fd72be2bd4f6b7:0xbf5287383d9ddd80!8m2!3d54.360543!4d18.7373349!16s%2Fg%2F1tdnjthy!19sChIJt_bUK75y_UYRgN2dPTiHUr8?authuser=0&hl=en&rclk=1
54.3466119,18.4328262,school,Szkoła Podstawowa im. J. Pawła II w Leźnie,https://www.google.com/maps/place/Szko%C5%82a+Podstawowa+im.+J.+Paw%C5%82a+II+w+Le%C5%BAnie/data=!4m7!3m6!1s0x46fd9e747eebe6d7:0xa4737be150d4bdda!8m2!3d54.3466119!4d18.4328262!16s%2Fg%2F1hd_kwvqy!19sChIJ1-brfnSe_UYR2r3UUOF7c6Q?authuser=0&hl=en&rclk=1
54.3524218,18.5103801,school,Przedszkole KidsLab,https://www.google.com/maps/place/Przedszkole+KidsLab/data=!4m7!3m6!1s0x46fd75953f2c1151:0x3124ee2452794882!8m2!3d54.3524218!4d18.5103801!16s%2Fg%2F11dftpgff2!19sChIJUREsP5V1_UYRgkh5UiTuJDE?authuser=0&hl=en&rclk=1
54.3492442,18.5078858,school,Przedszkole TIK-TAK,https://www.google.com/maps/place/Przedszkole+TIK-TAK/data=!4m7!3m6!1s0x46fd75ea6214cd8b:0xdc54ef7414480649!8m2!3d54.3492442!4d18.5078858!16s%2Fg%2F11b6j4m0z9!19sChIJi80UYup1_UYRSQZIFHTvVNw?authuser=0&hl=en&rclk=1
54.3505867,18.5300816,school,ElfKids Przedszkole Anglojęzyczne Sympatyczna,https://www.google.com/maps/place/ElfKids+Przedszkole+Angloj%C4%99zyczne+Sympatyczna/data=!4m7!3m6!1s0x46fd7549e33ee327:0x8ef95e6f485a9323!8m2!3d54.3505867!4d18.5300816!16s%2Fg%2F11t31b4htr!19sChIJJ-M-40l1_UYRI5NaSG9e-Y4?authuser=0&hl=en&rclk=1
54.3500775,18.5392976,school,Przedszkole Niepubliczne Marchewka,https://www.google.com/maps/place/Przedszkole+Niepubliczne+Marchewka/data=!4m7!3m6!1s0x46fd75b448591373:0x388b5c4f0af93ff5!8m2!3d54.3500775!4d18.5392976!16s%2Fg%2F11c0rm3zh8!19sChIJcxNZSLR1_UYR9T_5Ck9cizg?authuser=0&hl=en&rclk=1
54.3534976,18.6029868,school,Primary School No. 42,https://www.google.com/maps/place/Primary+School+No.+42/data=!4m7!3m6!1s0x46fd747b54e95b79:0x6a9df47ff2f9bb8f!8m2!3d54.3534976!4d18.6029868!16s%2Fg%2F1tj7znsw!19sChIJeVvpVHt0_UYRj7v58n_0nWo?authuser=0&hl=en&rclk=1
54.348599,18.6173167,school,High School No VIII,https://www.google.com/maps/place/High+School+No+VIII/data=!4m7!3m6!1s0x46fd7387801dcbd5:0xc165d23e350829c2!8m2!3d54.348599!4d18.6173167!16s%2Fg%2F1thg9453!19sChIJ1csdgIdz_UYRwikINT7SZcE?authuser=0&hl=en&rclk=1
54.3474131,18.656966,school,Skybar School - Szkoła językowa,https://www.google.com/maps/place/Skybar+School+-+Szko%C5%82a+j%C4%99zykowa/data=!4m7!3m6!1s0x46fd7380a4e9a303:0x396d1f81da13eb34!8m2!3d54.3474131!4d18.656966!16s%2Fg%2F11j8tn5wsc!19sChIJA6PppIBz_UYRNOsT2oEfbTk?authuser=0&hl=en&rclk=1
54.348353,18.6634844,school,"Gdańska Szkoła Podstawowa ""Lingwista""",https://www.google.com/maps/place/Gda%C5%84ska+Szko%C5%82a+Podstawowa+%22Lingwista%22/data=!4m7!3m6!1s0x46fd73a1ea4b0a11:0xb5c9f93658b6b70d!8m2!3d54.348353!4d18.6634844!16s%2Fg%2F1tgb6144!19sChIJEQpL6qFz_UYRDbe2WDb5ybU?authuser=0&hl=en&rclk=1
54.3484,18.6957281,school,Familijny Poznań,https://www.google.com/maps/place/Familijny+Pozna%C5%84/data=!4m7!3m6!1s0x46fd72fec5f10471:0xddce807135342d60!8m2!3d54.3484!4d18.6957281!16s%2Fg%2F11h4vnd0g9!19sChIJcQTxxf5y_UYRYC00NXGAzt0?authuser=0&hl=en&rclk=1
54.3466831,18.6638108,school,Szkoła Podstawowa nr 4 im. Króla Kazimierza Jagiellończyka,https://www.google.com/maps/place/Szko%C5%82a+Podstawowa+nr+4+im.+Kr%C3%B3la+Kazimierza+Jagiello%C5%84czyka/data=!4m7!3m6!1s0x46fd73a6fe8fa6db:0x996d9e6e5fbcaab8!8m2!3d54.3466831!4d18.6638108!16s%2Fg%2F1tz74p2b!19sChIJ26aP_qZz_UYRuKq8X26ebZk?authuser=0&hl=en&rclk=1
54.352403,18.6737929,school,Liceum Ogólnokształcące nr 6,https://www.google.com/maps/place/Liceum+Og%C3%B3lnokszta%C5%82c%C4%85ce+nr+6/data=!4m7!3m6!1s0x46fd73061872cd9f:0x7aceec15dc54e2cb!8m2!3d54.352403!4d18.6737929!16s%2Fg%2F11xkr7lpw!19sChIJn81yGAZz_UYRy-JU3BXszno?authuser=0&hl=en&rclk=1
54.3484,18.6957281,school,Primary School No. 29 LEONARDO,https://www.google.com/maps/place/Primary+School+No.+29+LEONARDO/data=!4m7!3m6!1s0x46fd72fecf4e1947:0x289838950323e812!8m2!3d54.3484!4d18.6957281!16s%2Fg%2F1vg_bkbz!19sChIJRxlOz_5y_UYREugjA5U4mCg?authuser=0&hl=en&rclk=1
54.3659002,18.6228077,school,Medical University of Gdańsk,https://www.google.com/maps/place/Medical+University+of+Gda%C5%84sk/data=!4m7!3m6!1s0x46fd737d4d75124f:0x6b391c2c2e2a02d3!8m2!3d54.3659002!4d18.6228077!16zL20vMDdydDB5!19sChIJTxJ1TX1z_UYR0wIqLiwcOWs?authuser=0&hl=en&rclk=1
54.3440118,18.5616135,school,Primary School No. 85 to them. Kashubian-Pomeranian,https://www.google.com/maps/place/Primary+School+No.+85+to+them.+Kashubian-Pomeranian/data=!4m7!3m6!1s0x46fd7447f1dec805:0x5021539c41ff6365!8m2!3d54.3440118!4d18.5616135!16s%2Fg%2F1tftjxb_!19sChIJBcje8Ud0_UYRZWP_QZxTIVA?authuser=0&hl=en&rclk=1
54.342594,18.565586,school,Private Kindergarten Art and Language in Gdansk,https://www.google.com/maps/place/Private+Kindergarten+Art+and+Language+in+Gdansk/data=!4m7!3m6!1s0x46fd74389faf0663:0x8b748aafbfde84fc!8m2!3d54.342594!4d18.565586!16s%2Fg%2F12lrd32sk!19sChIJYwavnzh0_UYR_ITev6-KdIs?authuser=0&hl=en&rclk=1
54.3522466,18.5857022,school,"Kindergarten, Primary and Secondary School TE Vizja","https://www.google.com/maps/place/Kindergarten,+Primary+and+Secondary+School+TE+Vizja/data=!4m7!3m6!1s0x46fd7467c07a816b:0xb209757e2d08d712!8m2!3d54.3522466!4d18.5857022!16s%2Fg%2F11b7y9kcx2!19sChIJa4F6wGd0_UYREtcILX51CbI?authuser=0&hl=en&rclk=1"
54.3404148,18.6220627,school,High School No. VII,https://www.google.com/maps/place/High+School+No.+VII/data=!4m7!3m6!1s0x46fd738e96544097:0x3670bd109bafad8b!8m2!3d54.3404148!4d18.6220627!16s%2Fg%2F1tfkpft4!19sChIJl0BUlo5z_UYRi62vmxC9cDY?authuser=0&hl=en&rclk=1
54.3501924,18.6255905,school,Niepubliczna Szkoła Sokrates,https://www.google.com/maps/place/Niepubliczna+Szko%C5%82a+Sokrates/data=!4m7!3m6!1s0x46fd73814d0c079f:0x4728bc6438169aa3!8m2!3d54.3501924!4d18.6255905!16s%2Fg%2F1tscmpk9!19sChIJnwcMTYFz_UYRo5oWOGS8KEc?authuser=0&hl=en&rclk=1
54.3420387,18.6309082,school,Primary School No. 47,https://www.google.com/maps/place/Primary+School+No.+47/data=!4m7!3m6!1s0x46fd739022f479d3:0x5082205c43f40cbb!8m2!3d54.3420387!4d18.6309082!16s%2Fg%2F1v5k1q1n!19sChIJ03n0IpBz_UYRuwz0Q1wgglA?authuser=0&hl=en&rclk=1
54.3372478,18.66274,school,Szkoła Podstawowa. Filia,https://www.google.com/maps/place/Szko%C5%82a+Podstawowa.+Filia/data=!4m7!3m6!1s0x46fd73b00b5a0425:0x82ae4fcd1a51a378!8m2!3d54.3372478!4d18.66274!16s%2Fg%2F1v93zr_3!19sChIJJQRaC7Bz_UYReKNRGs1ProI?authuser=0&hl=en&rclk=1
54.3410062,18.6688987,school,Szkoła Podstawowa nr 59,https://www.google.com/maps/place/Szko%C5%82a+Podstawowa+nr+59/data=!4m7!3m6!1s0x46fd73af0314a1c7:0x42e689dbf7d113db!8m2!3d54.3410062!4d18.6688987!16s%2Fg%2F1vqmh1cr!19sChIJx6EUA69z_UYR2xPR99uJ5kI?authuser=0&hl=en&rclk=1
54.336331,18.9158868,school,Wyspa Przedszkolaka. Przedszkole niepubliczne,https://www.google.com/maps/place/Wyspa+Przedszkolaka.+Przedszkole+niepubliczne/data=!4m7!3m6!1s0x46fd6b4377db43f9:0x2bce628f5ac1f6d9!8m2!3d54.336331!4d18.9158868!16s%2Fg%2F1ptybb6nw!19sChIJ-UPbd0Nr_UYR2fbBWo9izis?authuser=0&hl=en&rclk=1
54.3052401,18.9513283,school,School of Smiles,https://www.google.com/maps/place/School+of+Smiles/data=!4m7!3m6!1s0x46fd6b01bd69a091:0xe75a383f7cfad21f!8m2!3d54.3052401!4d18.9513283!16s%2Fg%2F11h7kzr3n1!19sChIJkaBpvQFr_UYRH9L6fD84Wuc?authuser=0&hl=en&rclk=1
54.3338714,18.5424234,school,Publiczne Pozytywne Przedszkole nr 7,https://www.google.com/maps/place/Publiczne+Pozytywne+Przedszkole+nr+7/data=!4m7!3m6!1s0x46fd750c240ada29:0xaa611fcc117fb856!8m2!3d54.3338714!4d18.5424234!16s%2Fg%2F11h_1lcz0j!19sChIJKdoKJAx1_UYRVrh_EcwfYao?authuser=0&hl=en&rclk=1
54.3108256,18.5637068,school,Primary School CET,https://www.google.com/maps/place/Primary+School+CET/data=!4m7!3m6!1s0x46fd76a49c30c8bd:0xd693fba4ed3f7e01!8m2!3d54.3108256!4d18.5637068!16s%2Fg%2F12qfr09lf!19sChIJvcgwnKR2_UYRAX4_7aT7k9Y?authuser=0&hl=en&rclk=1
54.3443206,18.5602341,school,Przedszkole publiczne,https://www.google.com/maps/place/Przedszkole+publiczne/data=!4m7!3m6!1s0x46fd74480816973f:0x976abdee5d50895d!8m2!3d54.3443206!4d18.5602341!16s%2Fg%2F11g9nlhy8t!19sChIJP5cWCEh0_UYRXYlQXe69apc?authuser=0&hl=en&rclk=1
54.3302271,18.5630832,school,Fantazja,https://www.google.com/maps/place/Fantazja/data=!4m7!3m6!1s0x46fd74232221e4c5:0x8d0f8cf74a3d9118!8m2!3d54.3302271!4d18.5630832!16s%2Fg%2F12hnz5j0l!19sChIJxeQhIiN0_UYRGJE9SveMD40?authuser=0&hl=en&rclk=1
54.3454645,18.554106,school,"Niepubliczne Przedszkole ""Zielona Dolina""",https://www.google.com/maps/place/Niepubliczne+Przedszkole+%22Zielona+Dolina%22/data=!4m7!3m6!1s0x46fd7449e945dc27:0xdf4d2d213aed8181!8m2!3d54.3454645!4d18.554106!16s%2Fg%2F1vtzfxqb!19sChIJJ9xF6Ul0_UYRgYHtOiEtTd8?authuser=0&hl=en&rclk=1
54.3324863,18.5971238,school,Morska Szkoła Podstawowa w Gdańsku,https://www.google.com/maps/place/Morska+Szko%C5%82a+Podstawowa+w+Gda%C5%84sku/data=!4m7!3m6!1s0x46fd740bfc144b43:0x6dc29198c13ab678!8m2!3d54.3324863!4d18.5971238!16s%2Fg%2F11f30mg93h!19sChIJQ0sU_At0_UYReLY6wZiRwm0?authuser=0&hl=en&rclk=1
54.34389,18.591393,school,Great Adventure. non-public nursery,https://www.google.com/maps/place/Great+Adventure.+non-public+nursery/data=!4m7!3m6!1s0x46fd746c2cc68857:0xb06113c5242ea703!8m2!3d54.34389!4d18.591393!16s%2Fg%2F1tf68rb2!19sChIJV4jGLGx0_UYRA6cuJMUTYbA?authuser=0&hl=en&rclk=1
54.325668,18.6008304,school,Szkoła Podstawowa Montesorri,https://www.google.com/maps/place/Szko%C5%82a+Podstawowa+Montesorri/data=!4m7!3m6!1s0x46fd73f801c83447:0xc51b41c8d05218f6!8m2!3d54.325668!4d18.6008304!16s%2Fg%2F11h3jj0ph9!19sChIJRzTIAfhz_UYR9hhS0MhBG8U?authuser=0&hl=en&rclk=1
54.330699,18.628622,school,Primary School No. 56,https://www.google.com/maps/place/Primary+School+No.+56/data=!4m7!3m6!1s0x46fd73eced922bdd:0xf2da2d78cc02ea2a!8m2!3d54.330699!4d18.628622!16s%2Fg%2F1tdgnjd0!19sChIJ3SuS7exz_UYRKuoCzHgt2vI?authuser=0&hl=en&rclk=1
54.325491,18.634006,school,Broadway Musical School,https://www.google.com/maps/place/Broadway+Musical+School/data=!4m7!3m6!1s0x46fd73c3932b49d7:0xee8c2ac4a69e9645!8m2!3d54.325491!4d18.634006!16s%2Fg%2F11hkvf5f7g!19sChIJ10krk8Nz_UYRRZaepsQqjO4?authuser=0&hl=en&rclk=1
54.328276,18.638448,school,Primary School. 16,https://www.google.com/maps/place/Primary+School.+16/data=!4m7!3m6!1s0x46fd73c1d39d6821:0xd012a23ec76c0df4!8m2!3d54.328276!4d18.638448!16s%2Fg%2F1tnpjpyk!19sChIJIWid08Fz_UYR9A1sxz6iEtA?authuser=0&hl=en&rclk=1
54.346191,18.6421059,school,Primary School No. 21,https://www.google.com/maps/place/Primary+School+No.+21/data=!4m7!3m6!1s0x46fd73995e48d963:0x807fa995ee660d7f!8m2!3d54.346191!4d18.6421059!16s%2Fg%2F1tfnx8nr!19sChIJY9lIXplz_UYRfw1m7pWpf4A?authuser=0&hl=en&rclk=1
54.3461922,18.6635292,school,Akademia Muzyczna im. Stanisława Moniuszki w Gdańsku,https://www.google.com/maps/place/Akademia+Muzyczna+im.+Stanis%C5%82awa+Moniuszki+w+Gda%C5%84sku/data=!4m7!3m6!1s0x46fd73a689beab97:0x82d7c5b43f9edf90!8m2!3d54.3461922!4d18.6635292!16s%2Fg%2F122z2sz7!19sChIJl6u-iaZz_UYRkN-eP7TF14I?authuser=0&hl=en&rclk=1
54.3463603,18.6656895,school,Publiczne Pozytywne Przedszkole nr 2 Długie Ogrody,https://www.google.com/maps/place/Publiczne+Pozytywne+Przedszkole+nr+2+D%C5%82ugie+Ogrody/data=!4m7!3m6!1s0x46fd73a65d326ad5:0x2d3b244821bcce33!8m2!3d54.3463603!4d18.6656895!16s%2Fg%2F11f50v1sg3!19sChIJ1WoyXaZz_UYRM868IUgkOy0?authuser=0&hl=en&rclk=1
52.3878751,17.030804,school,Poznań British International School,https://www.google.com/maps/place/Pozna%C5%84+British+International+School/data=!4m7!3m6!1s0x470459622ebf791d:0x56c50cb558d1909f!8m2!3d52.3878751!4d17.030804!16s%2Fg%2F1v9gt4lp!19sChIJHXm_LmJZBEcRn5DRWLUMxVY?authuser=0&hl=en&rclk=1
54.3103855,18.5703477,school,Native English Steve - Elite English,https://www.google.com/maps/place/Native+English+Steve+-+Elite+English/data=!4m7!3m6!1s0x46fd76a576bc1ea3:0xdfc53b507b34eec4!8m2!3d54.3103855!4d18.5703477!16s%2Fg%2F11f3jy82tw!19sChIJox68dqV2_UYRxO40e1A7xd8?authuser=0&hl=en&rclk=1
54.3265762,18.5674972,school,Szkoła Podstawowa nr 6,https://www.google.com/maps/place/Szko%C5%82a+Podstawowa+nr+6/data=!4m7!3m6!1s0x46fd75d7b9b05291:0xb57aab40ad468c97!8m2!3d54.3265762!4d18.5674972!16s%2Fg%2F11fn4h4frz!19sChIJkVKwudd1_UYRl4xGrUCrerU?authuser=0&hl=en&rclk=1
54.319175,18.558752,school,Baśniowa Akademia,https://www.google.com/maps/place/Ba%C5%9Bniowa+Akademia/data=!4m7!3m6!1s0x46fd769f9092933d:0xfb119c91685a49b3!8m2!3d54.319175!4d18.558752!16s%2Fg%2F1pp2v04dr!19sChIJPZOSkJ92_UYRs0laaJGcEfs?authuser=0&hl=en&rclk=1
54.322909,18.55747,school,Szkoła Językowa Cool School,https://www.google.com/maps/place/Szko%C5%82a+J%C4%99zykowa+Cool+School/data=!4m7!3m6!1s0x46fd75395aaebd51:0x8bb81d00537e9b81!8m2!3d54.322909!4d18.55747!16s%2Fg%2F11jz0yqbgf!19sChIJUb2uWjl1_UYRgZt-UwAduIs?authuser=0&hl=en&rclk=1
54.3220696,18.6010301,school,Arti-Lingua Babylonia,https://www.google.com/maps/place/Arti-Lingua+Babylonia/data=!4m7!3m6!1s0x46fd73f402fce133:0xe71244d93240253c!8m2!3d54.3220696!4d18.6010301!16s%2Fg%2F1v2jbm4w!19sChIJM-H8AvRz_UYRPCVAMtlEEuc?authuser=0&hl=en&rclk=1
54.319444,18.5838141,school,"Zespół Szkolno-Przedszkolny ""Olimpijczyk""",https://www.google.com/maps/place/Zesp%C3%B3%C5%82+Szkolno-Przedszkolny+%22Olimpijczyk%22/data=!4m7!3m6!1s0x46fd74024509832f:0x487b37c3efa467a0!8m2!3d54.319444!4d18.5838141!16s%2Fg%2F1tg6j78s!19sChIJL4MJRQJ0_UYRoGek78M3e0g?authuser=0&hl=en&rclk=1
54.332789,18.62097,school,Play & Learn,https://www.google.com/maps/place/Play+%26+Learn/data=!4m7!3m6!1s0x46fd73f2ea76259b:0x74b2c812d8882283!8m2!3d54.332789!4d18.62097!16s%2Fg%2F11fm1679ww!19sChIJmyV26vJz_UYRgyKI2BLIsnQ?authuser=0&hl=en&rclk=1
54.326944,18.624748,school,Szkoła Podstawowa nr 19 Zespołu Kształcenia Podstawowego,https://www.google.com/maps/place/Szko%C5%82a+Podstawowa+nr+19+Zespo%C5%82u+Kszta%C5%82cenia+Podstawowego/data=!4m7!3m6!1s0x46fd737d5f447be7:0xd3f87e8550215329!8m2!3d54.326944!4d18.624748!16s%2Fg%2F1tdqmbp1!19sChIJ53tEX31z_UYRKVMhUIV--NM?authuser=0&hl=en&rclk=1
54.3332645,18.6250912,school,Delfinek. Przedszkole,https://www.google.com/maps/place/Delfinek.+Przedszkole/data=!4m7!3m6!1s0x46fd7392b2d893d9:0xcabada2201ea34f8!8m2!3d54.3332645!4d18.6250912!16s%2Fg%2F1tfghj0k!19sChIJ2ZPYspJz_UYR-DTqASLauso?authuser=0&hl=en&rclk=1
54.3239084,18.7428211,school,Szkoła Podstawowa w Przejazdowie,https://www.google.com/maps/place/Szko%C5%82a+Podstawowa+w+Przejazdowie/data=!4m7!3m6!1s0x46fd6d882491a10b:0x98076be251a023ac!8m2!3d54.3239084!4d18.7428211!16s%2Fg%2F11f3rggsf6!19sChIJC6GRJIht_UYRrCOgUeJrB5g?authuser=0&hl=en&rclk=1
54.3121929,18.5611848,school,Szkoła Podstawowa Montessori,https://www.google.com/maps/place/Szko%C5%82a+Podstawowa+Montessori/data=!4m7!3m6!1s0x46fd76a3a7e5cbbd:0xca312b5273d539f7!8m2!3d54.3121929!4d18.5611848!16s%2Fg%2F11csp7fkg3!19sChIJvcvlp6N2_UYR9znVc1IrMco?authuser=0&hl=en&rclk=1
54.3123409,18.5607745,school,Skrawek Nieba,https://www.google.com/maps/place/Skrawek+Nieba/data=!4m7!3m6!1s0x46fd76a3a8d9a299:0x622cd15c8ca93020!8m2!3d54.3123409!4d18.5607745!16s%2Fg%2F11cs5vb0s6!19sChIJmaLZqKN2_UYRIDCpjFzRLGI?authuser=0&hl=en&rclk=1
54.3136391,18.5636271,school,Liceum Błeńskiej,https://www.google.com/maps/place/Liceum+B%C5%82e%C5%84skiej/data=!4m7!3m6!1s0x46fd71ef2702cf3b:0x6d05db129a5a9453!8m2!3d54.3136391!4d18.5636271!16s%2Fg%2F11fklbg1p3!19sChIJO88CJ-9x_UYRU5RamhLbBW0?authuser=0&hl=en&rclk=1
54.3141772,18.5912911,school,Language School New Horizons,https://www.google.com/maps/place/Language+School+New+Horizons/data=!4m7!3m6!1s0x46fd739d18fd2613:0x33c9b989bd105b6a!8m2!3d54.3141772!4d18.5912911!16s%2Fg%2F11fy54tv5c!19sChIJEyb9GJ1z_UYRalsQvYm5yTM?authuser=0&hl=en&rclk=1
54.3162634,18.5896402,school,Primary School No. 86,https://www.google.com/maps/place/Primary+School+No.+86/data=!4m7!3m6!1s0x46fd74002aa56fe5:0x3d6bf83dbbe7989d!8m2!3d54.3162634!4d18.5896402!16s%2Fg%2F1tt89z1s!19sChIJ5W-lKgB0_UYRnZjnuz34az0?authuser=0&hl=en&rclk=1
54.326302,18.609527,school,Przedszkole Niepubliczne Marchewka,https://www.google.com/maps/place/Przedszkole+Niepubliczne+Marchewka/data=!4m7!3m6!1s0x46fd73f0cca663c5:0xc670788cf41d6e25!8m2!3d54.326302!4d18.609527!16s%2Fg%2F12hvs_8vk!19sChIJxWOmzPBz_UYRJW4d9Ix4cMY?authuser=0&hl=en&rclk=1
54.3238194,18.6324718,school,Positive Public Kindergarten No. 3 in Gdansk,https://www.google.com/maps/place/Positive+Public+Kindergarten+No.+3+in+Gdansk/data=!4m7!3m6!1s0x46fd73e9b5ec1c75:0x5ee1820a417c34d!8m2!3d54.3238194!4d18.6324718!16s%2Fg%2F11dyx99pz5!19sChIJdRzstelz_UYRTcMXpCAY7gU?authuser=0&hl=en&rclk=1
54.3235682,18.6369123,school,Krasnal. Niepubliczne przedszkole. Brzoskowska-Hańska I.,https://www.google.com/maps/place/Krasnal.+Niepubliczne+przedszkole.+Brzoskowska-Ha%C5%84ska+I./data=!4m7!3m6!1s0x46fd73c25d40d6c9:0xebc94d275c97bea9!8m2!3d54.3235682!4d18.6369123!16s%2Fg%2F1td8xthj!19sChIJydZAXcJz_UYRqb6XXCdNyes?authuser=0&hl=en&rclk=1
54.319859,18.6358818,school,Technikum nr 8,https://www.google.com/maps/place/Technikum+nr+8/data=!4m7!3m6!1s0x46fd73a1f55e49c5:0xd2ff5d49e2f8af51!8m2!3d54.319859!4d18.6358818!16s%2Fg%2F1tctw7rx!19sChIJxUle9aFz_UYRUa_44kld_9I?authuser=0&hl=en&rclk=1
54.2567288,18.4787034,school,Primary School in Pręgowo,https://www.google.com/maps/place/Primary+School+in+Pr%C4%99gowo/data=!4m7!3m6!1s0x46fd77babc32cdcf:0xc583c6079fb000a6!8m2!3d54.2567288!4d18.4787034!16s%2Fg%2F1ptxgf8fb!19sChIJz80yvLp3_UYRpgCwnwfGg8U?authuser=0&hl=en&rclk=1
54.3074085,18.570317,school,Szkoła Podstawowa,https://www.google.com/maps/place/Szko%C5%82a+Podstawowa/data=!4m7!3m6!1s0x46fd771114c70f37:0x69e360c085b6970e!8m2!3d54.3074085!4d18.570317!16s%2Fg%2F11f9y4kx7d!19sChIJNw_HFBF3_UYRDpe2hcBg42k?authuser=0&hl=en&rclk=1
54.3015321,18.5769689,school,Przedszkole Niepubliczne Horyzoncik,https://www.google.com/maps/place/Przedszkole+Niepubliczne+Horyzoncik/data=!4m7!3m6!1s0x46fd7148ca350967:0xd821ecd89d36426d!8m2!3d54.3015321!4d18.5769689!16s%2Fg%2F1tgbzg5s!19sChIJZwk1ykhx_UYRbUI2ndjsIdg?authuser=0&hl=en&rclk=1
54.3128976,18.5849836,school,Wesołe Krasnalki,https://www.google.com/maps/place/Weso%C5%82e+Krasnalki/data=!4m7!3m6!1s0x46fd77f85e4510b9:0xbdb52c68fb9cf097!8m2!3d54.3128976!4d18.5849836!16s%2Fg%2F11jx5rc10y!19sChIJuRBFXvh3_UYRl_Cc-2gstb0?authuser=0&hl=en&rclk=1
54.2980177,18.5961529,school,Public Primary School them. J. Brzechwy,https://www.google.com/maps/place/Public+Primary+School+them.+J.+Brzechwy/data=!4m7!3m6!1s0x46fd7148ca2c5f27:0xd8cb5ad978e53709!8m2!3d54.2980177!4d18.5961529!16s%2Fg%2F1hc8m4xmg!19sChIJJ18sykhx_UYRCTfleNlay9g?authuser=0&hl=en&rclk=1
54.3021011,18.6300199,school,Przedszkole nr 24,https://www.google.com/maps/place/Przedszkole+nr+24/data=!4m7!3m6!1s0x46fd71643996b171:0xd04502ffee4f0d41!8m2!3d54.3021011!4d18.6300199!16s%2Fg%2F1vd3th1k!19sChIJcbGWOWRx_UYRQQ1P7v8CRdA?authuser=0&hl=en&rclk=1
54.2597287,18.6337055,school,Yes Your English School. Szkoła języków obcych,https://www.google.com/maps/place/Yes+Your+English+School.+Szko%C5%82a+j%C4%99zyk%C3%B3w+obcych/data=!4m7!3m6!1s0x46fd705b08a80ded:0xd6b5bce39c8489a2!8m2!3d54.2597287!4d18.6337055!16s%2Fg%2F1tdqmbnw!19sChIJ7Q2oCFtw_UYRoomEnOO8tdY?authuser=0&hl=en&rclk=1
54.2838885,18.6365668,school,Primary School No. 40,https://www.google.com/maps/place/Primary+School+No.+40/data=!4m7!3m6!1s0x46fd710c39eefb93:0x77e4914748edbc1d!8m2!3d54.2838885!4d18.6365668!16s%2Fg%2F1tfxwqjh!19sChIJk_vuOQxx_UYRHbztSEeR5Hc?authuser=0&hl=en&rclk=1
54.2942085,18.533564,school,Przedszkole niepubliczne w Bąkowie,https://www.google.com/maps/place/Przedszkole+niepubliczne+w+B%C4%85kowie/data=!4m7!3m6!1s0x46fd76ef796865fd:0xfbb26c1ab969cbb2!8m2!3d54.2942085!4d18.533564!16s%2Fg%2F1th22hcy!19sChIJ_WVoee92_UYRsstpuRpssvs?authuser=0&hl=en&rclk=1
54.2738248,18.581593,school,Straszyn School Complex,https://www.google.com/maps/place/Straszyn+School+Complex/data=!4m7!3m6!1s0x46fd71287c632337:0xae2d8c48875bc982!8m2!3d54.2738248!4d18.581593!16s%2Fg%2F1t_th_5m!19sChIJNyNjfChx_UYRgslbh0iMLa4?authuser=0&hl=en&rclk=1
54.3067577,18.5687835,school,PRZEDSZKOLE W KOWALACH,https://www.google.com/maps/place/PRZEDSZKOLE+W+KOWALACH/data=!4m7!3m6!1s0x46fd76b07c8efc27:0x9ebbd57450c27451!8m2!3d54.3067577!4d18.5687835!16s%2Fg%2F11g_w_mkft!19sChIJJ_yOfLB2_UYRUXTCUHTVu54?authuser=0&hl=en&rclk=1
54.2947608,18.557619,school,"Niepubliczne Przedszkole ""Jestem""",https://www.google.com/maps/place/Niepubliczne+Przedszkole+%22Jestem%22/data=!4m7!3m6!1s0x46fd76c6618a9415:0x18d1ff98ce188be8!8m2!3d54.2947608!4d18.557619!16s%2Fg%2F1pv3g0qy4!19sChIJFZSKYcZ2_UYR6IsYzpj_0Rg?authuser=0&hl=en&rclk=1
52.2020557,20.9613066,school,Thames British School (Park Szczesliwicki Campus),https://www.google.com/maps/place/Thames+British+School+(Park+Szczesliwicki+Campus)/data=!4m7!3m6!1s0x4719332a269a5721:0x73c8fa3b8a2a4165!8m2!3d52.2020557!4d20.9613066!16s%2Fg%2F11glx3xw06!19sChIJIVeaJiozGUcRZUEqijv6yHM?authuser=0&hl=en&rclk=1
52.1917217,20.9988728,school,Canadian Primary School,https://www.google.com/maps/place/Canadian+Primary+School/data=!4m7!3m6!1s0x4719332db3146857:0xa61685c84558da2!8m2!3d52.1917217!4d20.9988728!16s%2Fg%2F1tlkb3ld!19sChIJV2gUsy0zGUcRoo1VhFxoYQo?authuser=0&hl=en&rclk=1
51.7565029,19.472305,school,British International School of Universty of Lodz,https://www.google.com/maps/place/British+International+School+of+Universty+of+Lodz/data=!4m7!3m6!1s0x471a35c9950182d1:0x1c41c43790e2a5d9!8m2!3d51.7565029!4d19.472305!16s%2Fg%2F11j25961bk!19sChIJ0YIBlck1GkcR2aXikDfEQRw?authuser=0&hl=en&rclk=1
52.1129649,21.1160284,school,American School of Warsaw,https://www.google.com/maps/place/American+School+of+Warsaw/data=!4m7!3m6!1s0x47192c46d983bfd1:0x8369cf9d1674a8d1!8m2!3d52.1129649!4d21.1160284!16s%2Fm%2F051zww6!19sChIJ0b-D2UYsGUcR0ah0Fp3PaYM?authuser=0&hl=en&rclk=1
52.2166733,20.9844247,school,Thames British School (Wawelska Campus),https://www.google.com/maps/place/Thames+British+School+(Wawelska+Campus)/data=!4m7!3m6!1s0x471eccbc59ae3939:0xb20cfd70d4be8f86!8m2!3d52.2166733!4d20.9844247!16s%2Fg%2F1tph0h8s!19sChIJOTmuWbzMHkcRho--1HD9DLI?authuser=0&hl=en&rclk=1
54.2830283,18.5048595,school,Zespół Kształcenia i Wychowania w Lublewie Gdańskim,https://www.google.com/maps/place/Zesp%C3%B3%C5%82+Kszta%C5%82cenia+i+Wychowania+w+Lublewie+Gda%C5%84skim/data=!4m7!3m6!1s0x46fd77018052483f:0x693a2e3dfc9ba805!8m2!3d54.2830283!4d18.5048595!16s%2Fg%2F1trqfxp0!19sChIJP0hSgAF3_UYRBaib_D0uOmk?authuser=0&hl=en&rclk=1
54.275427,18.57647,school,Niepubliczne Przedszkole,https://www.google.com/maps/place/Niepubliczne+Przedszkole/data=!4m7!3m6!1s0x46fd7129a3f335bd:0xe8f74e9c207d7275!8m2!3d54.275427!4d18.57647!16s%2Fg%2F11b6gdlnqm!19sChIJvTXzoylx_UYRdXJ9IJxO9-g?authuser=0&hl=en&rclk=1
54.274756,18.605377,school,"Publiczne ""Przedszkole Rodzinne Rotmanka""",https://www.google.com/maps/place/Publiczne+%22Przedszkole+Rodzinne+Rotmanka%22/data=!4m7!3m6!1s0x46fd716198908acb:0xc9cfadd266f14739!8m2!3d54.274756!4d18.605377!16s%2Fg%2F11h0msw0lh!19sChIJy4qQmGFx_UYROUfxZtKtz8k?authuser=0&hl=en&rclk=1
54.2693811,18.6087584,school,Szkoła Podstawowa w Rotmance im. Karola Wojtyły,https://www.google.com/maps/place/Szko%C5%82a+Podstawowa+w+Rotmance+im.+Karola+Wojty%C5%82y/data=!4m7!3m6!1s0x46fd711da03b0f7d:0xd41b0e408be37a45!8m2!3d54.2693811!4d18.6087584!16s%2Fg%2F1ptwflkd6!19sChIJfQ87oB1x_UYRRXrji0AOG9Q?authuser=0&hl=en&rclk=1
54.2637384,18.6343016,school,Zespół Szkół Ogrodniczych i Ogólnokształcących,https://www.google.com/maps/place/Zesp%C3%B3%C5%82+Szk%C3%B3%C5%82+Ogrodniczych+i+Og%C3%B3lnokszta%C5%82c%C4%85cych/data=!4m7!3m6!1s0x46fd7053f54f4757:0x56845a1cf88997d4!8m2!3d54.2637384!4d18.6343016!16s%2Fg%2F1tg4_375!19sChIJV0dP9VNw_UYR1JeJ-BxahFY?authuser=0&hl=en&rclk=1
54.262441,18.6344322,school,Katolicka Niepubliczna Szkoła Podstawowa,https://www.google.com/maps/place/Katolicka+Niepubliczna+Szko%C5%82a+Podstawowa/data=!4m7!3m6!1s0x46fd7053f54f4757:0x5c141a050b5859b4!8m2!3d54.262441!4d18.6344322!16s%2Fg%2F1tf7l7ny!19sChIJV0dP9VNw_UYRtFlYCwUaFFw?authuser=0&hl=en&rclk=1
54.2709942,18.677863,school,Private Kindergarten Neverland,https://www.google.com/maps/place/Private+Kindergarten+Neverland/data=!4m7!3m6!1s0x46fd71c42adcc5cd:0xadb523e5e77d54d8!8m2!3d54.2709942!4d18.677863!16s%2Fg%2F1pzxfvmw0!19sChIJzcXcKsRx_UYR2FR95-Ujta0?authuser=0&hl=en&rclk=1
54.2632021,18.6784428,school,Akademia Montessori,https://www.google.com/maps/place/Akademia+Montessori/data=!4m7!3m6!1s0x46fd71ce6ee9ff25:0x6ad6741739a31000!8m2!3d54.2632021!4d18.6784428!16s%2Fg%2F1tdq98b2!19sChIJJf_pbs5x_UYRABCjORd01mo?authuser=0&hl=en&rclk=1
54.2615419,18.6505372,school,High School No 1 in Pruszczu Gdansk,https://www.google.com/maps/place/High+School+No+1+in+Pruszczu+Gdansk/data=!4m7!3m6!1s0x46fd71b34c9d39cf:0xaa5455d1dfcde9f0!8m2!3d54.2615419!4d18.6505372!16s%2Fg%2F1tdn7c6_!19sChIJzzmdTLNx_UYR8OnN39FVVKo?authuser=0&hl=en&rclk=1
54.2736487,18.774518,school,Szkoła Podstawowa,https://www.google.com/maps/place/Szko%C5%82a+Podstawowa/data=!4m7!3m6!1s0x46fd6e635985d05b:0x8fe07dea1cbb54b2!8m2!3d54.2736487!4d18.774518!16s%2Fg%2F1tfnx8nd!19sChIJW9CFWWNu_UYRslS7HOp94I8?authuser=0&hl=en&rclk=1
54.2690093,18.4659252,school,Akademia Przedszkolaka w Kolbudach,https://www.google.com/maps/place/Akademia+Przedszkolaka+w+Kolbudach/data=!4m7!3m6!1s0x46fd779d00506b31:0xdfbf6be013f57367!8m2!3d54.2690093!4d18.4659252!16s%2Fg%2F11gh47r036!19sChIJMWtQAJ13_UYRZ3P1E-Brv98?authuser=0&hl=en&rclk=1
54.2683054,18.6140501,school,Żłobek Klub dziecięcy Żabki Łapki,https://www.google.com/maps/place/%C5%BB%C5%82obek+Klub+dzieci%C4%99cy+%C5%BBabki+%C5%81apki/data=!4m7!3m6!1s0x46fd71ddea06585b:0x837dfda0cba83738!8m2!3d54.2683054!4d18.6140501!16s%2Fg%2F11qt3z65bz!19sChIJW1gG6t1x_UYRODeoy6D9fYM?authuser=0&hl=en&rclk=1
54.260714,18.6282809,school,School 2,https://www.google.com/maps/place/School+2/data=!4m7!3m6!1s0x46fd7055bf023d59:0x1db968558703991d!8m2!3d54.260714!4d18.6282809!16s%2Fg%2F1hhgp5hbq!19sChIJWT0Cv1Vw_UYRHZkDh1VouR0?authuser=0&hl=en&rclk=1
54.2647606,18.6520419,school,"Szkoła Podstawowa nr 1 - filia ""Jedyneczka""",https://www.google.com/maps/place/Szko%C5%82a+Podstawowa+nr+1+-+filia+%22Jedyneczka%22/data=!4m7!3m6!1s0x46fd71917647da45:0xe35ddea92992118a!8m2!3d54.2647606!4d18.6520419!16s%2Fg%2F11frplyg3_!19sChIJRdpHdpFx_UYRihGSKaneXeM?authuser=0&hl=en&rclk=1
54.2673552,18.6713192,school,Akademia Montessori Niepubliczna Szkoła Podstawowa,https://www.google.com/maps/place/Akademia+Montessori+Niepubliczna+Szko%C5%82a+Podstawowa/data=!4m7!3m6!1s0x46fd7034444a0c7f:0xa2a05c68ad3860f4!8m2!3d54.2673552!4d18.6713192!16s%2Fg%2F1ptxms50h!19sChIJfwxKRDRw_UYR9GA4rWhcoKI?authuser=0&hl=en&rclk=1
54.2638111,18.6697626,school,Szkoła Podstawowa nr 4 im. I. J. Paderewskiego,https://www.google.com/maps/place/Szko%C5%82a+Podstawowa+nr+4+im.+I.+J.+Paderewskiego/data=!4m7!3m6!1s0x46fd71b60220f487:0x444e93a74c2f6590!8m2!3d54.2638111!4d18.6697626!16s%2Fg%2F1tcwk7vz!19sChIJh_QgArZx_UYRkGUvTKeTTkQ?authuser=0&hl=en&rclk=1
54.2645282,18.6721446,school,Publiczne Przedszkole „Czwóreczka”,https://www.google.com/maps/place/Publiczne+Przedszkole+%E2%80%9ECzw%C3%B3reczka%E2%80%9D/data=!4m7!3m6!1s0x46fd71c94cf1d9b5:0x1881f646aff0a89c!8m2!3d54.2645282!4d18.6721446!16s%2Fg%2F11c1p7dx88!19sChIJtdnxTMlx_UYRnKjwr0b2gRg?authuser=0&hl=en&rclk=1
54.2655386,18.6757422,school,Przedszkole Żłobek Radosna Iskierka,https://www.google.com/maps/place/Przedszkole+%C5%BB%C5%82obek+Radosna+Iskierka/data=!4m7!3m6!1s0x46fd71cbbd6e6423:0x514071dd3ff8a361!8m2!3d54.2655386!4d18.6757422!16s%2Fg%2F1hc3j__r7!19sChIJI2Ruvctx_UYRYaP4P91xQFE?authuser=0&hl=en&rclk=1
