lat,lon,type,title,link
54.436173,18.468528,shop,Ambergifts.shop,https://www.google.com/maps/place/Ambergifts.shop/data=!4m7!3m6!1s0x46fda1268b78af03:0xc6e76849be4791!8m2!3d54.436173!4d18.468528!16s%2Fg%2F11j0cxh2ms!19sChIJA694iyah_UYRkUe-SWjnxgA?authuser=0&hl=en&rclk=1
54.4500092,18.3872485,shop,Swappy.shop,https://www.google.com/maps/place/Swappy.shop/data=!4m7!3m6!1s0x46fda301707de5c3:0x2f7fca39aba8ead3!8m2!3d54.4500092!4d18.3872485!16s%2Fg%2F11pzg46yb_!19sChIJw-V9cAGj_UYR0-qoqznKfy8?authuser=0&hl=en&rclk=1
51.9537505,19.1343786,shop,Football Thrift Shop,https://www.google.com/maps/place/Football+Thrift+Shop/data=!4m7!3m6!1s0xa80a5e898ec286b1:0x6cf688c825e1433d!8m2!3d51.9537505!4d19.1343786!16s%2Fg%2F11sprwwgl3!19sChIJsYbCjoleCqgRPUPhJciI9mw?authuser=0&hl=en&rclk=1
54.4433187,18.4190953,shop,Lovely Gift Trójmiasto,https://www.google.com/maps/place/Lovely+Gift+Tr%C3%B3jmiasto/data=!4m7!3m6!1s0x46fda169f0c3a4c3:0x59207c085845b6e4!8m2!3d54.4433187!4d18.4190953!16s%2Fg%2F11k66q2wqy!19sChIJw6TD8Gmh_UYR5LZFWAh8IFk?authuser=0&hl=en&rclk=1
54.4428303,18.4162764,shop,PEPCO,https://www.google.com/maps/place/PEPCO/data=!4m7!3m6!1s0x46fda1b74d6569f1:0x62866101c064efeb!8m2!3d54.4428303!4d18.4162764!16s%2Fg%2F11g1dyxv_7!19sChIJ8WllTbeh_UYR6-9kwAFhhmI?authuser=0&hl=en&rclk=1
54.474304,18.551943,shop,Bestbrandsshop,https://www.google.com/maps/place/Bestbrandsshop/data=!4m7!3m6!1s0x46fda09bc3000001:0xefa93d830d353ab7!8m2!3d54.474304!4d18.551943!16s%2Fg%2F11g9w5q0z9!19sChIJAQAAw5ug_UYRtzo1DYM9qe8?authuser=0&hl=en&rclk=1
54.4442553,18.4291655,shop,SYSTEM-K,https://www.google.com/maps/place/SYSTEM-K/data=!4m7!3m6!1s0x46fda1d7c308cc25:0x812c8a0a0e83e633!8m2!3d54.4442553!4d18.4291655!16s%2Fg%2F12cplhsdq!19sChIJJcwIw9eh_UYRM-aDDgqKLIE?authuser=0&hl=en&rclk=1
54.4434354,18.4160468,shop,Gzella Sklep Firmowy,https://www.google.com/maps/place/Gzella+Sklep+Firmowy/data=!4m7!3m6!1s0x46fda170fc291505:0xc789c2c72204f000!8m2!3d54.4434354!4d18.4160468!16s%2Fg%2F11gnsdyyxw!19sChIJBRUp_HCh_UYRAPAEIsfCicc?authuser=0&hl=en&rclk=1
54.442363,18.4179555,shop,Gosz CHWASZCZYNO Sklep Mięsny,https://www.google.com/maps/place/Gosz+CHWASZCZYNO+Sklep+Mi%C4%99sny/data=!4m7!3m6!1s0x46fda1e51f0d2163:0x68eef1b9e8da5d25!8m2!3d54.442363!4d18.4179555!16s%2Fg%2F11gdkqgzkz!19sChIJYyENH-Wh_UYRJV3a6Lnx7mg?authuser=0&hl=en&rclk=1
54.4508587,18.4569672,shop,Żabka,https://www.google.com/maps/place/%C5%BBabka/data=!4m7!3m6!1s0x46fda1f39f382935:0x4f899c908f4ac4f8!8m2!3d54.4508587!4d18.4569672!16s%2Fg%2F11p5rfj0v3!19sChIJNSk4n_Oh_UYR-MRKj5CciU8?authuser=0&hl=en&rclk=1
54.4570685,18.4621775,shop,Almarine Trade a.i. Humbi.pl,https://www.google.com/maps/place/Almarine+Trade+a.i.+Humbi.pl/data=!4m7!3m6!1s0x46fda1b0967172f5:0x5e9cf274f559e7aa!8m2!3d54.4570685!4d18.4621775!16s%2Fg%2F11cnbmkjqr!19sChIJ9XJxlrCh_UYRqudZ9XTynF4?authuser=0&hl=en&rclk=1
54.4574797,18.452549,shop,Mobilna Wulkanizacja Gdynia,https://www.google.com/maps/place/Mobilna+Wulkanizacja+Gdynia/data=!4m7!3m6!1s0x46fda13537fef2e1:0x28a191c277a99fc3!8m2!3d54.4574797!4d18.452549!16s%2Fg%2F11jslwvsm2!19sChIJ4fL-NzWh_UYRw5-pd8KRoSg?authuser=0&hl=en&rclk=1
54.4422233,18.4514322,shop,Inwood Design,https://www.google.com/maps/place/Inwood+Design/data=!4m7!3m6!1s0x46fda1b76583015d:0xe7121fb18f54bb16!8m2!3d54.4422233!4d18.4514322!16s%2Fg%2F11h4_d_x2w!19sChIJXQGDZbeh_UYRFrtUj7EfEuc?authuser=0&hl=en&rclk=1
54.4599958,18.4633188,shop,Sofotel.pl,https://www.google.com/maps/place/Sofotel.pl/data=!4m7!3m6!1s0x46fda177de96642d:0x837963c6dd09ca25!8m2!3d54.4599958!4d18.4633188!16s%2Fg%2F11fjxp05yf!19sChIJLWSW3neh_UYRJcoJ3cZjeYM?authuser=0&hl=en&rclk=1
54.4440018,18.4536518,shop,ŻALUZJE OKIENNE ZPU.Tadeusz Littwin,https://www.google.com/maps/place/%C5%BBALUZJE+OKIENNE+ZPU.Tadeusz+Littwin/data=!4m7!3m6!1s0x46fda1cf5d78dbfb:0x8666cd743d82e978!8m2!3d54.4440018!4d18.4536518!16s%2Fg%2F1tdbvf_3!19sChIJ-9t4Xc-h_UYReOmCPXTNZoY?authuser=0&hl=en&rclk=1
54.4704225,18.5020484,shop,"Vapefury® Vape shop Gdynia Karwiny: E-Papierosy, Liquidy, Premixy, Mody","https://www.google.com/maps/place/Vapefury%C2%AE+Vape+shop+Gdynia+Karwiny:+E-Papierosy,+Liquidy,+Premixy,+Mody/data=!4m7!3m6!1s0x46fda11bfd2d432b:0x1c6b868db1a54fc0!8m2!3d54.4704225!4d18.5020484!16s%2Fg%2F11fd8gjqbb!19sChIJK0Mt_Ruh_UYRwE-lsY2Gaxw?authuser=0&hl=en&rclk=1"
53.3413067,19.8144204,shop,D&D Shop,https://www.google.com/maps/place/D%26D+Shop/data=!4m7!3m6!1s0xe69ef7597057e71:0x4578250f4699d523!8m2!3d53.3413067!4d19.8144204!16s%2Fg%2F11pd2y322n!19sChIJcX4Fl3XvaQ4RI9WZRg8leEU?authuser=0&hl=en&rclk=1
54.4704063,18.51537,shop,Gzella. Meat Shop,https://www.google.com/maps/place/Gzella.+Meat+Shop/data=!4m7!3m6!1s0x46fda0f697b5cbff:0x501745ebd33571e0!8m2!3d54.4704063!4d18.51537!16s%2Fg%2F11c6mcjfhj!19sChIJ_8u1l_ag_UYR4HE10-tFF1A?authuser=0&hl=en&rclk=1
54.5195696,18.5409727,shop,Żappka Store 24/7,https://www.google.com/maps/place/%C5%BBappka+Store+24%2F7/data=!4m7!3m6!1s0x46fda765f0963e75:0x7f84db025aa550c8!8m2!3d54.5195696!4d18.5409727!16s%2Fg%2F11rtlc16yr!19sChIJdT6W8GWn_UYRyFClWgLbhH8?authuser=0&hl=en&rclk=1
54.3229203,18.3010187,shop,Glam-Shop.pl (Glam Hanna Knopińska - Dawid),https://www.google.com/maps/place/Glam-Shop.pl+(Glam+Hanna+Knopi%C5%84ska+-+Dawid)/data=!4m7!3m6!1s0x46fd9b68c32b10b9:0x8b55728ddad06a8d!8m2!3d54.3229203!4d18.3010187!16s%2Fg%2F11j682zjpk!19sChIJuRArw2ib_UYRjWrQ2o1yVYs?authuser=0&hl=en&rclk=1
54.4599936,18.4633197,shop,Shop dmuchane.pl - Global Income a.i.,https://www.google.com/maps/place/Shop+dmuchane.pl+-+Global+Income+a.i./data=!4m7!3m6!1s0x46fda7203ee068dd:0x2c5ba00c84986c97!8m2!3d54.4599936!4d18.4633197!16s%2Fg%2F1tjys9d4!19sChIJ3WjgPiCn_UYRl2yYhAygWyw?authuser=0&hl=en&rclk=1
54.428407,18.479232,shop,Electrical Shop WZUH Zbigniew Łoś,https://www.google.com/maps/place/Electrical+Shop+WZUH+Zbigniew+%C5%81o%C5%9B/data=!4m7!3m6!1s0x46fda0263f088687:0x4d87411bab5594d6!8m2!3d54.428407!4d18.479232!16s%2Fg%2F1tjgz1hz!19sChIJh4YIPyag_UYR1pRVqxtBh00?authuser=0&hl=en&rclk=1
54.4421815,18.563721,shop,Sopot Loves You Souvenir Shop,https://www.google.com/maps/place/Sopot+Loves+You+Souvenir+Shop/data=!4m7!3m6!1s0x46fd0bc0be2daf2b:0x301c5c4e33296fd0!8m2!3d54.4421815!4d18.563721!16s%2Fg%2F11hz9d0ty9!19sChIJK68tvsAL_UYR0G8pM05cHDA?authuser=0&hl=en&rclk=1
54.450348,18.561663,shop,Sport Shop Lech Sokołowski,https://www.google.com/maps/place/Sport+Shop+Lech+Soko%C5%82owski/data=!4m7!3m6!1s0x46fd0a8f80c5dfd1:0x59f7634bec6509c4!8m2!3d54.450348!4d18.561663!16s%2Fg%2F1tffbwtj!19sChIJ0d_FgI8K_UYRxAll7Etj91k?authuser=0&hl=en&rclk=1
54.430952,18.562198,shop,Shop All-day Goshia,https://www.google.com/maps/place/Shop+All-day+Goshia/data=!4m7!3m6!1s0x46fd0abef6787671:0xf0b9b8d50f8b2c3b!8m2!3d54.430952!4d18.562198!16s%2Fg%2F1tj29q0m!19sChIJcXZ49r4K_UYROyyLD9W4ufA?authuser=0&hl=en&rclk=1
54.444045,18.5606179,shop,Souvenir. Biuro handlowe,https://www.google.com/maps/place/Souvenir.+Biuro+handlowe/data=!4m7!3m6!1s0x46fd0a9072df361d:0x196c4162b5a56fb7!8m2!3d54.444045!4d18.5606179!16s%2Fg%2F1tsyhwy5!19sChIJHTbfcpAK_UYRt2-ltWJBbBk?authuser=0&hl=en&rclk=1
54.444802,18.5670188,shop,Fameline,https://www.google.com/maps/place/Fameline/data=!4m7!3m6!1s0x46fd0a8e1f468779:0x2beebdaf39c828a2!8m2!3d54.444802!4d18.5670188!16s%2Fg%2F1hc5pn177!19sChIJeYdGH44K_UYRoijIOa-97is?authuser=0&hl=en&rclk=1
54.4324997,18.5738313,shop,Sklep,https://www.google.com/maps/place/Sklep/data=!4m7!3m6!1s0x46fd0bda650e946b:0x622cd0e0becb7466!8m2!3d54.4324997!4d18.5738313!16s%2Fg%2F11sbd4t6c2!19sChIJa5QOZdoL_UYRZnTLvuDQLGI?authuser=0&hl=en&rclk=1
54.4454612,18.5696072,shop,Let's Art Concept Store,https://www.google.com/maps/place/Let's+Art+Concept+Store/data=!4m7!3m6!1s0x46fd0a8e74d9f565:0x80122c2f3523f25e!8m2!3d54.4454612!4d18.5696072!16s%2Fg%2F1tcxbx29!19sChIJZfXZdI4K_UYRXvIjNS8sEoA?authuser=0&hl=en&rclk=1
54.445816,18.568683,shop,HELLY HANSEN SOPOT,https://www.google.com/maps/place/HELLY+HANSEN+SOPOT/data=!4m7!3m6!1s0x46fd0a8e6feb4149:0xd7fcacea9de2290c!8m2!3d54.445816!4d18.568683!16s%2Fg%2F1thhj5y9!19sChIJSUHrb44K_UYRDCnineqs_Nc?authuser=0&hl=en&rclk=1
54.4435701,18.565439,shop,Sweet Factory Store,https://www.google.com/maps/place/Sweet+Factory+Store/data=!4m7!3m6!1s0x46fd0bf9bb0657c9:0x8320c3fe3e66c247!8m2!3d54.4435701!4d18.565439!16s%2Fg%2F11gxn54bz6!19sChIJyVcGu_kL_UYRR8JmPv7DIIM?authuser=0&hl=en&rclk=1
54.443203,18.561552,shop,PROSTO SOPOT,https://www.google.com/maps/place/PROSTO+SOPOT/data=!4m7!3m6!1s0x46fd0a92e256dcb5:0x26e880c9228445e3!8m2!3d54.443203!4d18.561552!16s%2Fg%2F1ts1qy58!19sChIJtdxW4pIK_UYR40WEIsmA6CY?authuser=0&hl=en&rclk=1
54.4410185,18.4161373,shop,Parkur. Sklep Jeździecki stacjonarnie i online,https://www.google.com/maps/place/Parkur.+Sklep+Je%C5%BAdziecki+stacjonarnie+i+online/data=!4m7!3m6!1s0x46fda1e4b9ff6dd1:0x76466366ccd9d6a0!8m2!3d54.4410185!4d18.4161373!16s%2Fg%2F11xgsgr_f!19sChIJ0W3_ueSh_UYRoNbZzGZjRnY?authuser=0&hl=en&rclk=1
54.4403577,18.4133071,shop,Kem. Murawski K.,https://www.google.com/maps/place/Kem.+Murawski+K./data=!4m7!3m6!1s0x46fda0ee2d12978d:0xae240a33e5c7f68f!8m2!3d54.4403577!4d18.4133071!16s%2Fg%2F1hc5jff44!19sChIJjZcSLe6g_UYRj_bH5TMKJK4?authuser=0&hl=en&rclk=1
54.4317332,18.4704782,shop,Biedronka,https://www.google.com/maps/place/Biedronka/data=!4m7!3m6!1s0x46fda1b4a09278e5:0xaf0cfd41b10ea184!8m2!3d54.4317332!4d18.4704782!16s%2Fg%2F11qpvqcwz_!19sChIJ5XiSoLSh_UYRhKEOsUH9DK8?authuser=0&hl=en&rclk=1
54.4330695,18.4693161,shop,ABCRIDE sklep sportowy | Burton Snowboard | Rowery Trek |,https://www.google.com/maps/place/ABCRIDE+sklep+sportowy+%7C+Burton+Snowboard+%7C+Rowery+Trek+%7C/data=!4m7!3m6!1s0x46fda0c6430857ef:0xcb89dacd1cb990fc!8m2!3d54.4330695!4d18.4693161!16s%2Fg%2F1tk1lpgh!19sChIJ71cIQ8ag_UYR_JC5HM3aics?authuser=0&hl=en&rclk=1
54.4145202,18.467266,shop,Monter Shop Samoobsługowa Hurtownia Instalacyjna Gdańsk,https://www.google.com/maps/place/Monter+Shop+Samoobs%C5%82ugowa+Hurtownia+Instalacyjna+Gda%C5%84sk/data=!4m7!3m6!1s0x46fd9fdf53d1770d:0x4c609f53b62b74d3!8m2!3d54.4145202!4d18.467266!16s%2Fg%2F11rwllm9hk!19sChIJDXfRU9-f_UYR03QrtlOfYEw?authuser=0&hl=en&rclk=1
54.4300055,18.4694158,shop,Żabka,https://www.google.com/maps/place/%C5%BBabka/data=!4m7!3m6!1s0x46fda1b7e9a0474d:0xa635d400025c06ad!8m2!3d54.4300055!4d18.4694158!16s%2Fg%2F11grpt4sdq!19sChIJTUeg6beh_UYRrQZcAgDUNaY?authuser=0&hl=en&rclk=1
54.4279414,18.4643471,shop,Wulkanizacja 24h Gdansk,https://www.google.com/maps/place/Wulkanizacja+24h+Gdansk/data=!4m7!3m6!1s0x46fda1b51854cf7b:0x34c8a876c43c11f2!8m2!3d54.4279414!4d18.4643471!16s%2Fg%2F11tf4gt__2!19sChIJe89UGLWh_UYR8hE8xHaoyDQ?authuser=0&hl=en&rclk=1
54.4307658,18.4794969,shop,Biedronka,https://www.google.com/maps/place/Biedronka/data=!4m7!3m6!1s0x46fda025f07d4d33:0xd4665bd22a97973b!8m2!3d54.4307658!4d18.4794969!16s%2Fg%2F1hd_jb2zh!19sChIJM0198CWg_UYRO5eXKtJbZtQ?authuser=0&hl=en&rclk=1
54.432253,18.4830739,shop,Krzesła obrotowe,https://www.google.com/maps/place/Krzes%C5%82a+obrotowe/data=!4m7!3m6!1s0x46fda02509d7bc03:0x86a72f593fc5205e!8m2!3d54.432253!4d18.4830739!16s%2Fg%2F11hyxnkf9m!19sChIJA7zXCSWg_UYRXiDFP1kvp4Y?authuser=0&hl=en&rclk=1
54.4262718,18.4917867,shop,eSmoking World,https://www.google.com/maps/place/eSmoking+World/data=!4m7!3m6!1s0x46fda14dcb1e18c3:0x7bf70ac5a835d70e!8m2!3d54.4262718!4d18.4917867!16s%2Fg%2F11f5dmn9_c!19sChIJwxgey02h_UYRDtc1qMUK93s?authuser=0&hl=en&rclk=1
54.4254466,18.4901478,shop,5.10.15,https://www.google.com/maps/place/5.10.15/data=!4m7!3m6!1s0x46fda0204cca4355:0xcbce8d7c7e98d0f1!8m2!3d54.4254466!4d18.4901478!16s%2Fg%2F11jzhj5vdd!19sChIJVUPKTCCg_UYR8dCYfnyNzss?authuser=0&hl=en&rclk=1
54.425682,18.4911921,shop,Osowa Shopping Centre,https://www.google.com/maps/place/Osowa+Shopping+Centre/data=!4m7!3m6!1s0x46fda021ca10dabb:0x429c6b11a5fbcdaa!8m2!3d54.425682!4d18.4911921!16s%2Fg%2F12hnrfg0f!19sChIJu9oQyiGg_UYRqs37pRFrnEI?authuser=0&hl=en&rclk=1
54.4321634,18.482928,shop,Salon meblowy Black Red White - meble Gdańsk,https://www.google.com/maps/place/Salon+meblowy+Black+Red+White+-+meble+Gda%C5%84sk/data=!4m7!3m6!1s0x46fda025046fb9a9:0x23bfde71cc9c9510!8m2!3d54.4321634!4d18.482928!16s%2Fg%2F1hm43q77y!19sChIJqblvBCWg_UYREJWczHHevyM?authuser=0&hl=en&rclk=1
54.4256591,18.4911003,shop,Auchan,https://www.google.com/maps/place/Auchan/data=!4m7!3m6!1s0x46fda021b0dc365d:0xe2fab963194f1741!8m2!3d54.4256591!4d18.4911003!16s%2Fg%2F1thgfqhn!19sChIJXTbcsCGg_UYRQRdPGWO5-uI?authuser=0&hl=en&rclk=1
54.4434171,18.5648121,shop,Flying Tiger Copenhagen,https://www.google.com/maps/place/Flying+Tiger+Copenhagen/data=!4m7!3m6!1s0x46fd0a91c7e6e805:0xf91fc5f9f71c4c88!8m2!3d54.4434171!4d18.5648121!16s%2Fg%2F11b7vqrmjv!19sChIJBejmx5EK_UYRiEwc9_nFH_k?authuser=0&hl=en&rclk=1
54.4444427,18.567528,shop,NA -KD,https://www.google.com/maps/place/NA+-KD/data=!4m7!3m6!1s0x46fd0bba277cdc01:0x51e9680d9fcef4!8m2!3d54.4444427!4d18.567528!16s%2Fg%2F11gjxtrg67!19sChIJAdx8J7oL_UYR9M6fDWjpUQA?authuser=0&hl=en&rclk=1
54.3553773,18.6481721,shop,POLIŻ.DIZAJN,https://www.google.com/maps/place/POLI%C5%BB.DIZAJN/data=!4m7!3m6!1s0x46fd737682268b8f:0x7ddc3ed083250e0f!8m2!3d54.3553773!4d18.6481721!16s%2Fg%2F11h4vnb0yp!19sChIJj4smgnZz_UYRDw4lg9A-3H0?authuser=0&hl=en&rclk=1
54.427381,18.56212,shop,Bicycles Sopot R-S Grzegorz Sadowski. Bicycle Shop Service.,https://www.google.com/maps/place/Bicycles+Sopot+R-S+Grzegorz+Sadowski.+Bicycle+Shop+Service./data=!4m7!3m6!1s0x46fd0ab8da5a3fc7:0xf5bd56512027b2b9!8m2!3d54.427381!4d18.56212!16s%2Fg%2F11b7vy3dtb!19sChIJxz9a2rgK_UYRubInIFFWvfU?authuser=0&hl=en&rclk=1
54.440481,18.5727809,shop,No 65-Miejsce Rzeczy Wyjątkowych,https://www.google.com/maps/place/No+65-Miejsce+Rzeczy+Wyj%C4%85tkowych/data=!4m7!3m6!1s0x46fd0b4b1cf829f1:0xe0fe40060da501d1!8m2!3d54.440481!4d18.5727809!16s%2Fg%2F11gmxcb0k0!19sChIJ8Sn4HEsL_UYR0QGlDQZA_uA?authuser=0&hl=en&rclk=1
54.4339595,18.5635584,shop,SpartanShop.pl,https://www.google.com/maps/place/SpartanShop.pl/data=!4m7!3m6!1s0x46fd0a9209bfe3bf:0x3a2d0d59b7a6e0a0!8m2!3d54.4339595!4d18.5635584!16s%2Fg%2F11c6c9z8tk!19sChIJv-O_CZIK_UYRoOCmt1kNLTo?authuser=0&hl=en&rclk=1
54.43075,18.56228,shop,Mary Jane CoffeeShop - Sklep Konopny,https://www.google.com/maps/place/Mary+Jane+CoffeeShop+-+Sklep+Konopny/data=!4m7!3m6!1s0x46fd0b037c60cdf7:0x332868dca788762d!8m2!3d54.43075!4d18.56228!16s%2Fg%2F11ftmhjwt5!19sChIJ981gfAML_UYRLXaIp9xoKDM?authuser=0&hl=en&rclk=1
54.4331405,18.5735133,shop,Amberoldhouse,https://www.google.com/maps/place/Amberoldhouse/data=!4m7!3m6!1s0x46fd0aea8c2a58f7:0xe0e57aceaae4903f!8m2!3d54.4331405!4d18.5735133!16s%2Fg%2F1hd_clfh6!19sChIJ91gqjOoK_UYRP5Dkqs565eA?authuser=0&hl=en&rclk=1
54.439085,18.5735159,shop,Second Life Retro & Vintage Shop,https://www.google.com/maps/place/Second+Life+Retro+%26+Vintage+Shop/data=!4m7!3m6!1s0x46fd0bb883799057:0xee2972c47b79f0!8m2!3d54.439085!4d18.5735159!16s%2Fg%2F11s1pm7y_x!19sChIJV5B5g7gL_UYR8Hl7xHIp7gA?authuser=0&hl=en&rclk=1
54.433273,18.561054,shop,Infamous Team - ciuchy trzeba zapierdalać,https://www.google.com/maps/place/Infamous+Team+-+ciuchy+trzeba+zapierdala%C4%87/data=!4m7!3m6!1s0x46fd0b7d80085d89:0x96286f94c1968625!8m2!3d54.433273!4d18.561054!16s%2Fg%2F11fm42h9vr!19sChIJiV0IgH0L_UYRJYaWwZRvKJY?authuser=0&hl=en&rclk=1
54.439334,18.5599088,shop,Sklep Charytatywny LukLuk,https://www.google.com/maps/place/Sklep+Charytatywny+LukLuk/data=!4m7!3m6!1s0x46fd0a972ee0092d:0x69658da189ddbea9!8m2!3d54.439334!4d18.5599088!16s%2Fg%2F11b77f1n2s!19sChIJLQngLpcK_UYRqb7diaGNZWk?authuser=0&hl=en&rclk=1
54.414679,18.582111,shop,Kinky Winky - queer sex shop - sklep online,https://www.google.com/maps/place/Kinky+Winky+-+queer+sex+shop+-+sklep+online/data=!4m7!3m6!1s0x46fd0ad14435f21f:0x2bfbf95bff460dc8!8m2!3d54.414679!4d18.582111!16s%2Fg%2F11f11495pt!19sChIJH_I1RNEK_UYRyA1G_1v5-ys?authuser=0&hl=en&rclk=1
54.4318677,18.5868083,shop,SURFOTEKA SURF&SKI,https://www.google.com/maps/place/SURFOTEKA+SURF%26SKI/data=!4m7!3m6!1s0x46fd0ae86ce02aad:0x954ef95e084c16ce!8m2!3d54.4318677!4d18.5868083!16s%2Fg%2F1tjf8z7h!19sChIJrSrgbOgK_UYRzhZMCF75TpU?authuser=0&hl=en&rclk=1
54.4205585,18.579291,shop,EKO-HERBS Shop herbal medical Organic Food,https://www.google.com/maps/place/EKO-HERBS+Shop+herbal+medical+Organic+Food/data=!4m7!3m6!1s0x46fd0ada9c89201b:0x8ff9989c9b77dd58!8m2!3d54.4205585!4d18.579291!16s%2Fg%2F11b6lmk7w4!19sChIJGyCJnNoK_UYRWN13m5yY-Y8?authuser=0&hl=en&rclk=1
54.4434043,18.573123,shop,Fragola Lody Ice Cream Shop,https://www.google.com/maps/place/Fragola+Lody+Ice+Cream+Shop/data=!4m7!3m6!1s0x46fd0b2815c8a567:0xb20bdf9dd822b0c9!8m2!3d54.4434043!4d18.573123!16s%2Fg%2F11gjyrx4jp!19sChIJZ6XIFSgL_UYRybAi2J3fC7I?authuser=0&hl=en&rclk=1
54.427983,18.4221695,shop,Garnki rzymskie Römertopf,https://www.google.com/maps/place/Garnki+rzymskie+R%C3%B6mertopf/data=!4m7!3m6!1s0x46fda1e5aaaaaaad:0x755f25a1cc65a176!8m2!3d54.427983!4d18.4221695!16s%2Fg%2F11gmy8g842!19sChIJraqqquWh_UYRdqFlzKElX3U?authuser=0&hl=en&rclk=1
54.4349326,18.3990055,shop,Expedycja.pl - shop and service 4x4,https://www.google.com/maps/place/Expedycja.pl+-+shop+and+service+4x4/data=!4m7!3m6!1s0x46fda1ef8fa77e3b:0x4421406469f268a!8m2!3d54.4349326!4d18.3990055!16s%2Fg%2F1hm4zqhl5!19sChIJO36nj--h_UYRiiafRgYUQgQ?authuser=0&hl=en&rclk=1
54.4189987,18.431445,shop,Markat,https://www.google.com/maps/place/Markat/data=!4m7!3m6!1s0x46fda1e4e0f3b9a1:0x8db8f2baeb4611a9!8m2!3d54.4189987!4d18.431445!16s%2Fg%2F1tvykg6x!19sChIJobnz4OSh_UYRqRFG67ryuI0?authuser=0&hl=en&rclk=1
54.4031561,18.3997268,shop,Szybka Paczka / Parcel Shop GLS Poland,https://www.google.com/maps/place/Szybka+Paczka+%2F+Parcel+Shop+GLS+Poland/data=!4m7!3m6!1s0x46fd9f4fb78b911d:0x5c6aaa777139dbb3!8m2!3d54.4031561!4d18.3997268!16s%2Fg%2F11ry2yd8n5!19sChIJHZGLt0-f_UYRs9s5cXeqalw?authuser=0&hl=en&rclk=1
51.9537505,19.1343786,shop,Pitbull.pl - Oficjalny sklep internetowy marki Pit Bull West Coast,https://www.google.com/maps/place/Pitbull.pl+-+Oficjalny+sklep+internetowy+marki+Pit+Bull+West+Coast/data=!4m7!3m6!1s0x46fda75bdeaee197:0x2742a93081f5b8c!8m2!3d51.9537505!4d19.1343786!16s%2Fg%2F11mtmmnqkp!19sChIJl-Gu3lun_UYRjFsfCJMqdAI?authuser=0&hl=en&rclk=1
54.418793,18.4578022,shop,Żabka,https://www.google.com/maps/place/%C5%BBabka/data=!4m7!3m6!1s0x46fd9f7c66e09415:0x385100abf4c9d7f9!8m2!3d54.418793!4d18.4578022!16s%2Fg%2F11t6zbdk1n!19sChIJFZTgZnyf_UYR-dfJ9KsAUTg?authuser=0&hl=en&rclk=1
54.4148713,18.47812,shop,INEBRYA.SHOP,https://www.google.com/maps/place/INEBRYA.SHOP/data=!4m7!3m6!1s0x46fd9f8d85e3f509:0xaaab06f6943aa313!8m2!3d54.4148713!4d18.47812!16s%2Fg%2F11h4tppc1z!19sChIJCfXjhY2f_UYRE6M6lPYGq6o?authuser=0&hl=en&rclk=1
54.4249597,18.4769242,shop,PEPCO,https://www.google.com/maps/place/PEPCO/data=!4m7!3m6!1s0x46fda1aa42dede87:0x72fb67b6ac571a34!8m2!3d54.4249597!4d18.4769242!16s%2Fg%2F11c2mczsjf!19sChIJh97eQqqh_UYRNBpXrLZn-3I?authuser=0&hl=en&rclk=1
54.422606,18.471776,shop,KHAYA Luxury African Home & Living Store,https://www.google.com/maps/place/KHAYA+Luxury+African+Home+%26+Living+Store/data=!4m7!3m6!1s0x46fd9f503690d835:0x4cad2e4749e81c67!8m2!3d54.422606!4d18.471776!16s%2Fg%2F11t0pcg_h4!19sChIJNdiQNlCf_UYRZxzoSUcurUw?authuser=0&hl=en&rclk=1
54.4258855,18.4900655,shop,Maternity dresses,https://www.google.com/maps/place/Maternity+dresses/data=!4m7!3m6!1s0x46fda1d541b12e27:0x9938934ed07a1e7f!8m2!3d54.4258855!4d18.4900655!16s%2Fg%2F11td3w4598!19sChIJJy6xQdWh_UYRfx560E6TOJk?authuser=0&hl=en&rclk=1
54.426028,18.4901169,shop,MB Fashion. FH,https://www.google.com/maps/place/MB+Fashion.+FH/data=!4m7!3m6!1s0x46fda021b0dcf835:0x8d0b35d8b6cfc262!8m2!3d54.426028!4d18.4901169!16s%2Fg%2F1thvrc_x!19sChIJNfjcsCGg_UYRYsLPttg1C40?authuser=0&hl=en&rclk=1
54.4255977,18.4915184,shop,H&M,https://www.google.com/maps/place/H%26M/data=!4m7!3m6!1s0x46fda021b6079049:0xc70248981c4a6f59!8m2!3d54.4255977!4d18.4915184!16s%2Fg%2F11bzs0x2rj!19sChIJSZAHtiGg_UYRWW9KHJhIAsc?authuser=0&hl=en&rclk=1
54.4210538,18.5718662,shop,"E-papierosy Chill and Vape Gdańsk Żabianka, Hala Gulden","https://www.google.com/maps/place/E-papierosy+Chill+and+Vape+Gda%C5%84sk+%C5%BBabianka,+Hala+Gulden/data=!4m7!3m6!1s0x46fd0b558ff65e67:0xe336eb61b1a3aacc!8m2!3d54.4210538!4d18.5718662!16s%2Fg%2F11fn0nnxly!19sChIJZ172j1UL_UYRzKqjsWHrNuM?authuser=0&hl=en&rclk=1"
54.4210513,18.5718189,shop,"Hołówko Zofia. Pończosznictwo, bieliźniarstwo","https://www.google.com/maps/place/Ho%C5%82%C3%B3wko+Zofia.+Po%C5%84czosznictwo,+bieli%C5%BAniarstwo/data=!4m7!3m6!1s0x46fd0ac5f5dc7e6d:0x71d33761d9e8def2!8m2!3d54.4210513!4d18.5718189!16s%2Fg%2F1thsdm9d!19sChIJbX7c9cUK_UYR8t7o2WE303E?authuser=0&hl=en&rclk=1"
54.4210513,18.5718189,shop,Fat Cap – Gruby Czap,https://www.google.com/maps/place/Fat+Cap+%E2%80%93+Gruby+Czap/data=!4m7!3m6!1s0x46fd0b307c040c79:0x436ed15ea2e6d92e!8m2!3d54.4210513!4d18.5718189!16s%2Fg%2F11j9375kzj!19sChIJeQwEfDAL_UYRLtnmol7RbkM?authuser=0&hl=en&rclk=1
54.4181319,18.5658854,shop,EASTEND,https://www.google.com/maps/place/EASTEND/data=!4m7!3m6!1s0x46fd9f8ca08f356b:0x87bb080c42bcff0d!8m2!3d54.4181319!4d18.5658854!16s%2Fg%2F124swpkpp!19sChIJazWPoIyf_UYRDf-8QgwIu4c?authuser=0&hl=en&rclk=1
54.417794,18.5952378,shop,"BAS. Pączek A., Jasiński C.","https://www.google.com/maps/place/BAS.+P%C4%85czek+A.,+Jasi%C5%84ski+C./data=!4m7!3m6!1s0x46fd0b27fc722667:0x6680b674fe613206!8m2!3d54.417794!4d18.5952378!16s%2Fg%2F1hc305ccf!19sChIJZyZy_CcL_UYRBjJh_nS2gGY?authuser=0&hl=en&rclk=1"
54.4094697,18.5921175,shop,PINK BOX,https://www.google.com/maps/place/PINK+BOX/data=!4m7!3m6!1s0x46fd0b2a67811ef7:0xd0d7e336bd4d5d6b!8m2!3d54.4094697!4d18.5921175!16s%2Fg%2F11gc94ktx4!19sChIJ9x6BZyoL_UYRa11NvTbj19A?authuser=0&hl=en&rclk=1
54.4095691,18.5763276,shop,Moze Piwa? Beer Shop,https://www.google.com/maps/place/Moze+Piwa%3F+Beer+Shop/data=!4m7!3m6!1s0x46fd0ad32554024b:0xd76da4e1b6c0bdb3!8m2!3d54.4095691!4d18.5763276!16s%2Fg%2F11fylqf585!19sChIJSwJUJdMK_UYRs73AtuGkbdc?authuser=0&hl=en&rclk=1
54.4037587,18.5879154,shop,Vitamin-Shop,https://www.google.com/maps/place/Vitamin-Shop/data=!4m7!3m6!1s0x46fd74d5b1355829:0x629a1adf7f8a113b!8m2!3d54.4037587!4d18.5879154!16s%2Fg%2F1q6kk0cdp!19sChIJKVg1sdV0_UYROxGKf98ammI?authuser=0&hl=en&rclk=1
54.409768,18.5918659,shop,Vitamin-Shop,https://www.google.com/maps/place/Vitamin-Shop/data=!4m7!3m6!1s0x46fd0b2a5565c9d9:0x14a71a49b31aca45!8m2!3d54.409768!4d18.5918659!16s%2Fg%2F1q6j7g_d2!19sChIJ2cllVSoL_UYRRcoas0kapxQ?authuser=0&hl=en&rclk=1
54.3818369,18.4668639,shop,I Love Poland Gift Shop,https://www.google.com/maps/place/I+Love+Poland+Gift+Shop/data=!4m7!3m6!1s0x46fd9fcb4cadf2ef:0xb66e4e54a278ddfc!8m2!3d54.3818369!4d18.4668639!16s%2Fg%2F1q5blr2y8!19sChIJ7_KtTMuf_UYR_N14olRObrY?authuser=0&hl=en&rclk=1
54.396645,18.467715,shop,LITTLE BIG SHOP - akcesoria i zabawki dla niemowląt,https://www.google.com/maps/place/LITTLE+BIG+SHOP+-+akcesoria+i+zabawki+dla+niemowl%C4%85t/data=!4m7!3m6!1s0x46fd9f8206809ce3:0x10227bb836dab593!8m2!3d54.396645!4d18.467715!16s%2Fg%2F11c1qb46vg!19sChIJ45yABoKf_UYRk7XaNrh7IhA?authuser=0&hl=en&rclk=1
52.2467824,21.0128425,shop,Sweet Shop,https://www.google.com/maps/place/Sweet+Shop/data=!4m7!3m6!1s0x471ecdab12f25c9f:0x284515884a5d0892!8m2!3d52.2467824!4d21.0128425!16s%2Fg%2F11s9k4dpp3!19sChIJn1zyEqvNHkcRkghdSogVRSg?authuser=0&hl=en&rclk=1
54.2569321,18.6418662,shop,Cherry Soap - EGN Sp. z o.o.,https://www.google.com/maps/place/Cherry+Soap+-+EGN+Sp.+z+o.o./data=!4m7!3m6!1s0x46fd704e09ebff7f:0x23e1f595fe0aa021!8m2!3d54.2569321!4d18.6418662!16s%2Fg%2F11g925tmq5!19sChIJf__rCU5w_UYRIaAK_pX14SM?authuser=0&hl=en&rclk=1
54.41799,18.4695469,shop,Abrolety.pl,https://www.google.com/maps/place/Abrolety.pl/data=!4m7!3m6!1s0x46fd9f85866b8ac7:0xdb1b391880e577e7!8m2!3d54.41799!4d18.4695469!16s%2Fg%2F11c466wmf2!19sChIJx4prhoWf_UYR53flgBg5G9s?authuser=0&hl=en&rclk=1
54.415605,18.4517866,shop,F.H.U. MATEX Michał Rachwał,https://www.google.com/maps/place/F.H.U.+MATEX+Micha%C5%82+Rachwa%C5%82/data=!4m7!3m6!1s0x46fd9f9c9973c83d:0x4a1ae4b84c1d2bc7!8m2!3d54.415605!4d18.4517866!16s%2Fg%2F1tqt8c3z!19sChIJPchzmZyf_UYRxysdTLjkGko?authuser=0&hl=en&rclk=1
54.415566,18.4670619,shop,zasłonoweLOVE,https://www.google.com/maps/place/zas%C5%82onoweLOVE/data=!4m7!3m6!1s0x46fd9f3943131363:0xe8a262f4b91596a8!8m2!3d54.415566!4d18.4670619!16s%2Fg%2F11px83lkt_!19sChIJYxMTQzmf_UYRqJYVufRioug?authuser=0&hl=en&rclk=1
54.4194793,18.469284,shop,Biedronka,https://www.google.com/maps/place/Biedronka/data=!4m7!3m6!1s0x46fd9fe1592660df:0x209f2cd1dd3aef7f!8m2!3d54.4194793!4d18.469284!16s%2Fg%2F11ptptmzxj!19sChIJ32AmWeGf_UYRf-863dEsnyA?authuser=0&hl=en&rclk=1
54.4110343,18.4849824,shop,Biedronka,https://www.google.com/maps/place/Biedronka/data=!4m7!3m6!1s0x46fd9fed41f0004f:0x81e81a72be49d33d!8m2!3d54.4110343!4d18.4849824!16s%2Fg%2F1hdzcknmp!19sChIJTwDwQe2f_UYRPdNJvnIa6IE?authuser=0&hl=en&rclk=1
54.4072138,18.5747726,shop,Sail - Shop,https://www.google.com/maps/place/Sail+-+Shop/data=!4m7!3m6!1s0x46fd7358a44c9143:0x93a2d1cba1a42d3e!8m2!3d54.4072138!4d18.5747726!16s%2Fg%2F11c0vxg88r!19sChIJQ5FMpFhz_UYRPi2kocvRopM?authuser=0&hl=en&rclk=1
54.3479781,18.6608488,shop,sklepkrzywo.pl,https://www.google.com/maps/place/sklepkrzywo.pl/data=!4m7!3m6!1s0x46fd73bdb97daa3d:0xbc6887bdca871baf!8m2!3d54.3479781!4d18.6608488!16s%2Fg%2F11ftfhqbqk!19sChIJPap9ub1z_UYRrxuHyr2HaLw?authuser=0&hl=en&rclk=1
54.406275,18.5767161,shop,Żabka,https://www.google.com/maps/place/%C5%BBabka/data=!4m7!3m6!1s0x46fd75f5ccd6ab63:0xdbe49e491a8604d!8m2!3d54.406275!4d18.5767161!16s%2Fg%2F11tf_746v7!19sChIJY6vWzPV1_UYRTWCokeRJvg0?authuser=0&hl=en&rclk=1
54.4071701,18.5747132,shop,Biuro Projekt Meble Biurowe,https://www.google.com/maps/place/Biuro+Projekt+Meble+Biurowe/data=!4m7!3m6!1s0x46fd752ce53ff369:0xe8ec588d5da17a49!8m2!3d54.4071701!4d18.5747132!16s%2Fg%2F11c0ptmfl_!19sChIJafM_5Sx1_UYRSXqhXY1Y7Og?authuser=0&hl=en&rclk=1
54.4071958,18.5702017,shop,Żabka,https://www.google.com/maps/place/%C5%BBabka/data=!4m7!3m6!1s0x46fd752d791ddcf3:0xb1a09d9096fc461b!8m2!3d54.4071958!4d18.5702017!16s%2Fg%2F11f15nkzl3!19sChIJ89wdeS11_UYRG0b8lpCdoLE?authuser=0&hl=en&rclk=1
54.410718,18.571966,shop,Żabka,https://www.google.com/maps/place/%C5%BBabka/data=!4m7!3m6!1s0x46fd0ad2a0cbcc1f:0x9bd58397d7bd3ae8!8m2!3d54.410718!4d18.571966!16s%2Fg%2F11dywwq6gk!19sChIJH8zLoNIK_UYR6Dq915eD1Zs?authuser=0&hl=en&rclk=1
54.4086838,18.5676127,shop,Żabka,https://www.google.com/maps/place/%C5%BBabka/data=!4m7!3m6!1s0x46fd7532e95a74a3:0x3fa6ab9e8d3c0c52!8m2!3d54.4086838!4d18.5676127!16s%2Fg%2F11bxc5_bf0!19sChIJo3Ra6TJ1_UYRUgw8jZ6rpj8?authuser=0&hl=en&rclk=1
54.4094697,18.5921175,shop,eSmoking World,https://www.google.com/maps/place/eSmoking+World/data=!4m7!3m6!1s0x46fd0b2a5aa87509:0x8f9d9467e51cd96f!8m2!3d54.4094697!4d18.5921175!16s%2Fg%2F11f4l9fbkt!19sChIJCXWoWioL_UYRb9kc5WeUnY8?authuser=0&hl=en&rclk=1
54.404633,18.594361,shop,Miss Bra,https://www.google.com/maps/place/Miss+Bra/data=!4m7!3m6!1s0x46fd75b5ef1d01c1:0xce93ad539b73ee2f!8m2!3d54.404633!4d18.594361!16s%2Fg%2F11s9h8jgf3!19sChIJwQEd77V1_UYRL-5zm1Otk84?authuser=0&hl=en&rclk=1
54.4090009,18.5874363,shop,E-DYM.PL - E-Papierosy - Gdańsk - Przymorze Małe,https://www.google.com/maps/place/E-DYM.PL+-+E-Papierosy+-+Gda%C5%84sk+-+Przymorze+Ma%C5%82e/data=!4m7!3m6!1s0x46fd0ad56614ce6b:0xf8bf44c9fb6e17ae!8m2!3d54.4090009!4d18.5874363!16s%2Fg%2F11hcj1t1px!19sChIJa84UZtUK_UYRrhdu-8lEv_g?authuser=0&hl=en&rclk=1
54.4096964,18.5917021,shop,Classic And Styl,https://www.google.com/maps/place/Classic+And+Styl/data=!4m7!3m6!1s0x46fd74c786c40d3d:0x4039c84ab4908d03!8m2!3d54.4096964!4d18.5917021!16s%2Fg%2F1tj9s0qk!19sChIJPQ3Ehsd0_UYRA42QtErIOUA?authuser=0&hl=en&rclk=1
54.4094856,18.5921131,shop,Pepco Galeria Przymorze,https://www.google.com/maps/place/Pepco+Galeria+Przymorze/data=!4m7!3m6!1s0x46fd0b2c0ba65cf7:0xaff784ddc57b231e!8m2!3d54.4094856!4d18.5921131!16s%2Fg%2F1q5gn9zvg!19sChIJ91ymCywL_UYRHiN7xd2E968?authuser=0&hl=en&rclk=1
54.4059888,18.6397309,shop,Witkowska Zofia. Sklep odzieżowy,https://www.google.com/maps/place/Witkowska+Zofia.+Sklep+odzie%C5%BCowy/data=!4m7!3m6!1s0x46fd0b51de77dd55:0xe9e6d9f7b5381ab1!8m2!3d54.4059888!4d18.6397309!16s%2Fg%2F1wk7pkf2!19sChIJVd133lEL_UYRsRo4tffZ5uk?authuser=0&hl=en&rclk=1
54.390484,18.608991,shop,Vintage Shop,https://www.google.com/maps/place/Vintage+Shop/data=!4m7!3m6!1s0x46fd75b085ee2007:0x8e645872ee91dc01!8m2!3d54.390484!4d18.608991!16s%2Fg%2F11f8cknc8l!19sChIJByDuhbB1_UYRAdyR7nJYZI4?authuser=0&hl=en&rclk=1
54.406152,18.6429686,shop,Mila Cafe,https://www.google.com/maps/place/Mila+Cafe/data=!4m7!3m6!1s0x46fd0bbd145c755f:0x4d07f3310d9fe4ee!8m2!3d54.406152!4d18.6429686!16s%2Fg%2F11splsc889!19sChIJX3VcFL0L_UYR7uSfDTHzB00?authuser=0&hl=en&rclk=1
54.3992705,18.6061108,shop,Shop Dent,https://www.google.com/maps/place/Shop+Dent/data=!4m7!3m6!1s0x46fd74cca18945d1:0xfa83d1aa4597f184!8m2!3d54.3992705!4d18.6061108!16s%2Fg%2F11bwpyq5gr!19sChIJ0UWJocx0_UYRhPGXRarRg_o?authuser=0&hl=en&rclk=1
54.406933,18.637653,shop,Żabka,https://www.google.com/maps/place/%C5%BBabka/data=!4m7!3m6!1s0x46fd0b09b95f1097:0xb9e920ed03369bf4!8m2!3d54.406933!4d18.637653!16s%2Fg%2F11qydkl5d1!19sChIJlxBfuQkL_UYR9Js2A-0g6bk?authuser=0&hl=en&rclk=1
54.4031254,18.5986912,shop,Smoke Shop,https://www.google.com/maps/place/Smoke+Shop/data=!4m7!3m6!1s0x46fd74d2fa88daeb:0x90c0ed2f46a7db28!8m2!3d54.4031254!4d18.5986912!16s%2Fg%2F11rwnfn7ks!19sChIJ69qI-tJ0_UYRKNunRi_twJA?authuser=0&hl=en&rclk=1
54.4059888,18.6397309,shop,Al-Bart. Grabowska A.,https://www.google.com/maps/place/Al-Bart.+Grabowska+A./data=!4m7!3m6!1s0x46fd0b51e73460db:0x92e2f6c8079377d8!8m2!3d54.4059888!4d18.6397309!16s%2Fg%2F1ptw9jv_n!19sChIJ22A051EL_UYR2HeTB8j24pI?authuser=0&hl=en&rclk=1
54.3844,18.6403,shop,SPEEDWAY-SHOP,https://www.google.com/maps/place/SPEEDWAY-SHOP/data=!4m7!3m6!1s0x46fd74a70ae94471:0xdaf2b7846af0520a!8m2!3d54.3844!4d18.6403!16s%2Fg%2F11bzzxh_zs!19sChIJcUTpCqd0_UYRClLwaoS38to?authuser=0&hl=en&rclk=1
54.4060704,18.6396536,shop,Bimbeer,https://www.google.com/maps/place/Bimbeer/data=!4m7!3m6!1s0x46fd0be6976c023f:0xa34b827ccf537f22!8m2!3d54.4060704!4d18.6396536!16s%2Fg%2F11mtfryp_7!19sChIJPwJsl-YL_UYRIn9Tz3yCS6M?authuser=0&hl=en&rclk=1
54.4046806,18.6254339,shop,Rybka. Fish shop. Delicatessen,https://www.google.com/maps/place/Rybka.+Fish+shop.+Delicatessen/data=!4m7!3m6!1s0x46fd0b4bad3f117f:0xd4d48105df51c3ac!8m2!3d54.4046806!4d18.6254339!16s%2Fg%2F1thlls8g!19sChIJfxE_rUsL_UYRrMNR3wWB1NQ?authuser=0&hl=en&rclk=1
54.385383,18.6403383,shop,Joka Art Tattoo Shop,https://www.google.com/maps/place/Joka+Art+Tattoo+Shop/data=!4m7!3m6!1s0x46fd75c87f2ca751:0xa5cc6457275ef157!8m2!3d54.385383!4d18.6403383!16s%2Fg%2F11h4_fd5yd!19sChIJUacsf8h1_UYRV_FeJ1dkzKU?authuser=0&hl=en&rclk=1
54.3827946,18.6404254,shop,Würth Pick-up Shop - Gdańsk,https://www.google.com/maps/place/W%C3%BCrth+Pick-up+Shop+-+Gda%C5%84sk/data=!4m7!3m6!1s0x46fd74a75dbe2f99:0x22e4e4acbd164cc7!8m2!3d54.3827946!4d18.6404254!16s%2Fg%2F11bwd2jvsz!19sChIJmS--Xad0_UYRx0wWvazk5CI?authuser=0&hl=en&rclk=1
54.3937339,18.4049534,shop,Godan Strefa Uśmiechu Banino,https://www.google.com/maps/place/Godan+Strefa+U%C5%9Bmiechu+Banino/data=!4m7!3m6!1s0x46fd9fcaae1ed997:0x49654a60b8b08abd!8m2!3d54.3937339!4d18.4049534!16s%2Fg%2F11q1g86yxt!19sChIJl9kersqf_UYRvYqwuGBKZUk?authuser=0&hl=en&rclk=1
54.386989,18.423437,shop,PHU Wolnik Mirosława Wolnik,https://www.google.com/maps/place/PHU+Wolnik+Miros%C5%82awa+Wolnik/data=!4m7!3m6!1s0x46fd9efe15fc238d:0xa51c773ea9331679!8m2!3d54.386989!4d18.423437!16s%2Fg%2F1ptyqntmh!19sChIJjSP8Ff6e_UYReRYzqT53HKU?authuser=0&hl=en&rclk=1
54.3974517,18.4845682,shop,"Autos Gdańsk - części do aut ciężarowych, maszyn budowlanych","https://www.google.com/maps/place/Autos+Gda%C5%84sk+-+cz%C4%99%C5%9Bci+do+aut+ci%C4%99%C5%BCarowych,+maszyn+budowlanych/data=!4m7!3m6!1s0x46fd9fc3b7b80119:0x7ca092eb8b0f7fe9!8m2!3d54.3974517!4d18.4845682!16s%2Fg%2F1thp_dsx!19sChIJGQG4t8Of_UYR6X8Pi-uSoHw?authuser=0&hl=en&rclk=1"
54.3951555,18.4871523,shop,Max Opony,https://www.google.com/maps/place/Max+Opony/data=!4m7!3m6!1s0x46fd9fc3674940bb:0x56eaf9dff1f9372d!8m2!3d54.3951555!4d18.4871523!16s%2Fg%2F11f_477nrh!19sChIJu0BJZ8Of_UYRLTf58d_56lY?authuser=0&hl=en&rclk=1
49.40315,4.3778401,shop,Curly Queen Shop Sp. zoo,https://www.google.com/maps/place/Curly+Queen+Shop+Sp.+zoo/data=!4m7!3m6!1s0xa9a7b1dcece9ac59:0x27c9cf4bbaf8717f!8m2!3d49.40315!4d4.3778401!16s%2Fg%2F11swdk2t48!19sChIJWazp7Nyxp6kRf3H4ukvPySc?authuser=0&hl=en&rclk=1
54.3987644,18.5667311,shop,coolawoola,https://www.google.com/maps/place/coolawoola/data=!4m7!3m6!1s0x46fd738e4977a16d:0x949775078ad3dc7e!8m2!3d54.3987644!4d18.5667311!16s%2Fg%2F1hm4g7gbb!19sChIJbaF3SY5z_UYRftzTigd1l5Q?authuser=0&hl=en&rclk=1
54.3945493,18.5796431,shop,O! Shop,https://www.google.com/maps/place/O!+Shop/data=!4m7!3m6!1s0x46fd74d8636a95b9:0x6069e68e5778130c!8m2!3d54.3945493!4d18.5796431!16s%2Fg%2F11qg2c98gw!19sChIJuZVqY9h0_UYRDBN4V47maWA?authuser=0&hl=en&rclk=1
54.4019122,18.5638703,shop,Deska Serów,https://www.google.com/maps/place/Deska+Ser%C3%B3w/data=!4m7!3m6!1s0x46fd753051888805:0x76d1374aa05972bd!8m2!3d54.4019122!4d18.5638703!16s%2Fg%2F11lghtd987!19sChIJBYiIUTB1_UYRvXJZoEo30XY?authuser=0&hl=en&rclk=1
54.3964499,18.5700327,shop,Akademicki Chór Uniwersytetu Gdańskiego,https://www.google.com/maps/place/Akademicki+Ch%C3%B3r+Uniwersytetu+Gda%C5%84skiego/data=!4m7!3m6!1s0x46fd7525d0e0c2cd:0x5ed0c7d2fc73c13d!8m2!3d54.3964499!4d18.5700327!16s%2Fg%2F1yfdrn0v3!19sChIJzcLg0CV1_UYRPcFz_NLH0F4?authuser=0&hl=en&rclk=1
54.3824604,18.5893803,shop,PAR L'AMOUR Sex Shop Gdańsk,https://www.google.com/maps/place/PAR+L'AMOUR+Sex+Shop+Gda%C5%84sk/data=!4m7!3m6!1s0x46fd75a83b0f379b:0xde8b814276975fb6!8m2!3d54.3824604!4d18.5893803!16s%2Fg%2F11r233_6r9!19sChIJmzcPO6h1_UYRtl-XdkKBi94?authuser=0&hl=en&rclk=1
54.401699,18.5621919,shop,Żabka,https://www.google.com/maps/place/%C5%BBabka/data=!4m7!3m6!1s0x46fd753044bd8065:0x79a1f388990b7b55!8m2!3d54.401699!4d18.5621919!16s%2Fg%2F11cltp2fdd!19sChIJZYC9RDB1_UYRVXsLmYjzoXk?authuser=0&hl=en&rclk=1
54.3957391,18.6001218,shop,Inmedio,https://www.google.com/maps/place/Inmedio/data=!4m7!3m6!1s0x46fd75cd5405dc8d:0x2abb8a3ed6fc74fc!8m2!3d54.3957391!4d18.6001218!16s%2Fg%2F11s90t78h_!19sChIJjdwFVM11_UYR_HT81j6Kuyo?authuser=0&hl=en&rclk=1
54.3946572,18.6086368,shop,Sklepzpiwem.pl,https://www.google.com/maps/place/Sklepzpiwem.pl/data=!4m7!3m6!1s0x46fd74c8fa61b837:0x636f54aabf13e9a0!8m2!3d54.3946572!4d18.6086368!16s%2Fg%2F11by_h5jxk!19sChIJN7hh-sh0_UYRoOkTv6pUb2M?authuser=0&hl=en&rclk=1
54.404106,18.611369,shop,Żabka,https://www.google.com/maps/place/%C5%BBabka/data=!4m7!3m6!1s0x46fd0b4084546f45:0xad85fc11a45150b1!8m2!3d54.404106!4d18.611369!16s%2Fg%2F11s63s3nb5!19sChIJRW9UhEAL_UYRsVBRpBH8ha0?authuser=0&hl=en&rclk=1
54.3932147,18.6416699,shop,Barto. Firma poligraficzno - reklamowa,https://www.google.com/maps/place/Barto.+Firma+poligraficzno+-+reklamowa/data=!4m7!3m6!1s0x46fd74abe3dd562d:0xb4e876616510432f!8m2!3d54.3932147!4d18.6416699!16s%2Fg%2F1tjl4llv!19sChIJLVbd46t0_UYRL0MQZWF26LQ?authuser=0&hl=en&rclk=1
54.3527569,18.6519967,shop,Shopping Mia,https://www.google.com/maps/place/Shopping+Mia/data=!4m7!3m6!1s0x46fd73057e8c24d9:0xf28f5e23bd7cb1c4!8m2!3d54.3527569!4d18.6519967!16s%2Fg%2F11p775mq0w!19sChIJ2SSMfgVz_UYRxLF8vSNej_I?authuser=0&hl=en&rclk=1
54.3951987,18.6429989,shop,Żabka,https://www.google.com/maps/place/%C5%BBabka/data=!4m7!3m6!1s0x46fd75780cbf52e9:0xb0aab2fbfb102868!8m2!3d54.3951987!4d18.6429989!16s%2Fg%2F11r3t7pztw!19sChIJ6VK_DHh1_UYRaCgQ-_uyqrA?authuser=0&hl=en&rclk=1
54.3471306,18.6579999,shop,Scooll Shoop,https://www.google.com/maps/place/Scooll+Shoop/data=!4m7!3m6!1s0x46fd730aa767f8a9:0xd0deefcb53520342!8m2!3d54.3471306!4d18.6579999!16s%2Fg%2F11b6d59j9f!19sChIJqfhnpwpz_UYRQgNSU8vv3tA?authuser=0&hl=en&rclk=1
54.3939868,18.6443083,shop,Biedronka,https://www.google.com/maps/place/Biedronka/data=!4m7!3m6!1s0x46fd759592831421:0xb63a6dce971e6698!8m2!3d54.3939868!4d18.6443083!16s%2Fg%2F11pwy85zj7!19sChIJIRSDkpV1_UYRmGYel85tOrY?authuser=0&hl=en&rclk=1
54.3989547,18.6462778,shop,Żabka,https://www.google.com/maps/place/%C5%BBabka/data=!4m7!3m6!1s0x46fd0bde2614f099:0x56fd5cda8ae42a22!8m2!3d54.3989547!4d18.6462778!16s%2Fg%2F11rr740s9m!19sChIJmfAUJt4L_UYRIirkitpc_VY?authuser=0&hl=en&rclk=1
54.3551518,18.6443562,shop,Drobiazg s.c.,https://www.google.com/maps/place/Drobiazg+s.c./data=!4m7!3m6!1s0x46fd7376516679a1:0xb672ed49351ae8ee!8m2!3d54.3551518!4d18.6443562!16s%2Fg%2F1hc20x_p2!19sChIJoXlmUXZz_UYR7ugaNUntcrY?authuser=0&hl=en&rclk=1
54.4002633,18.6669582,shop,"Eko-Styl, Sklep Zielarsko-Medyczny","https://www.google.com/maps/place/Eko-Styl,+Sklep+Zielarsko-Medyczny/data=!4m7!3m6!1s0x46fd0cae7ff69b2d:0x371788bd1a7d07f0!8m2!3d54.4002633!4d18.6669582!16s%2Fg%2F1tglf_w9!19sChIJLZv2f64M_UYR8Ad9Gr2IFzc?authuser=0&hl=en&rclk=1"
54.399496,18.669347,shop,Biedronka,https://www.google.com/maps/place/Biedronka/data=!4m7!3m6!1s0x46fd0cae06347c1b:0xc958d8c057b8166e!8m2!3d54.399496!4d18.669347!16s%2Fg%2F11b5wjy47n!19sChIJG3w0Bq4M_UYRbha4V8DYWMk?authuser=0&hl=en&rclk=1
54.3995744,18.6603952,shop,Biedronka,https://www.google.com/maps/place/Biedronka/data=!4m7!3m6!1s0x46fd0cab95c08e7f:0x7dabbdda0b982c51!8m2!3d54.3995744!4d18.6603952!16s%2Fg%2F1hc51yw72!19sChIJf47AlasM_UYRUSyYC9q9q30?authuser=0&hl=en&rclk=1
54.4011198,18.6618716,shop,Żabka,https://www.google.com/maps/place/%C5%BBabka/data=!4m7!3m6!1s0x46fd0d495bbd141d:0x4a62682149149783!8m2!3d54.4011198!4d18.6618716!16s%2Fg%2F11g4btjqkx!19sChIJHRS9W0kN_UYRg5cUSSFoYko?authuser=0&hl=en&rclk=1
54.356493,18.6494612,shop,Top secret,https://www.google.com/maps/place/Top+secret/data=!4m7!3m6!1s0x46fd73db564d45c9:0x9d33f19bc67fc667!8m2!3d54.356493!4d18.6494612!16s%2Fg%2F11s9vmjskj!19sChIJyUVNVttz_UYRZ8Z_xpvxM50?authuser=0&hl=en&rclk=1
54.392724,18.5974095,shop,KidsSzop.pl,https://www.google.com/maps/place/KidsSzop.pl/data=!4m7!3m6!1s0x46fd752c0ad41c43:0x6f8acad0fe87aeb6!8m2!3d54.392724!4d18.5974095!16s%2Fg%2F11h874w26l!19sChIJQxzUCix1_UYRtq6H_tDKim8?authuser=0&hl=en&rclk=1
54.3917045,18.4103616,shop,Lucky Ice,https://www.google.com/maps/place/Lucky+Ice/data=!4m7!3m6!1s0x46fd9fdb9f936dc1:0xa54a6db9d85ad3a0!8m2!3d54.3917045!4d18.4103616!16s%2Fg%2F11s4s46lyb!19sChIJwW2Tn9uf_UYRoNNa2LltSqU?authuser=0&hl=en&rclk=1
54.3818999,18.4659833,shop,Virgin,https://www.google.com/maps/place/Virgin/data=!4m7!3m6!1s0x46fd9fc6627e926f:0xa5d05dccb601b9fc!8m2!3d54.3818999!4d18.4659833!16s%2Fg%2F11flv87rzp!19sChIJb5J-Ysaf_UYR_LkBtsxd0KU?authuser=0&hl=en&rclk=1
54.3821899,18.4656455,shop,Aelia Duty Free,https://www.google.com/maps/place/Aelia+Duty+Free/data=!4m7!3m6!1s0x46fd9f3381571d61:0x31bb7e0b622c31d5!8m2!3d54.3821899!4d18.4656455!16s%2Fg%2F11h7cbyptk!19sChIJYR1XgTOf_UYR1TEsYgt-uzE?authuser=0&hl=en&rclk=1
54.3824949,18.465555,shop,1-Minute (Port Lotniczy im. Lecha Wałęsy),https://www.google.com/maps/place/1-Minute+(Port+Lotniczy+im.+Lecha+Wa%C5%82%C4%99sy)/data=!4m7!3m6!1s0x46fd9f56be37b90f:0x5bdfae82fe1623ac!8m2!3d54.3824949!4d18.465555!16s%2Fg%2F11fskb79nm!19sChIJD7k3vlaf_UYRrCMW_oKu31s?authuser=0&hl=en&rclk=1
54.3822176,18.4663156,shop,So Coffee,https://www.google.com/maps/place/So+Coffee/data=!4m7!3m6!1s0x46fd9e349a8bcf75:0x74635b092d646e4d!8m2!3d54.3822176!4d18.4663156!16s%2Fg%2F11c31qdh8c!19sChIJdc-LmjSe_UYRTW5kLQlbY3Q?authuser=0&hl=en&rclk=1
54.3817348,18.4669692,shop,Premium Food Gate,https://www.google.com/maps/place/Premium+Food+Gate/data=!4m7!3m6!1s0x46fd9f30178e69e5:0x3f2f4793ec272100!8m2!3d54.3817348!4d18.4669692!16s%2Fg%2F11flv8fpb4!19sChIJ5WmOFzCf_UYRACEn7JNHLz8?authuser=0&hl=en&rclk=1
54.38248,18.465409,shop,Flying Bistro,https://www.google.com/maps/place/Flying+Bistro/data=!4m7!3m6!1s0x46fd9ff923edc611:0x28abe66a10ba858e!8m2!3d54.38248!4d18.465409!16s%2Fg%2F11pv6625c6!19sChIJEcbtI_mf_UYRjoW6EGrmqyg?authuser=0&hl=en&rclk=1
54.38944,18.483263,shop,Żabka,https://www.google.com/maps/place/%C5%BBabka/data=!4m7!3m6!1s0x46fd9f7ceabeaa15:0xf6b91c9cc5a536d5!8m2!3d54.38944!4d18.483263!16s%2Fg%2F11q8jdb1bn!19sChIJFaq-6nyf_UYR1TalxZwcufY?authuser=0&hl=en&rclk=1
54.3890155,18.48818,shop,Mobilny Serwis Opon 24h Fuse,https://www.google.com/maps/place/Mobilny+Serwis+Opon+24h+Fuse/data=!4m7!3m6!1s0x46fd9fc90a1fa721:0x9a2fc0f1db182729!8m2!3d54.3890155!4d18.48818!16s%2Fg%2F11s8zs2l5_!19sChIJIacfCsmf_UYRKScY2_HAL5o?authuser=0&hl=en&rclk=1
54.3863601,18.4844794,shop,"Stol-Max. Kuchnie, schody, zabudowy","https://www.google.com/maps/place/Stol-Max.+Kuchnie,+schody,+zabudowy/data=!4m7!3m6!1s0x46fd9fd1cdf8beed:0x5edba7407020583e!8m2!3d54.3863601!4d18.4844794!16s%2Fg%2F1tf746r3!19sChIJ7b74zdGf_UYRPlggcECn214?authuser=0&hl=en&rclk=1"
54.3738417,18.5176301,shop,IKEA,https://www.google.com/maps/place/IKEA/data=!4m7!3m6!1s0x46fd75761bb83be1:0x5325830bef51d980!8m2!3d54.3738417!4d18.5176301!16s%2Fg%2F1tdwj5_s!19sChIJ4Tu4G3Z1_UYRgNlR7wuDJVM?authuser=0&hl=en&rclk=1
54.3796548,18.5830917,shop,Shop Delicatessen Livio,https://www.google.com/maps/place/Shop+Delicatessen+Livio/data=!4m7!3m6!1s0x46fd74e675399c29:0xd22b54043c7314fb!8m2!3d54.3796548!4d18.5830917!16s%2Fg%2F11c2mw8l8n!19sChIJKZw5deZ0_UYR-xRzPARUK9I?authuser=0&hl=en&rclk=1
54.38965,18.575442,shop,Fruttoprezent.pl,https://www.google.com/maps/place/Fruttoprezent.pl/data=!4m7!3m6!1s0x46fd74df7bda7f67:0x50f8432a729c0f67!8m2!3d54.38965!4d18.575442!16s%2Fg%2F11bv38sny4!19sChIJZ3_ae990_UYRZw-ccipD-FA?authuser=0&hl=en&rclk=1
54.3827021,18.5998452,shop,Smoke Shop,https://www.google.com/maps/place/Smoke+Shop/data=!4m7!3m6!1s0x46fd74ea79e3fd01:0xefa51cda858986bc!8m2!3d54.3827021!4d18.5998452!16s%2Fg%2F1t_hxpbj!19sChIJAf3jeep0_UYRvIaJhdocpe8?authuser=0&hl=en&rclk=1
54.3879967,18.5706461,shop,FS Nexi-Gromek. Meble,https://www.google.com/maps/place/FS+Nexi-Gromek.+Meble/data=!4m7!3m6!1s0x46fd75203b68745f:0x77f9c7754d4b9e54!8m2!3d54.3879967!4d18.5706461!16s%2Fg%2F1tdcf1r8!19sChIJX3RoOyB1_UYRVJ5LTXXH-Xc?authuser=0&hl=en&rclk=1
54.3822032,18.6009535,shop,The Body Shop,https://www.google.com/maps/place/The+Body+Shop/data=!4m7!3m6!1s0x46fd74ea81a77d73:0x48037914c9b1a5c5!8m2!3d54.3822032!4d18.6009535!16s%2Fg%2F11g03n9hhs!19sChIJc32ngep0_UYRxaWxyRR5A0g?authuser=0&hl=en&rclk=1
54.376546,18.6112779,shop,Sex Shop Venus - Gdańsk Wrzeszcz,https://www.google.com/maps/place/Sex+Shop+Venus+-+Gda%C5%84sk+Wrzeszcz/data=!4m7!3m6!1s0x46fd0a931924d955:0x85c9b8de603d4544!8m2!3d54.376546!4d18.6112779!16s%2Fg%2F1tfcgg49!19sChIJVdkkGZMK_UYRREU9YN64yYU?authuser=0&hl=en&rclk=1
54.3831048,18.6062214,shop,Bestbrandsshop,https://www.google.com/maps/place/Bestbrandsshop/data=!4m7!3m6!1s0x46fd74bf8b7e91a3:0xd7ef30dbd22f353b!8m2!3d54.3831048!4d18.6062214!16s%2Fg%2F11f_1l3ksf!19sChIJo5F-i790_UYROzUv0tsw79c?authuser=0&hl=en&rclk=1
54.3828486,18.5895371,shop,Mood Concept Store,https://www.google.com/maps/place/Mood+Concept+Store/data=!4m7!3m6!1s0x46fd757bc0ca56a1:0xe9e44ba721acb6e9!8m2!3d54.3828486!4d18.5895371!16s%2Fg%2F11pkkv01zr!19sChIJoVbKwHt1_UYR6basIadL5Ok?authuser=0&hl=en&rclk=1
54.3904367,18.608891,shop,FanStore.pl,https://www.google.com/maps/place/FanStore.pl/data=!4m7!3m6!1s0x46fd74c79617371b:0x5c0984ce30b720d!8m2!3d54.3904367!4d18.608891!16s%2Fg%2F11c2m_c9fv!19sChIJGzcXlsd0_UYRDXIL40yYwAU?authuser=0&hl=en&rclk=1
54.3828024,18.6004565,shop,Candy Shop Gdańsk,https://www.google.com/maps/place/Candy+Shop+Gda%C5%84sk/data=!4m7!3m6!1s0x46fd74944874cd41:0x2c137cc402d12f55!8m2!3d54.3828024!4d18.6004565!16s%2Fg%2F11b73q2jms!19sChIJQc10SJR0_UYRVS_RAsR8Eyw?authuser=0&hl=en&rclk=1
54.3906056,18.5875471,shop,Rukka,https://www.google.com/maps/place/Rukka/data=!4m7!3m6!1s0x46fd74db8f5d30bd:0x3c63d4316229b83a!8m2!3d54.3906056!4d18.5875471!16s%2Fg%2F11fmmdxzjl!19sChIJvTBdj9t0_UYROrgpYjHUYzw?authuser=0&hl=en&rclk=1
54.3908456,18.6387963,shop,Lechia Fanstore,https://www.google.com/maps/place/Lechia+Fanstore/data=!4m7!3m6!1s0x46fd75c7781f0bfd:0xb9fdc376bd309e30!8m2!3d54.3908456!4d18.6387963!16s%2Fg%2F11hjxp3t9v!19sChIJ_QsfeMd1_UYRMJ4wvXbD_bk?authuser=0&hl=en&rclk=1
54.3758466,18.613272,shop,Chop Shop Cafe,https://www.google.com/maps/place/Chop+Shop+Cafe/data=!4m7!3m6!1s0x46fd756213ea7deb:0x8614dff6a3adcaf4!8m2!3d54.3758466!4d18.613272!16s%2Fg%2F11t6_sqh5k!19sChIJ633qE2J1_UYR9Mqto_bfFIY?authuser=0&hl=en&rclk=1
54.3748721,18.6137552,shop,Octagon SHOP,https://www.google.com/maps/place/Octagon+SHOP/data=!4m7!3m6!1s0x46fd75209405750f:0xb89702aee04345c4!8m2!3d54.3748721!4d18.6137552!16s%2Fg%2F11s8mt0zmx!19sChIJD3UFlCB1_UYRxEVD4K4Cl7g?authuser=0&hl=en&rclk=1
54.3877809,18.6260303,shop,La Boutique,https://www.google.com/maps/place/La+Boutique/data=!4m7!3m6!1s0x46fd74bacf059193:0x5a72b72c87acd4e6!8m2!3d54.3877809!4d18.6260303!16s%2Fg%2F11g6nbsp_4!19sChIJk5EFz7p0_UYR5tSshyy3clo?authuser=0&hl=en&rclk=1
54.3762102,18.6141949,shop,Sex shop Gdańsk Centrum Erotyki®,https://www.google.com/maps/place/Sex+shop+Gda%C5%84sk+Centrum+Erotyki%C2%AE/data=!4m7!3m6!1s0x46fd754784a8614f:0x357e3353fda6557e!8m2!3d54.3762102!4d18.6141949!16s%2Fg%2F11h1vgk3xf!19sChIJT2GohEd1_UYRflWm_VMzfjU?authuser=0&hl=en&rclk=1
54.3821345,18.6737124,shop,Męskie granie,https://www.google.com/maps/place/M%C4%99skie+granie/data=!4m7!3m6!1s0x46fd73131eda3a4d:0x246bb8c0f8237b89!8m2!3d54.3821345!4d18.6737124!16s%2Fg%2F11h58p5gjz!19sChIJTTraHhNz_UYRiXsj-MC4ayQ?authuser=0&hl=en&rclk=1
54.3737069,18.6264409,shop,Iiquido Vape Shop,https://www.google.com/maps/place/Iiquido+Vape+Shop/data=!4m7!3m6!1s0x46fd749eca07a455:0xf850dcdc5bd31ee3!8m2!3d54.3737069!4d18.6264409!16s%2Fg%2F11gnnm5_7y!19sChIJVaQHyp50_UYR4x7TW9zcUPg?authuser=0&hl=en&rclk=1
54.391241,18.6599899,shop,MixMedia Gdańsk,https://www.google.com/maps/place/MixMedia+Gda%C5%84sk/data=!4m7!3m6!1s0x46fd7353c9882dcf:0x68566332bfcffe7b!8m2!3d54.391241!4d18.6599899!16s%2Fg%2F11b5wjhsfl!19sChIJzy2IyVNz_UYRe_7PvzJjVmg?authuser=0&hl=en&rclk=1
52.2489862,21.0123899,shop,Mix-Shop SOUVENIRS,https://www.google.com/maps/place/Mix-Shop+SOUVENIRS/data=!4m7!3m6!1s0x471ecd14505de32d:0x8d0fe0f92df53dc8!8m2!3d52.2489862!4d21.0123899!16s%2Fg%2F11h43czjtq!19sChIJLeNdUBTNHkcRyD31LfngD40?authuser=0&hl=en&rclk=1
52.2565447,20.9854249,shop,The Body Shop,https://www.google.com/maps/place/The+Body+Shop/data=!4m7!3m6!1s0x471ecb4ad1089273:0x29ec5d6ac74f342d!8m2!3d52.2565447!4d20.9854249!16s%2Fg%2F11fktj8trq!19sChIJc5II0UrLHkcRLTRPx2pd7Ck?authuser=0&hl=en&rclk=1
52.2057162,20.9847055,shop,WUM.SHOP,https://www.google.com/maps/place/WUM.SHOP/data=!4m7!3m6!1s0x471ecde927a38169:0xc55398c70441a4b4!8m2!3d52.2057162!4d20.9847055!16s%2Fg%2F11tfbtx0p5!19sChIJaYGjJ-nNHkcRtKRBBMeYU8U?authuser=0&hl=en&rclk=1
54.3690053,18.3941444,shop,ALL PARTS SHOP,https://www.google.com/maps/place/ALL+PARTS+SHOP/data=!4m7!3m6!1s0x46fd9f0557ec22e7:0x1902c677f560994b!8m2!3d54.3690053!4d18.3941444!16s%2Fg%2F11h7vhyx9_!19sChIJ5yLsVwWf_UYRS5lg9XfGAhk?authuser=0&hl=en&rclk=1
54.36401,18.4607007,shop,FUNFIT-HOME&OFFICE,https://www.google.com/maps/place/FUNFIT-HOME%26OFFICE/data=!4m7!3m6!1s0x46fd9e3c13400001:0xa18d9f39c99e2137!8m2!3d54.36401!4d18.4607007!16s%2Fg%2F11hyxn10zw!19sChIJAQBAEzye_UYRNyGeyTmfjaE?authuser=0&hl=en&rclk=1
54.3706098,18.4639626,shop,Wulkanizacja Fuse Corp,https://www.google.com/maps/place/Wulkanizacja+Fuse+Corp/data=!4m7!3m6!1s0x46fd9f5a2954edb7:0x22d50a47863e8f27!8m2!3d54.3706098!4d18.4639626!16s%2Fg%2F11s8_9nh24!19sChIJt-1UKVqf_UYRJ48-hkcK1SI?authuser=0&hl=en&rclk=1
54.371292,18.460543,shop,Metalica - krzesła biurowe,https://www.google.com/maps/place/Metalica+-+krzes%C5%82a+biurowe/data=!4m7!3m6!1s0x46fd9f51d99d1c5f:0x229c9e18cd97d19e!8m2!3d54.371292!4d18.460543!16s%2Fg%2F11g0m4yj9g!19sChIJXxyd2VGf_UYRntGXzRienCI?authuser=0&hl=en&rclk=1
54.3685125,18.4791506,shop,SONPAP - Office Supplies & Stationery,https://www.google.com/maps/place/SONPAP+-+Office+Supplies+%26+Stationery/data=!4m7!3m6!1s0x46fd749f922a0b17:0x49f5b94da15d177!8m2!3d54.3685125!4d18.4791506!16s%2Fg%2F1tfvxvj5!19sChIJFwsqkp90_UYRd9EV2pRbnwQ?authuser=0&hl=en&rclk=1
54.378057,18.484607,shop,Femestage Eva Minge Sp. z o.o.,https://www.google.com/maps/place/Femestage+Eva+Minge+Sp.+z+o.o./data=!4m7!3m6!1s0x46fd9e2cb49b4e89:0xa84eb61ccb46b5e7!8m2!3d54.378057!4d18.484607!16s%2Fg%2F11h6g147hg!19sChIJiU6btCye_UYR57VGyxy2Tqg?authuser=0&hl=en&rclk=1
54.3739917,18.516745,shop,Sklep z bielizną | Salon Triumph - Park Handlowy Matarnia,https://www.google.com/maps/place/Sklep+z+bielizn%C4%85+%7C+Salon+Triumph+-+Park+Handlowy+Matarnia/data=!4m7!3m6!1s0x46fd75763d9d2ba7:0xba99e5c8746d923d!8m2!3d54.3739917!4d18.516745!16s%2Fg%2F113hmrwpd!19sChIJpyudPXZ1_UYRPZJtdMjlmbo?authuser=0&hl=en&rclk=1
54.367367,18.492351,shop,Perfumy Gdańsk - Perfumeria Internetowa perfumcity.pl,https://www.google.com/maps/place/Perfumy+Gda%C5%84sk+-+Perfumeria+Internetowa+perfumcity.pl/data=!4m7!3m6!1s0x46fd75ca362a79ff:0x24057f3d01980094!8m2!3d54.367367!4d18.492351!16s%2Fg%2F11fb19whmr!19sChIJ_3kqNsp1_UYRlACYAT1_BSQ?authuser=0&hl=en&rclk=1
54.3721579,18.520746,shop,eSmoking World,https://www.google.com/maps/place/eSmoking+World/data=!4m7!3m6!1s0x46fd75763d9d2ba7:0xa567d02aeb70e03!8m2!3d54.3721579!4d18.520746!16s%2Fg%2F11f5dmdplz!19sChIJpyudPXZ1_UYRAw63rgJ9Vgo?authuser=0&hl=en&rclk=1
54.3730233,18.5200815,shop,Sportsdirect,https://www.google.com/maps/place/Sportsdirect/data=!4m7!3m6!1s0x46fd7575f3dbe437:0xd8be3cf16de66d73!8m2!3d54.3730233!4d18.5200815!16s%2Fg%2F11cp7g_bgs!19sChIJN-Tb83V1_UYRc23mbfE8vtg?authuser=0&hl=en&rclk=1
54.372201,18.523028,shop,Żabka,https://www.google.com/maps/place/%C5%BBabka/data=!4m7!3m6!1s0x46fd7506f3e7ab71:0xe055c772b3c23157!8m2!3d54.372201!4d18.523028!16s%2Fg%2F11qpxrp_6v!19sChIJcavn8wZ1_UYRVzHCs3LHVeA?authuser=0&hl=en&rclk=1
54.3719144,18.5202456,shop,C&A,https://www.google.com/maps/place/C%26A/data=!4m7!3m6!1s0x46fd759e233e99a7:0xf458f76d4cf0ca13!8m2!3d54.3719144!4d18.5202456!16s%2Fg%2F11dxs2wk_k!19sChIJp5k-I551_UYRE8rwTG33WPQ?authuser=0&hl=en&rclk=1
54.375111,18.5677001,shop,Przewoźna Lidia. Sklep meblowy,https://www.google.com/maps/place/Przewo%C5%BAna+Lidia.+Sklep+meblowy/data=!4m7!3m6!1s0x46fd74fd3cd43fb1:0x4f358aef150a64be!8m2!3d54.375111!4d18.5677001!16s%2Fg%2F1hc37hrfl!19sChIJsT_UPP10_UYRvmQKFe-KNU8?authuser=0&hl=en&rclk=1
54.3820994,18.5889633,shop,Vininova Wine Shop,https://www.google.com/maps/place/Vininova+Wine+Shop/data=!4m7!3m6!1s0x46fd751b79c2093f:0xb7a43efb0bf1d988!8m2!3d54.3820994!4d18.5889633!16s%2Fg%2F11lfl36cgg!19sChIJPwnCeRt1_UYRiNnxC_s-pLc?authuser=0&hl=en&rclk=1
54.3774066,18.6070471,shop,Sklep Koszykarza,https://www.google.com/maps/place/Sklep+Koszykarza/data=!4m7!3m6!1s0x46fd74945e091e2f:0x5d6c7b4f47dc9568!8m2!3d54.3774066!4d18.6070471!16s%2Fg%2F11c43fvf6w!19sChIJLx4JXpR0_UYRaJXcR097bF0?authuser=0&hl=en&rclk=1
54.378235,18.603379,shop,Klamoty,https://www.google.com/maps/place/Klamoty/data=!4m7!3m6!1s0x46fd755a3cb7e29f:0xd1cd9eb650ceef7d!8m2!3d54.378235!4d18.603379!16s%2Fg%2F11gkwq76ww!19sChIJn-K3PFp1_UYRfe_OULaezdE?authuser=0&hl=en&rclk=1
54.379619,18.601301,shop,Punkt Charytatywny Dary,https://www.google.com/maps/place/Punkt+Charytatywny+Dary/data=!4m7!3m6!1s0x46fd74eadf05ea95:0x1bf12e47f3471d16!8m2!3d54.379619!4d18.601301!16s%2Fg%2F11hd9n8kwd!19sChIJleoF3-p0_UYRFh1H80cu8Rs?authuser=0&hl=en&rclk=1
54.377534,18.6072183,shop,Hebe,https://www.google.com/maps/place/Hebe/data=!4m7!3m6!1s0x46fd75ccc01a1697:0xf09a334d05bda80a!8m2!3d54.377534!4d18.6072183!16s%2Fg%2F11jynpm9wc!19sChIJlxYawMx1_UYRCqi9BU0zmvA?authuser=0&hl=en&rclk=1
54.380591,18.603988,shop,"Vapefury® Vape shop Gdańsk Wrzeszcz: E-Papierosy, Liquidy, Premixy, Mody","https://www.google.com/maps/place/Vapefury%C2%AE+Vape+shop+Gda%C5%84sk+Wrzeszcz:+E-Papierosy,+Liquidy,+Premixy,+Mody/data=!4m7!3m6!1s0x46fd758288e9fcc1:0x744b0e2f401e3c97!8m2!3d54.380591!4d18.603988!16s%2Fg%2F11h3g48q1h!19sChIJwfzpiIJ1_UYRlzweQC8OS3Q?authuser=0&hl=en&rclk=1"
54.3774687,18.6079924,shop,MB Fashion,https://www.google.com/maps/place/MB+Fashion/data=!4m7!3m6!1s0x46fd749446d19051:0x6d0aae36d19ef2dc!8m2!3d54.3774687!4d18.6079924!16s%2Fg%2F1tjs3mwx!19sChIJUZDRRpR0_UYR3PKe0TauCm0?authuser=0&hl=en&rclk=1
54.3740493,18.6269767,shop,Trafika Cyferka,https://www.google.com/maps/place/Trafika+Cyferka/data=!4m7!3m6!1s0x46fd7499498d826b:0xd2dd1a2ca2a51b96!8m2!3d54.3740493!4d18.6269767!16s%2Fg%2F1ptw3d9yp!19sChIJa4KNSZl0_UYRlhuloiwa3dI?authuser=0&hl=en&rclk=1
54.373647,18.626349,shop,Liquido,https://www.google.com/maps/place/Liquido/data=!4m7!3m6!1s0x46fd749eb612c49b:0xe1226f2322d2de77!8m2!3d54.373647!4d18.626349!16s%2Fg%2F11g0h2sk7l!19sChIJm8QStp50_UYRd97SIiNvIuE?authuser=0&hl=en&rclk=1
54.352798,18.6498599,shop,Jamaican Shop Gdańsk,https://www.google.com/maps/place/Jamaican+Shop+Gda%C5%84sk/data=!4m7!3m6!1s0x46fd73e546684bb5:0x263fb6a06ec46167!8m2!3d54.352798!4d18.6498599!16s%2Fg%2F11fq8t6xzy!19sChIJtUtoRuVz_UYRZ2HEbqC2PyY?authuser=0&hl=en&rclk=1
54.3548727,18.6466627,shop,Wierzchucino,https://www.google.com/maps/place/Wierzchucino/data=!4m7!3m6!1s0x46fd737664837905:0x639e83066cafecc5!8m2!3d54.3548727!4d18.6466627!16s%2Fg%2F11b6tssx_z!19sChIJBXmDZHZz_UYRxeyvbAaDnmM?authuser=0&hl=en&rclk=1
54.349346,18.643527,shop,Smoke Shop,https://www.google.com/maps/place/Smoke+Shop/data=!4m7!3m6!1s0x46fd738a21ddb7f7:0x494f295abde28fff!8m2!3d54.349346!4d18.643527!16s%2Fg%2F11hz8q5bds!19sChIJ97fdIYpz_UYR_4_ivVopT0k?authuser=0&hl=en&rclk=1
54.3521717,18.651022,shop,Sex Shop Venus - Gdańsk Kwartał Szeroki,https://www.google.com/maps/place/Sex+Shop+Venus+-+Gda%C5%84sk+Kwarta%C5%82+Szeroki/data=!4m7!3m6!1s0x46fd73757bfe7801:0xca011caa0cd0f8af!8m2!3d54.3521717!4d18.651022!16s%2Fg%2F11bw6568sj!19sChIJAXj-e3Vz_UYRr_jQDKocAco?authuser=0&hl=en&rclk=1
54.3627368,18.7109562,shop,Biedronka,https://www.google.com/maps/place/Biedronka/data=!4m7!3m6!1s0x46fd72e706076f89:0x31ee7debbf31365d!8m2!3d54.3627368!4d18.7109562!16s%2Fg%2F119wfd7hz!19sChIJiW8HBudy_UYRXTYxv-t97jE?authuser=0&hl=en&rclk=1
54.3632191,18.7089851,shop,Vintage Skład Trójmiasto,https://www.google.com/maps/place/Vintage+Sk%C5%82ad+Tr%C3%B3jmiasto/data=!4m7!3m6!1s0x46fd73b853aae6f5:0x24d7b9adb71c00ea!8m2!3d54.3632191!4d18.7089851!16s%2Fg%2F11rxsff8d0!19sChIJ9eaqU7hz_UYR6gAct6251yQ?authuser=0&hl=en&rclk=1
54.3564777,18.6483974,shop,Galeria Madison,https://www.google.com/maps/place/Galeria+Madison/data=!4m7!3m6!1s0x46fd7376a11d06a5:0x7ffec63f5cbbf63f!8m2!3d54.3564777!4d18.6483974!16s%2Fg%2F122h70xk!19sChIJpQYdoXZz_UYRP_a7XD_G_n8?authuser=0&hl=en&rclk=1
54.3728313,18.728981,shop,AjCafe Stogi,https://www.google.com/maps/place/AjCafe+Stogi/data=!4m7!3m6!1s0x46fd73be0bdaf4c9:0x730f8b5dbf22acf5!8m2!3d54.3728313!4d18.728981!16s%2Fg%2F11pz_h41pz!19sChIJyfTaC75z_UYR9awiv12LD3M?authuser=0&hl=en&rclk=1
54.3553327,18.6444783,shop,"""Exit"" - przedsiębiorstwo handlowe",https://www.google.com/maps/place/%22Exit%22+-+przedsi%C4%99biorstwo+handlowe/data=!4m7!3m6!1s0x46fd7376fbde50f3:0x25f60b59ea73a097!8m2!3d54.3553327!4d18.6444783!16s%2Fg%2F1tffbwvd!19sChIJ81De-3Zz_UYRl6Bz6lkL9iU?authuser=0&hl=en&rclk=1
54.4026868,18.5877142,shop,"Auchan Gdańsk, Kołobrzeska","https://www.google.com/maps/place/Auchan+Gda%C5%84sk,+Ko%C5%82obrzeska/data=!4m7!3m6!1s0x46fd74d5b84f17eb:0x91601b45ed8b4b13!8m2!3d54.4026868!4d18.5877142!16s%2Fg%2F1tfb583c!19sChIJ6xdPuNV0_UYRE0uL7UUbYJE?authuser=0&hl=en&rclk=1"
54.368327,18.778098,shop,Airmech - Marine Equipment,https://www.google.com/maps/place/Airmech+-+Marine+Equipment/data=!4m7!3m6!1s0x46fd70e8805f9375:0x16c1ee76bad066f5!8m2!3d54.368327!4d18.778098!16s%2Fg%2F11cn0vy38y!19sChIJdZNfgOhw_UYR9WbQunbuwRY?authuser=0&hl=en&rclk=1
54.3417652,18.7208548,shop,Hurtownia Szczepan,https://www.google.com/maps/place/Hurtownia+Szczepan/data=!4m7!3m6!1s0x46fd728aad302309:0xdf9a2f3734394646!8m2!3d54.3417652!4d18.7208548!16s%2Fg%2F1tgf6gw8!19sChIJCSMwrYpy_UYRRkY5NDcvmt8?authuser=0&hl=en&rclk=1
54.3615954,18.4326584,shop,Mix Tapety,https://www.google.com/maps/place/Mix+Tapety/data=!4m7!3m6!1s0x46fd9fb77b297ab9:0x1f213c5d93e882b9!8m2!3d54.3615954!4d18.4326584!16s%2Fg%2F11sgvm6760!19sChIJuXope7ef_UYRuYLok108IR8?authuser=0&hl=en&rclk=1
54.3609808,18.4330034,shop,Annex - Deco,https://www.google.com/maps/place/Annex+-+Deco/data=!4m7!3m6!1s0x46fd75e67dd5071b:0x4e36732a02e67d8e!8m2!3d54.3609808!4d18.4330034!16s%2Fg%2F11h6rsc3qg!19sChIJGwfVfeZ1_UYRjn3mAipzNk4?authuser=0&hl=en&rclk=1
54.3690053,18.3941444,shop,TESLA Approved Body Shop | Grupa Makurat | Autoryzowany serwis blacharsko-lakierniczy,https://www.google.com/maps/place/TESLA+Approved+Body+Shop+%7C+Grupa+Makurat+%7C+Autoryzowany+serwis+blacharsko-lakierniczy/data=!4m7!3m6!1s0x46fd9f408bb111eb:0xced1f4bc6789b0a7!8m2!3d54.3690053!4d18.3941444!16s%2Fg%2F11snlm55kw!19sChIJ6xGxi0Cf_UYRp7CJZ7z00c4?authuser=0&hl=en&rclk=1
54.36401,18.4607007,shop,CALVIANO,https://www.google.com/maps/place/CALVIANO/data=!4m7!3m6!1s0x46fd9e3c13400001:0x967ae6ae539ee6a0!8m2!3d54.36401!4d18.4607007!16s%2Fg%2F11h48wz1jt!19sChIJAQBAEzye_UYRoOaeU67mepY?authuser=0&hl=en&rclk=1
54.36401,18.4607007,shop,Body Fit,https://www.google.com/maps/place/Body+Fit/data=!4m7!3m6!1s0x46fd9e3c13400001:0x6b0b647b26fbd6cf!8m2!3d54.36401!4d18.4607007!16s%2Fg%2F11fjy6c39l!19sChIJAQBAEzye_UYRz9b7JntkC2s?authuser=0&hl=en&rclk=1
54.3532704,18.4830178,shop,Stop Cafe O! Shop Orlen,https://www.google.com/maps/place/Stop+Cafe+O!+Shop+Orlen/data=!4m7!3m6!1s0x46fd75f4f99ccaad:0x90c51e03dd5d421e!8m2!3d54.3532704!4d18.4830178!16s%2Fg%2F11rd9g413d!19sChIJrcqc-fR1_UYRHkJd3QMexZA?authuser=0&hl=en&rclk=1
54.3581075,18.4813439,shop,Anima Domus,https://www.google.com/maps/place/Anima+Domus/data=!4m7!3m6!1s0x46fd758a9d231555:0xa238d197f713084c!8m2!3d54.3581075!4d18.4813439!16s%2Fg%2F11fmmdzkcf!19sChIJVRUjnYp1_UYRTAgT95fROKI?authuser=0&hl=en&rclk=1
54.366685,18.489019,shop,Żabka,https://www.google.com/maps/place/%C5%BBabka/data=!4m7!3m6!1s0x46fd755fee5baf23:0x3bbea2fbbcbd84e9!8m2!3d54.366685!4d18.489019!16s%2Fg%2F11tc3w61yr!19sChIJI69b7l91_UYR6YS9vPuivjs?authuser=0&hl=en&rclk=1
54.350767,18.5042799,shop,Konik,https://www.google.com/maps/place/Konik/data=!4m7!3m6!1s0x46fd75eb696218f5:0x2a52582efba1f529!8m2!3d54.350767!4d18.5042799!16s%2Fg%2F11c60jykg7!19sChIJ9Rhiaet1_UYRKfWh-y5YUio?authuser=0&hl=en&rclk=1
54.3450744,18.534854,shop,Bambi Shop,https://www.google.com/maps/place/Bambi+Shop/data=!4m7!3m6!1s0x46fd7570784458bf:0x329498ba5d33ad7!8m2!3d54.3450744!4d18.534854!16s%2Fg%2F11q9hrbrq_!19sChIJv1hEeHB1_UYR1zrTpYtJKQM?authuser=0&hl=en&rclk=1
54.351652,18.5254759,shop,Terranova,https://www.google.com/maps/place/Terranova/data=!4m7!3m6!1s0x46fd75b9041ebb83:0x630f79c3486f0765!8m2!3d54.351652!4d18.5254759!16s%2Fg%2F11c32f78f5!19sChIJg7seBLl1_UYRZQdvSMN5D2M?authuser=0&hl=en&rclk=1
54.35159,18.5253557,shop,DUKA,https://www.google.com/maps/place/DUKA/data=!4m7!3m6!1s0x46fd7541f14f5cfb:0xa3368c1d6e30b250!8m2!3d54.35159!4d18.5253557!16s%2Fg%2F11g6bnc2b6!19sChIJ-1xP8UF1_UYRULIwbh2MNqM?authuser=0&hl=en&rclk=1
54.3522319,18.5241956,shop,CCC,https://www.google.com/maps/place/CCC/data=!4m7!3m6!1s0x46fd75b7a37f2bc9:0x8c2bd21511b865e1!8m2!3d54.3522319!4d18.5241956!16s%2Fg%2F113hcjl6y!19sChIJySt_o7d1_UYR4WW4ERXSK4w?authuser=0&hl=en&rclk=1
54.3728638,18.5177968,shop,Smyk. Art. for children and infants,https://www.google.com/maps/place/Smyk.+Art.+for+children+and+infants/data=!4m7!3m6!1s0x46fd75763d9d2ba7:0xbbd61d34669ebb10!8m2!3d54.3728638!4d18.5177968!16s%2Fg%2F113j35kh2!19sChIJpyudPXZ1_UYRELueZjQd1rs?authuser=0&hl=en&rclk=1
54.3509241,18.5243188,shop,Empik,https://www.google.com/maps/place/Empik/data=!4m7!3m6!1s0x46fd75b8ff4e53c7:0xb7e89c22aec0ec3b!8m2!3d54.3509241!4d18.5243188!16s%2Fg%2F11c2q2sw30!19sChIJx1NO_7h1_UYRO-zAriKc6Lc?authuser=0&hl=en&rclk=1
54.3529474,18.5237541,shop,Media Expert,https://www.google.com/maps/place/Media+Expert/data=!4m7!3m6!1s0x46fd75b84b86a76d:0xb48ac363b22c6241!8m2!3d54.3529474!4d18.5237541!16s%2Fg%2F11cn0r770l!19sChIJbaeGS7h1_UYRQWIssmPDirQ?authuser=0&hl=en&rclk=1
54.3573344,18.5773909,shop,Pogas. Pogorzelski A.,https://www.google.com/maps/place/Pogas.+Pogorzelski+A./data=!4m7!3m6!1s0x46fd745bfc98bfb1:0xc6291449d596ae3b!8m2!3d54.3573344!4d18.5773909!16s%2Fg%2F1tdp89q8!19sChIJsb-Y_Ft0_UYRO66W1UkUKcY?authuser=0&hl=en&rclk=1
54.3526019,18.5939831,shop,Flying Tiger Copenhagen,https://www.google.com/maps/place/Flying+Tiger+Copenhagen/data=!4m7!3m6!1s0x46fd7465d444485b:0x9f7862e4010d24a0!8m2!3d54.3526019!4d18.5939831!16s%2Fg%2F11g8797s2z!19sChIJW0hE1GV0_UYRoCQNAeRieJ8?authuser=0&hl=en&rclk=1
54.3593271,18.5776305,shop,PEPCO,https://www.google.com/maps/place/PEPCO/data=!4m7!3m6!1s0x46fd745915c833fd:0x5abe1db8a0f03250!8m2!3d54.3593271!4d18.5776305!16s%2Fg%2F11c72qyxhy!19sChIJ_TPIFVl0_UYRUDLwoLgdvlo?authuser=0&hl=en&rclk=1
54.3526378,18.5940051,shop,Vitamin-Shop. Odżywki i Suplementy,https://www.google.com/maps/place/Vitamin-Shop.+Od%C5%BCywki+i+Suplementy/data=!4m7!3m6!1s0x46fd7466801edfbf:0xef442861b855bad9!8m2!3d54.3526378!4d18.5940051!16s%2Fg%2F11xcqtg1m!19sChIJv98egGZ0_UYR2bpVuGEoRO8?authuser=0&hl=en&rclk=1
54.3572254,18.5839499,shop,Gekon,https://www.google.com/maps/place/Gekon/data=!4m7!3m6!1s0x46fd739e6ca02803:0x4762b46b3997b872!8m2!3d54.3572254!4d18.5839499!16s%2Fg%2F11bzrh0kx_!19sChIJAyigbJ5z_UYRcriXOWu0Ykc?authuser=0&hl=en&rclk=1
54.3574183,18.5782265,shop,STO LAM,https://www.google.com/maps/place/STO+LAM/data=!4m7!3m6!1s0x46fd0befd8ccf1b9:0xfbca0277a7977c94!8m2!3d54.3574183!4d18.5782265!16s%2Fg%2F11fv4rnwyh!19sChIJufHM2O8L_UYRlHyXp3cCyvs?authuser=0&hl=en&rclk=1
54.3600202,18.5899896,shop,Sklep Charytatywny,https://www.google.com/maps/place/Sklep+Charytatywny/data=!4m7!3m6!1s0x46fd746012ad658b:0xdf76661958d2c392!8m2!3d54.3600202!4d18.5899896!16s%2Fg%2F11h6g1n0k4!19sChIJi2WtEmB0_UYRksPSWBlmdt8?authuser=0&hl=en&rclk=1
54.347611,18.604018,shop,Grinder Coffee Shop,https://www.google.com/maps/place/Grinder+Coffee+Shop/data=!4m7!3m6!1s0x46fd7593deab5b5b:0x3af536116366e282!8m2!3d54.347611!4d18.604018!16s%2Fg%2F11s4bxwwsp!19sChIJW1ur3pN1_UYRguJmYxE29To?authuser=0&hl=en&rclk=1
54.3494192,18.6501752,shop,AMBER SOUVENIRS SHOP Pamiątki z Gdańska,https://www.google.com/maps/place/AMBER+SOUVENIRS+SHOP+Pami%C4%85tki+z+Gda%C5%84ska/data=!4m7!3m6!1s0x46fd739fa6ba7557:0xd0416299cd6ede59!8m2!3d54.3494192!4d18.6501752!16s%2Fg%2F1tfx3lm5!19sChIJV3W6pp9z_UYRWd5uzZliQdA?authuser=0&hl=en&rclk=1
54.349346,18.643527,shop,The Body Shop,https://www.google.com/maps/place/The+Body+Shop/data=!4m7!3m6!1s0x46fd73dcf2058bbb:0x79afa1818199c35b!8m2!3d54.349346!4d18.643527!16s%2Fg%2F11f9zrkbs4!19sChIJu4sF8txz_UYRW8OZgYGhr3k?authuser=0&hl=en&rclk=1
54.3502662,18.6452537,shop,Flying Tiger Copenhagen,https://www.google.com/maps/place/Flying+Tiger+Copenhagen/data=!4m7!3m6!1s0x46fd7340ef671a85:0x69384947ccc97983!8m2!3d54.3502662!4d18.6452537!16s%2Fg%2F11g0j0st7s!19sChIJhRpn70Bz_UYRg3nJzEdJOGk?authuser=0&hl=en&rclk=1
54.3556878,18.6478291,shop,Sex Shop Venus - Gdańsk Centrum,https://www.google.com/maps/place/Sex+Shop+Venus+-+Gda%C5%84sk+Centrum/data=!4m7!3m6!1s0x46fd737684c2efb3:0xdf1fe84deea15f47!8m2!3d54.3556878!4d18.6478291!16s%2Fg%2F1vhkj77d!19sChIJs-_ChHZz_UYRR1-h7k3oH98?authuser=0&hl=en&rclk=1
54.3520253,18.6515145,shop,Tabak Gdański,https://www.google.com/maps/place/Tabak+Gda%C5%84ski/data=!4m7!3m6!1s0x46fd73d723dc72b1:0x8fcfa22e91903299!8m2!3d54.3520253!4d18.6515145!16s%2Fg%2F11h51jbtd7!19sChIJsXLcI9dz_UYRmTKQkS6iz48?authuser=0&hl=en&rclk=1
54.3527569,18.6519967,shop,Basta Center Shop,https://www.google.com/maps/place/Basta+Center+Shop/data=!4m7!3m6!1s0x46fd738dfe43167d:0xae446146c6e0a07d!8m2!3d54.3527569!4d18.6519967!16s%2Fg%2F11q43nw63k!19sChIJfRZD_o1z_UYRfaDgxkZhRK4?authuser=0&hl=en&rclk=1
54.360321,18.709194,shop,Żabka,https://www.google.com/maps/place/%C5%BBabka/data=!4m7!3m6!1s0x46fd732253663e6d:0xad24d6c926f8acb4!8m2!3d54.360321!4d18.709194!16s%2Fg%2F11p_2dndk4!19sChIJbT5mUyJz_UYRtKz4JsnWJK0?authuser=0&hl=en&rclk=1
54.3604661,18.7102452,shop,Sklep z odzieżą używaną,https://www.google.com/maps/place/Sklep+z+odzie%C5%BC%C4%85+u%C5%BCywan%C4%85/data=!4m7!3m6!1s0x46fd72e661aadd69:0x157f274080a5a887!8m2!3d54.3604661!4d18.7102452!16s%2Fg%2F1tfjzk66!19sChIJad2qYeZy_UYRh6ilgEAnfxU?authuser=0&hl=en&rclk=1
54.359106,18.70921,shop,Zaremba Tadeusz. Sklep mięsny,https://www.google.com/maps/place/Zaremba+Tadeusz.+Sklep+mi%C4%99sny/data=!4m7!3m6!1s0x46fd72e42b54fe21:0xd27958ac6a9f741!8m2!3d54.359106!4d18.70921!16s%2Fg%2F1pt_bbw9p!19sChIJIf5UK-Ry_UYRQfepxoqVJw0?authuser=0&hl=en&rclk=1
54.3609293,18.7159707,shop,Żabka,https://www.google.com/maps/place/%C5%BBabka/data=!4m7!3m6!1s0x46fd7327c9c4ce99:0x6a57c34e96c6b7ea!8m2!3d54.3609293!4d18.7159707!16s%2Fg%2F11hz6t7prz!19sChIJmc7EySdz_UYR6rfGlk7DV2o?authuser=0&hl=en&rclk=1
54.3587825,18.7446988,shop,Wulkanizacja Mieczysław Garboś,https://www.google.com/maps/place/Wulkanizacja+Mieczys%C5%82aw+Garbo%C5%9B/data=!4m7!3m6!1s0x46fd7297d2e8dc07:0x121cc0b01d5b5907!8m2!3d54.3587825!4d18.7446988!16s%2Fg%2F1tg14f74!19sChIJB9zo0pdy_UYRB1lbHbDAHBI?authuser=0&hl=en&rclk=1
54.3497712,18.7064183,shop,Parcel Shop GLS Poland,https://www.google.com/maps/place/Parcel+Shop+GLS+Poland/data=!4m7!3m6!1s0x46fd73359ca578f5:0x99f14697ecf5fee6!8m2!3d54.3497712!4d18.7064183!16s%2Fg%2F11h7g3kc3m!19sChIJ9XilnDVz_UYR5v717JdG8Zk?authuser=0&hl=en&rclk=1
54.3531653,18.708379,shop,WojtGaraż,https://www.google.com/maps/place/WojtGara%C5%BC/data=!4m7!3m6!1s0x46fd72faafa27d13:0x6c9d14867f7194a1!8m2!3d54.3531653!4d18.708379!16s%2Fg%2F1ptw7n3ps!19sChIJE32ir_py_UYRoZRxf4YUnWw?authuser=0&hl=en&rclk=1
54.36048,18.726608,shop,Kominiarz Usługi Kominiarskie Gdańsk,https://www.google.com/maps/place/Kominiarz+Us%C5%82ugi+Kominiarskie+Gda%C5%84sk/data=!4m7!3m6!1s0x46fd72ea44a3d5f5:0xc9039cd73e5d4b89!8m2!3d54.36048!4d18.726608!16s%2Fg%2F11cksfdm3r!19sChIJ9dWjROpy_UYRiUtdPtecA8k?authuser=0&hl=en&rclk=1
54.3462727,18.8189709,shop,Shop Paweł Szymkowiak,https://www.google.com/maps/place/Shop+Pawe%C5%82+Szymkowiak/data=!4m7!3m6!1s0x46fd6d18b9064ad3:0x3182914a607b7558!8m2!3d54.3462727!4d18.8189709!16s%2Fg%2F1tfll3q3!19sChIJ00oGuRht_UYRWHV7YEqRgjE?authuser=0&hl=en&rclk=1
54.344338,18.8288511,shop,Szybka Paczka / Parcel Shop GLS Poland,https://www.google.com/maps/place/Szybka+Paczka+%2F+Parcel+Shop+GLS+Poland/data=!4m7!3m6!1s0x46fd6ce02351939d:0xa316eb4688a068fb!8m2!3d54.344338!4d18.8288511!16s%2Fg%2F11c5_1j1ct!19sChIJnZNRI-Bs_UYR-2igiEbrFqM?authuser=0&hl=en&rclk=1
52.1979172,20.9790524,shop,SlangShop,https://www.google.com/maps/place/SlangShop/data=!4m7!3m6!1s0x471933c773c0d085:0x17c040d86417669c!8m2!3d52.1979172!4d20.9790524!16s%2Fg%2F11gkzrt10_!19sChIJhdDAc8czGUcRnGYXZNhAwBc?authuser=0&hl=en&rclk=1
51.9537505,19.1343786,shop,WANTED!SHOP,https://www.google.com/maps/place/WANTED!SHOP/data=!4m7!3m6!1s0xa110cab8025c2d7f:0x119c66d2940eb431!8m2!3d51.9537505!4d19.1343786!16s%2Fg%2F11s_wv2hxw!19sChIJfy1cArjKEKERMbQOlNJmnBE?authuser=0&hl=en&rclk=1
54.3503647,18.4559024,shop,Magiczny Haft,https://www.google.com/maps/place/Magiczny+Haft/data=!4m7!3m6!1s0x46fd9e106bb8683b:0x5406d843fc3ab16e!8m2!3d54.3503647!4d18.4559024!16s%2Fg%2F11ck2qc0gs!19sChIJO2i4axCe_UYRbrE6_EPYBlQ?authuser=0&hl=en&rclk=1
54.3457543,18.4555081,shop,Interpel,https://www.google.com/maps/place/Interpel/data=!4m7!3m6!1s0x471d7a0751040001:0x1b1ecd5385e8a945!8m2!3d54.3457543!4d18.4555081!16s%2Fg%2F11h4vnbjtb!19sChIJAQAEUQd6HUcRRanohVPNHhs?authuser=0&hl=en&rclk=1
54.3457543,18.4555081,shop,Renowacja Mebli Kraków,https://www.google.com/maps/place/Renowacja+Mebli+Krak%C3%B3w/data=!4m7!3m6!1s0x471d7a0751040001:0x8314853037e0a2de!8m2!3d54.3457543!4d18.4555081!16s%2Fg%2F11hzjykbw1!19sChIJAQAEUQd6HUcR3qLgNzCFFIM?authuser=0&hl=en&rclk=1
54.3464384,18.4571032,shop,"Meble kuchenne Trójmiasto, Gdańsk, Starogard Gdański MEBLE-KASS","https://www.google.com/maps/place/Meble+kuchenne+Tr%C3%B3jmiasto,+Gda%C5%84sk,+Starogard+Gda%C5%84ski+MEBLE-KASS/data=!4m7!3m6!1s0x471652ec8b585d5b:0x5a5fed0ac5102acc!8m2!3d54.3464384!4d18.4571032!16s%2Fg%2F11h48wk0ts!19sChIJW11Yi-xSFkcRzCoQxQrtX1o?authuser=0&hl=en&rclk=1"
54.3457845,18.4559788,shop,Darton Kominki - Salon Kratki.com Leźno,https://www.google.com/maps/place/Darton+Kominki+-+Salon+Kratki.com+Le%C5%BAno/data=!4m7!3m6!1s0x46fd9f29b6da781d:0xdb67df0b63de464a!8m2!3d54.3457845!4d18.4559788!16s%2Fg%2F11h1m2f6k3!19sChIJHXjatimf_UYRSkbeYwvfZ9s?authuser=0&hl=en&rclk=1
54.3452882,18.5054879,shop,Rusznikarnia,https://www.google.com/maps/place/Rusznikarnia/data=!4m7!3m6!1s0x46fd75e9eac55555:0x93a8fe7221ad9722!8m2!3d54.3452882!4d18.5054879!16s%2Fg%2F11h7zfdv94!19sChIJVVXF6ul1_UYRIpetIXL-qJM?authuser=0&hl=en&rclk=1
54.3508701,18.5024978,shop,e-madziasklep.pl - Internetowy Sklep Odzieżowy,https://www.google.com/maps/place/e-madziasklep.pl+-+Internetowy+Sklep+Odzie%C5%BCowy/data=!4m7!3m6!1s0x46fd75ec9dc6778b:0x620f3810e7c09ddf!8m2!3d54.3508701!4d18.5024978!16s%2Fg%2F11cspxjrlx!19sChIJi3fGnex1_UYR353A5xA4D2I?authuser=0&hl=en&rclk=1
54.3466553,18.5038311,shop,MaraSimSim jewelry and handbags,https://www.google.com/maps/place/MaraSimSim+jewelry+and+handbags/data=!4m7!3m6!1s0x46fd75e96e01909f:0x5d308362864b3397!8m2!3d54.3466553!4d18.5038311!16s%2Fg%2F1td6wtmm!19sChIJn5ABbul1_UYRlzNLhmKDMF0?authuser=0&hl=en&rclk=1
54.352657,18.5087079,shop,Żabka,https://www.google.com/maps/place/%C5%BBabka/data=!4m7!3m6!1s0x46fd756c27d7dd11:0xde6c9c5db46db8e9!8m2!3d54.352657!4d18.5087079!16s%2Fg%2F11h914y507!19sChIJEd3XJ2x1_UYR6bhttF2cbN4?authuser=0&hl=en&rclk=1
54.3508486,18.5243634,shop,PEPCO,https://www.google.com/maps/place/PEPCO/data=!4m7!3m6!1s0x46fd7589d394516b:0x48c073c4fdc28662!8m2!3d54.3508486!4d18.5243634!16s%2Fg%2F11c6f3mr9v!19sChIJa1GU04l1_UYRYobC_cRzwEg?authuser=0&hl=en&rclk=1
54.3498304,18.5345427,shop,Żabka,https://www.google.com/maps/place/%C5%BBabka/data=!4m7!3m6!1s0x46fd7589777d77d5:0x6d1c407f7bb9278!8m2!3d54.3498304!4d18.5345427!16s%2Fg%2F11gkb5l8p9!19sChIJ1Xd9d4l1_UYReJK79wfE0QY?authuser=0&hl=en&rclk=1
54.35159,18.5253557,shop,Wyspa IQOS - Auchan Szczęśliwa - Gdańsk,https://www.google.com/maps/place/Wyspa+IQOS+-+Auchan+Szcz%C4%99%C5%9Bliwa+-+Gda%C5%84sk/data=!4m7!3m6!1s0x46fd755801ca52bb:0x1ba2f608776fd3e4!8m2!3d54.35159!4d18.5253557!16s%2Fg%2F11fn03x26f!19sChIJu1LKAVh1_UYR5NNvdwj2ohs?authuser=0&hl=en&rclk=1
54.35137,18.5254379,shop,Sizeer,https://www.google.com/maps/place/Sizeer/data=!4m7!3m6!1s0x46fd75b84b86a76d:0xe63ac388a09c0a4e!8m2!3d54.35137!4d18.5254379!16s%2Fg%2F11dxb1p7n9!19sChIJbaeGS7h1_UYRTgqcoIjDOuY?authuser=0&hl=en&rclk=1
54.35159,18.5253557,shop,Way to Beauty Gdańsk,https://www.google.com/maps/place/Way+to+Beauty+Gda%C5%84sk/data=!4m7!3m6!1s0x46fd757f6e4ca27d:0x8e42f1a6df1b3ca6!8m2!3d54.35159!4d18.5253557!16s%2Fg%2F11t2lxb4mf!19sChIJfaJMbn91_UYRpjwb36bxQo4?authuser=0&hl=en&rclk=1
54.3520606,18.5248896,shop,Mona Pro Moda Auchan Gdańsk,https://www.google.com/maps/place/Mona+Pro+Moda+Auchan+Gda%C5%84sk/data=!4m7!3m6!1s0x46fd75b8ff4e53c7:0x1454ee76c488318!8m2!3d54.3520606!4d18.5248896!16s%2Fg%2F1v41z48c!19sChIJx1NO_7h1_UYRGINIbOdORQE?authuser=0&hl=en&rclk=1
54.3529647,18.5776238,shop,POUNDOUT Andrzej Wiśniewski,https://www.google.com/maps/place/POUNDOUT+Andrzej+Wi%C5%9Bniewski/data=!4m7!3m6!1s0x46fd745cc7815b0d:0xd6d6b4bfff18ce02!8m2!3d54.3529647!4d18.5776238!16s%2Fg%2F11h48wdh0t!19sChIJDVuBx1x0_UYRAs4Y_7-01tY?authuser=0&hl=en&rclk=1
54.3502664,18.5561277,shop,Żabka,https://www.google.com/maps/place/%C5%BBabka/data=!4m7!3m6!1s0x46fd75cbe746a429:0x53ba025c81d9b4c9!8m2!3d54.3502664!4d18.5561277!16s%2Fg%2F11rgd9gy48!19sChIJKaRG58t1_UYRybTZgVwCulM?authuser=0&hl=en&rclk=1
54.349215,18.567246,shop,Żabka,https://www.google.com/maps/place/%C5%BBabka/data=!4m7!3m6!1s0x46fd75fda76e9b15:0x6e4c8e2955e0b15f!8m2!3d54.349215!4d18.567246!16s%2Fg%2F11h0msw6cj!19sChIJFZtup_11_UYRX7HgVSmOTG4?authuser=0&hl=en&rclk=1
54.3483959,18.5614853,shop,FINeWORLD,https://www.google.com/maps/place/FINeWORLD/data=!4m7!3m6!1s0x46fd7448b7377ef5:0xe71def112821d717!8m2!3d54.3483959!4d18.5614853!16s%2Fg%2F11fm16jjkp!19sChIJ9X43t0h0_UYRF9chKBHvHec?authuser=0&hl=en&rclk=1
54.3492286,18.5666655,shop,Wędliny z Tradycją,https://www.google.com/maps/place/W%C4%99dliny+z+Tradycj%C4%85/data=!4m7!3m6!1s0x46fd759bcf506853:0x8d89887f7399d54a!8m2!3d54.3492286!4d18.5666655!16s%2Fg%2F11llkvjwnf!19sChIJU2hQz5t1_UYRStWZc3-IiY0?authuser=0&hl=en&rclk=1
54.3526378,18.594005,shop,PINK BOX Galeria Morena Gdańsk,https://www.google.com/maps/place/PINK+BOX+Galeria+Morena+Gda%C5%84sk/data=!4m7!3m6!1s0x46fd75eb66cf7577:0x63ce9fdf99f6934f!8m2!3d54.3526378!4d18.594005!16s%2Fg%2F11tdmnwn1y!19sChIJd3XPZut1_UYRT5P2md-fzmM?authuser=0&hl=en&rclk=1
54.3526378,18.594005,shop,eSmoking World,https://www.google.com/maps/place/eSmoking+World/data=!4m7!3m6!1s0x46fd74668016e6c5:0x20e3ea24ebc8d2e5!8m2!3d54.3526378!4d18.594005!16s%2Fg%2F11f3457381!19sChIJxeYWgGZ0_UYR5dLI6yTq4yA?authuser=0&hl=en&rclk=1
54.3466986,18.5923869,shop,TanieSianie.pl Gdańsk - Nasiona Marihuany,https://www.google.com/maps/place/TanieSianie.pl+Gda%C5%84sk+-+Nasiona+Marihuany/data=!4m7!3m6!1s0x46fd75b4c78ff6e3:0x8e27b7cda701fec5!8m2!3d54.3466986!4d18.5923869!16s%2Fg%2F11cs5v852p!19sChIJ4_aPx7R1_UYRxf4Bp823J44?authuser=0&hl=en&rclk=1
54.3520909,18.6093311,shop,Miąskowska Ludwika. Bielizna,https://www.google.com/maps/place/Mi%C4%85skowska+Ludwika.+Bielizna/data=!4m7!3m6!1s0x46fd747bfb2cfae3:0xfd5c113f8d0c32b4!8m2!3d54.3520909!4d18.6093311!16s%2Fg%2F1tffsmns!19sChIJ4_os-3t0_UYRtDIMjT8RXP0?authuser=0&hl=en&rclk=1
54.352239,18.593031,shop,Venezia,https://www.google.com/maps/place/Venezia/data=!4m7!3m6!1s0x46fd74668027851b:0x53c68ee5c9acb766!8m2!3d54.352239!4d18.593031!16s%2Fg%2F11cn9rmt9f!19sChIJG4UngGZ0_UYRZresyeWOxlM?authuser=0&hl=en&rclk=1
54.3498337,18.6445248,shop,& Other Stories,https://www.google.com/maps/place/%26+Other+Stories/data=!4m7!3m6!1s0x46fd736ed23cc9e3:0xf2313dd3649922a9!8m2!3d54.3498337!4d18.6445248!16s%2Fg%2F11h1jcl2vs!19sChIJ48k80m5z_UYRqSKZZNM9MfI?authuser=0&hl=en&rclk=1
54.336379,18.649039,shop,Otherhood Shop,https://www.google.com/maps/place/Otherhood+Shop/data=!4m7!3m6!1s0x46fd732003b738a7:0x467e00b0e48447d9!8m2!3d54.336379!4d18.649039!16s%2Fg%2F11n5fxhnwk!19sChIJpzi3AyBz_UYR2UeE5LAAfkY?authuser=0&hl=en&rclk=1
54.349547,18.656567,shop,Indorshop.pl,https://www.google.com/maps/place/Indorshop.pl/data=!4m7!3m6!1s0x46fd73a067c5f931:0x2a6bc21f763e5eb!8m2!3d54.349547!4d18.656567!16s%2Fg%2F11b6v36sjn!19sChIJMfnFZ6Bz_UYR6-Vj9yG8pgI?authuser=0&hl=en&rclk=1
54.3474897,18.659356,shop,Sklep z pamiątkami,https://www.google.com/maps/place/Sklep+z+pami%C4%85tkami/data=!4m7!3m6!1s0x46fd73979b1cd6e9:0x80dca35823ce8d23!8m2!3d54.3474897!4d18.659356!16s%2Fg%2F11h7b44__n!19sChIJ6dYcm5dz_UYRI43OI1ij3IA?authuser=0&hl=en&rclk=1
54.3476637,18.6565973,shop,Ciucholand,https://www.google.com/maps/place/Ciucholand/data=!4m7!3m6!1s0x46fd739e83bf1845:0xbcf7e72619622890!8m2!3d54.3476637!4d18.6565973!16s%2Fg%2F11gjwpx13b!19sChIJRRi_g55z_UYRkChiGSbn97w?authuser=0&hl=en&rclk=1
54.3484711,18.6561141,shop,Goldwasser Gdansk.,https://www.google.com/maps/place/Goldwasser+Gdansk./data=!4m7!3m6!1s0x46fd73a05164164f:0xebc773cc499d25b9!8m2!3d54.3484711!4d18.6561141!16s%2Fg%2F11dxlc_2b4!19sChIJTxZkUaBz_UYRuSWdScxzx-s?authuser=0&hl=en&rclk=1
54.3465449,18.6663004,shop,Żabka,https://www.google.com/maps/place/%C5%BBabka/data=!4m7!3m6!1s0x46fd73c769ce84fd:0x89a48b77ef35ce07!8m2!3d54.3465449!4d18.6663004!16s%2Fg%2F11s8c1rqk3!19sChIJ_YTOacdz_UYRB84173eLpIk?authuser=0&hl=en&rclk=1
54.3478999,18.6607202,shop,Boleslawiec Pottery Shop,https://www.google.com/maps/place/Boleslawiec+Pottery+Shop/data=!4m7!3m6!1s0x46fd73a1261e64a1:0x78721487c9025169!8m2!3d54.3478999!4d18.6607202!16s%2Fg%2F11c0pskkhf!19sChIJoWQeJqFz_UYRaVECyYcUcng?authuser=0&hl=en&rclk=1
54.3509823,18.7084248,shop,Łukasz Pociennik,https://www.google.com/maps/place/%C5%81ukasz+Pociennik/data=!4m7!3m6!1s0x46fd731335267c9d:0x5983eaab60075d4f!8m2!3d54.3509823!4d18.7084248!16s%2Fg%2F11t1g0hbmc!19sChIJnXwmNRNz_UYRT10HYKvqg1k?authuser=0&hl=en&rclk=1
54.3509778,18.70751,shop,Tezap Oddział Gdańsk,https://www.google.com/maps/place/Tezap+Oddzia%C5%82+Gda%C5%84sk/data=!4m7!3m6!1s0x46fd72fa7ea8251d:0xc20d595d1d223231!8m2!3d54.3509778!4d18.70751!16s%2Fg%2F11b7d_9br8!19sChIJHSWofvpy_UYRMTIiHV1ZDcI?authuser=0&hl=en&rclk=1
54.3422631,18.7553809,shop,PREMIO - Polish Service Tires,https://www.google.com/maps/place/PREMIO+-+Polish+Service+Tires/data=!4m7!3m6!1s0x46fd728271e57e2f:0x8e26f88b16c59df!8m2!3d54.3422631!4d18.7553809!16s%2Fg%2F1tl1gky4!19sChIJL37lcYJy_UYR31lssYhv4gg?authuser=0&hl=en&rclk=1
54.3426633,18.7542113,shop,Wulkanizacja Mobilna Gdańsk Gdynia Sopot. Mobilny serwis opon. Wymiana opon Trójmiasto i okolice,https://www.google.com/maps/place/Wulkanizacja+Mobilna+Gda%C5%84sk+Gdynia+Sopot.+Mobilny+serwis+opon.+Wymiana+opon+Tr%C3%B3jmiasto+i+okolice/data=!4m7!3m6!1s0x46fd731ce666ca1d:0xde700eac26bb193a!8m2!3d54.3426633!4d18.7542113!16s%2Fg%2F11j2wltgkc!19sChIJHcpm5hxz_UYROhm7JqwOcN4?authuser=0&hl=en&rclk=1
54.343827,18.827416,shop,"BUTIK ""La Moda""",https://www.google.com/maps/place/BUTIK+%22La+Moda%22/data=!4m7!3m6!1s0x46fd6dd9960662cd:0x94e0f4ba645578e7!8m2!3d54.343827!4d18.827416!16s%2Fg%2F11fm9y0bjl!19sChIJzWIGltlt_UYR53hVZLr04JQ?authuser=0&hl=en&rclk=1
54.344158,18.830226,shop,Żabka,https://www.google.com/maps/place/%C5%BBabka/data=!4m7!3m6!1s0x46fd6d80c0c002cf:0x3990a4098d94ba51!8m2!3d54.344158!4d18.830226!16s%2Fg%2F11gk8v28cj!19sChIJzwLAwIBt_UYRUbqUjQmkkDk?authuser=0&hl=en&rclk=1
54.3450914,18.828714,shop,"Smaki Lata Sobieszewo. Lody i gofry, wyspa Sobieszewska.","https://www.google.com/maps/place/Smaki+Lata+Sobieszewo.+Lody+i+gofry,+wyspa+Sobieszewska./data=!4m7!3m6!1s0x46fd6ce0032f9def:0xd2562ce0c00682c6!8m2!3d54.3450914!4d18.828714!16s%2Fg%2F11dyzd14r4!19sChIJ750vA-Bs_UYRxoIGwOAsVtI?authuser=0&hl=en&rclk=1"
54.3460017,18.8755026,shop,Cantin of Orle - Snacks,https://www.google.com/maps/place/Cantin+of+Orle+-+Snacks/data=!4m7!3m6!1s0x46fd6d7aedfb4391:0x9183724226da777a!8m2!3d54.3460017!4d18.8755026!16s%2Fg%2F11s5cywm_7!19sChIJkUP77Xpt_UYRenfaJkJyg5E?authuser=0&hl=en&rclk=1
54.3368793,18.4107424,shop,Service Tire LEO Leszek Pyszka,https://www.google.com/maps/place/Service+Tire+LEO+Leszek+Pyszka/data=!4m7!3m6!1s0x46fd9dd3d9299b73:0xf75b7ae3c2b36ada!8m2!3d54.3368793!4d18.4107424!16s%2Fg%2F1tnhx0jr!19sChIJc5sp2dOd_UYR2mqzwuN6W_c?authuser=0&hl=en&rclk=1
54.324853,18.413743,shop,"""Darko"" Materiały Budowlane, Tynki Kleib","https://www.google.com/maps/place/%22Darko%22+Materia%C5%82y+Budowlane,+Tynki+Kleib/data=!4m7!3m6!1s0x46fd9d9351160da5:0xf3df5ae35709a970!8m2!3d54.324853!4d18.413743!16s%2Fg%2F11xx8h6s8!19sChIJpQ0WUZOd_UYRcKkJV-Na3_M?authuser=0&hl=en&rclk=1"
54.3367168,18.5058561,shop,giveros.com,https://www.google.com/maps/place/giveros.com/data=!4m7!3m6!1s0x46fd753cc1983445:0xcc80a1a90e17c0ad!8m2!3d54.3367168!4d18.5058561!16s%2Fg%2F11s67bqw2_!19sChIJRTSYwTx1_UYRrcAXDqmhgMw?authuser=0&hl=en&rclk=1
54.3385617,18.5000756,shop,Silver Line. Wilkowski M.,https://www.google.com/maps/place/Silver+Line.+Wilkowski+M./data=!4m7!3m6!1s0x46fd75e7093b4e1b:0xe5ebb15b75376040!8m2!3d54.3385617!4d18.5000756!16s%2Fg%2F1td31r0_!19sChIJG047Ced1_UYRQGA3dVux6-U?authuser=0&hl=en&rclk=1
54.3498485,18.5283215,shop,Decathlon Gdańsk Kartuska,https://www.google.com/maps/place/Decathlon+Gda%C5%84sk+Kartuska/data=!4m7!3m6!1s0x46fd75b99d12b3db:0xf4117c0b3dd47ddd!8m2!3d54.3498485!4d18.5283215!16s%2Fg%2F1tjgz1hr!19sChIJ27MSnbl1_UYR3X3UPQt8EfQ?authuser=0&hl=en&rclk=1
54.3461264,18.5304943,shop,"Davos Sp. z o.o. Art. dekoracyjne, lampki choinkowe, oświetlenie świąteczne","https://www.google.com/maps/place/Davos+Sp.+z+o.o.+Art.+dekoracyjne,+lampki+choinkowe,+o%C5%9Bwietlenie+%C5%9Bwi%C4%85teczne/data=!4m7!3m6!1s0x46fd75c9acccb381:0x908c553eac6e4dd3!8m2!3d54.3461264!4d18.5304943!16s%2Fg%2F1ptz6j006!19sChIJgbPMrMl1_UYR001urD5VjJA?authuser=0&hl=en&rclk=1"
54.3505124,18.563,shop,Manufaktura Mojej Mamy Bakery Cake Shop,https://www.google.com/maps/place/Manufaktura+Mojej+Mamy+Bakery+Cake+Shop/data=!4m7!3m6!1s0x46fd744f471ed3ef:0xa9368670ed28f735!8m2!3d54.3505124!4d18.563!16s%2Fg%2F11bywl28t9!19sChIJ79MeR090_UYRNfco7XCGNqk?authuser=0&hl=en&rclk=1
54.331673,18.5603061,shop,Nasiona marihuany | MegaNasiona.pl,https://www.google.com/maps/place/Nasiona+marihuany+%7C+MegaNasiona.pl/data=!4m7!3m6!1s0x46fd7463c8d0dd3f:0x86039b079ecb4244!8m2!3d54.331673!4d18.5603061!16s%2Fg%2F11g7_glt69!19sChIJP93QyGN0_UYRRELLngebA4Y?authuser=0&hl=en&rclk=1
54.3390924,18.5594666,shop,Żabka,https://www.google.com/maps/place/%C5%BBabka/data=!4m7!3m6!1s0x46fd7596a39687db:0x12602482005dedb9!8m2!3d54.3390924!4d18.5594666!16s%2Fg%2F11fps82z6c!19sChIJ24eWo5Z1_UYRue1dAIIkYBI?authuser=0&hl=en&rclk=1
54.328858,18.5821479,shop,Think Green,https://www.google.com/maps/place/Think+Green/data=!4m7!3m6!1s0x46fd741076774cd1:0xdb4c3d616ba20fc9!8m2!3d54.328858!4d18.5821479!16s%2Fg%2F11flvvzxt4!19sChIJ0Ux3dhB0_UYRyQ-ia2E9TNs?authuser=0&hl=en&rclk=1
54.3373328,18.5711918,shop,Biedronka,https://www.google.com/maps/place/Biedronka/data=!4m7!3m6!1s0x46fd759f86744273:0x57934a25647d7656!8m2!3d54.3373328!4d18.5711918!16s%2Fg%2F11gjm6bthg!19sChIJc0J0hp91_UYRVnZ9ZCVKk1c?authuser=0&hl=en&rclk=1
54.3379181,18.5678554,shop,Meble Tapicerowane Sierakowice,https://www.google.com/maps/place/Meble+Tapicerowane+Sierakowice/data=!4m7!3m6!1s0x46fdf29c6d0ca947:0x8359bafe85e068f8!8m2!3d54.3379181!4d18.5678554!16s%2Fg%2F11fm16dhd0!19sChIJR6kMbZzy_UYR-Gjghf66WYM?authuser=0&hl=en&rclk=1
54.3416783,18.6089373,shop,"Meble biurowe Gdańsk, Gdynia, Sopot","https://www.google.com/maps/place/Meble+biurowe+Gda%C5%84sk,+Gdynia,+Sopot/data=!4m7!3m6!1s0x46fd747676ec5555:0xe5bf7fc04fd1c609!8m2!3d54.3416783!4d18.6089373!16s%2Fg%2F11fm169cw0!19sChIJVVXsdnZ0_UYRCcbRT8B_v-U?authuser=0&hl=en&rclk=1"
54.338523,18.587098,shop,Żabka,https://www.google.com/maps/place/%C5%BBabka/data=!4m7!3m6!1s0x46fd74132301c727:0xbc329af140a42048!8m2!3d54.338523!4d18.587098!16s%2Fg%2F11f3wvbhz_!19sChIJJ8cBIxN0_UYRSCCkQPGaMrw?authuser=0&hl=en&rclk=1
54.336573,18.6125062,shop,Butik z bielizną Babeczka,https://www.google.com/maps/place/Butik+z+bielizn%C4%85+Babeczka/data=!4m7!3m6!1s0x46fd73eaa2dbc80b:0xfc347f43a95df5c!8m2!3d54.336573!4d18.6125062!16s%2Fg%2F11pzxg5_35!19sChIJC8jboupz_UYRXN-VOvRHww8?authuser=0&hl=en&rclk=1
54.3373615,18.6132782,shop,PEPCO Gdańsk,https://www.google.com/maps/place/PEPCO+Gda%C5%84sk/data=!4m7!3m6!1s0x46fd750c2412b725:0x97f7b37c701290f3!8m2!3d54.3373615!4d18.6132782!16s%2Fg%2F11f7165xvt!19sChIJJbcSJAx1_UYR85AScHyz95c?authuser=0&hl=en&rclk=1
54.3297744,18.6043214,shop,Pepco,https://www.google.com/maps/place/Pepco/data=!4m7!3m6!1s0x46fd73f608d3e3f1:0xc73c6bba18674d1b!8m2!3d54.3297744!4d18.6043214!16s%2Fg%2F1hc0x8v2k!19sChIJ8ePTCPZz_UYRG01nGLprPMc?authuser=0&hl=en&rclk=1
54.3365519,18.6207565,shop,Zuzu Sklep Papierniczy Pasmanteria Tkaniny Ksero,https://www.google.com/maps/place/Zuzu+Sklep+Papierniczy+Pasmanteria+Tkaniny+Ksero/data=!4m7!3m6!1s0x46fd738c1737181b:0x7ad42e811837384e!8m2!3d54.3365519!4d18.6207565!16s%2Fg%2F11c7vv7dsj!19sChIJGxg3F4xz_UYRTjg3GIEu1Ho?authuser=0&hl=en&rclk=1
54.332335,18.634157,shop,Żabka,https://www.google.com/maps/place/%C5%BBabka/data=!4m7!3m6!1s0x46fd7394c9fb6ddd:0xbd26e1f381ae153a!8m2!3d54.332335!4d18.634157!16s%2Fg%2F11gfdz2cgl!19sChIJ3W37yZRz_UYROhWugfPhJr0?authuser=0&hl=en&rclk=1
54.3493405,18.6501179,shop,ETNO Crafts world,https://www.google.com/maps/place/ETNO+Crafts+world/data=!4m7!3m6!1s0x46fd739fa6b09fcb:0xc11523ef8f3ed134!8m2!3d54.3493405!4d18.6501179!16s%2Fg%2F11dfgx_7g8!19sChIJy5-wpp9z_UYRNNE-j-8jFcE?authuser=0&hl=en&rclk=1
54.3401939,18.6862382,shop,Mobilna wulkanizacja,https://www.google.com/maps/place/Mobilna+wulkanizacja/data=!4m7!3m6!1s0x46fd7349b33f0a77:0xf488467754fa314b!8m2!3d54.3401939!4d18.6862382!16s%2Fg%2F11k3yn3xzc!19sChIJdwo_s0lz_UYRSzH6VHdGiPQ?authuser=0&hl=en&rclk=1
54.3347112,18.690023,shop,Tom Gum wulkanizacja warsztat samochodowy,https://www.google.com/maps/place/Tom+Gum+wulkanizacja+warsztat+samochodowy/data=!4m7!3m6!1s0x46fd73942dcca6ab:0xe04aae96af006a56!8m2!3d54.3347112!4d18.690023!16s%2Fg%2F11f_0vwyxf!19sChIJq6bMLZRz_UYRVmoAr5auSuA?authuser=0&hl=en&rclk=1
54.3259366,18.7463405,shop,Biedronka,https://www.google.com/maps/place/Biedronka/data=!4m7!3m6!1s0x46fd6d87dca63eff:0xf3f59e7ad8f3ee16!8m2!3d54.3259366!4d18.7463405!16s%2Fg%2F11b5wn5kq2!19sChIJ_z6m3Idt_UYRFu7z2Hqe9fM?authuser=0&hl=en&rclk=1
54.334843,18.79589,shop,Remonty Łazienek. Edward Weyer.,https://www.google.com/maps/place/Remonty+%C5%81azienek.+Edward+Weyer./data=!4m7!3m6!1s0x46fd6d0eba0842f3:0x85d0ae8dd4e289ca!8m2!3d54.334843!4d18.79589!16s%2Fg%2F1hf59cr1x!19sChIJ80IIug5t_UYRyoni1I2u0IU?authuser=0&hl=en&rclk=1
54.3338814,18.9524926,shop,Monique Cake Shop Pracownia cukiernicza,https://www.google.com/maps/place/Monique+Cake+Shop+Pracownia+cukiernicza/data=!4m7!3m6!1s0x46fd6be825400bd1:0xdfd209f48318f47b!8m2!3d54.3338814!4d18.9524926!16s%2Fg%2F11m_s62cs8!19sChIJ0QtAJehr_UYRe_QYg_QJ0t8?authuser=0&hl=en&rclk=1
54.3516521,18.525476,shop,"Auchan Gdańsk, Szczęśliwa","https://www.google.com/maps/place/Auchan+Gda%C5%84sk,+Szcz%C4%99%C5%9Bliwa/data=!4m7!3m6!1s0x46fd75b8ffcbee83:0x7b8b10e66985bf45!8m2!3d54.3516521!4d18.525476!16s%2Fg%2F11bxfdtwc2!19sChIJg-7L_7h1_UYRRb-FaeYQi3s?authuser=0&hl=en&rclk=1"
54.31611,18.455027,shop,"PHU ""FilAr"" Arkadiusz Grzenkowitz",https://www.google.com/maps/place/PHU+%22FilAr%22+Arkadiusz+Grzenkowitz/data=!4m7!3m6!1s0x46fd761f9997a04f:0x8009b8b53c30243b!8m2!3d54.31611!4d18.455027!16s%2Fg%2F12hpqbt_x!19sChIJT6CXmR92_UYROyQwPLW4CYA?authuser=0&hl=en&rclk=1
54.3204333,18.5305817,shop,FA Sklep,https://www.google.com/maps/place/FA+Sklep/data=!4m7!3m6!1s0x46fd74a3ca7fde75:0x1f5ee852334c9838!8m2!3d54.3204333!4d18.5305817!16s%2Fg%2F11cjkqjn46!19sChIJdd5_yqN0_UYROJhMM1LoXh8?authuser=0&hl=en&rclk=1
54.31892,18.5519271,shop,Mountain Warehouse Gdansk,https://www.google.com/maps/place/Mountain+Warehouse+Gdansk/data=!4m7!3m6!1s0x46fd769dda4aa209:0x40812e5231efb454!8m2!3d54.31892!4d18.5519271!16s%2Fg%2F11b75hzzkl!19sChIJCaJK2p12_UYRVLTvMVIugUA?authuser=0&hl=en&rclk=1
54.323332,18.5520631,shop,Action Gdańsk,https://www.google.com/maps/place/Action+Gda%C5%84sk/data=!4m7!3m6!1s0x46fd755b41d60c63:0x56117cdd436211c1!8m2!3d54.323332!4d18.5520631!16s%2Fg%2F11r108wzvl!19sChIJYwzWQVt1_UYRwRFiQ918EVY?authuser=0&hl=en&rclk=1
54.3211207,18.5522813,shop,Nike Unite Gdansk,https://www.google.com/maps/place/Nike+Unite+Gdansk/data=!4m7!3m6!1s0x46fd769de3fb87f3:0xf829b9666123d020!8m2!3d54.3211207!4d18.5522813!16s%2Fg%2F11g9f2d_lx!19sChIJ84f74512_UYRINAjYWa5Kfg?authuser=0&hl=en&rclk=1
54.3199707,18.5518668,shop,Big Star Outlet,https://www.google.com/maps/place/Big+Star+Outlet/data=!4m7!3m6!1s0x46fd769dd792660b:0xecfd33698ebedc07!8m2!3d54.3199707!4d18.5518668!16s%2Fg%2F11bx2g4p2b!19sChIJC2aS1512_UYRB9y-jmkz_ew?authuser=0&hl=en&rclk=1
54.320352,18.551411,shop,Outlet WITTCHEN®,https://www.google.com/maps/place/Outlet+WITTCHEN%C2%AE/data=!4m7!3m6!1s0x46fd769ddb13b91b:0x3c54af36dda20838!8m2!3d54.320352!4d18.551411!16s%2Fg%2F11b5wly83r!19sChIJG7kT2512_UYROAii3TavVDw?authuser=0&hl=en&rclk=1
54.3184538,18.5494039,shop,"JYSK Gdańsk, MPH","https://www.google.com/maps/place/JYSK+Gda%C5%84sk,+MPH/data=!4m7!3m6!1s0x46fd77c06997cdd1:0x1136f4a924ae9bd!8m2!3d54.3184538!4d18.5494039!16s%2Fg%2F11h_1gf273!19sChIJ0c2XacB3_UYRvelKkkpvEwE?authuser=0&hl=en&rclk=1"
54.3217156,18.5512149,shop,Media Expert,https://www.google.com/maps/place/Media+Expert/data=!4m7!3m6!1s0x46fd769d8d3bcbe5:0x99df765f569bac3!8m2!3d54.3217156!4d18.5512149!16s%2Fg%2F11c2qx5cg5!19sChIJ5cs7jZ12_UYRw7pp9WX3nQk?authuser=0&hl=en&rclk=1
54.3225577,18.5530463,shop,PEPCO,https://www.google.com/maps/place/PEPCO/data=!4m7!3m6!1s0x46fd7702331bfaf7:0x6d8a8174b5e4632!8m2!3d54.3225577!4d18.5530463!16s%2Fg%2F11fz95ryb2!19sChIJ9_obMwJ3_UYRMkZeSxeo2AY?authuser=0&hl=en&rclk=1
54.3207264,18.5524917,shop,PUMA Outlet Gdańsk,https://www.google.com/maps/place/PUMA+Outlet+Gda%C5%84sk/data=!4m7!3m6!1s0x46fd769e7e5a35c7:0x8c75f9e63e91634!8m2!3d54.3207264!4d18.5524917!16s%2Fg%2F1tk21mhd!19sChIJxzVafp52_UYRNBbpY55fxwg?authuser=0&hl=en&rclk=1
54.3211817,18.5729566,shop,Zabawki edukacyjne & upominki,https://www.google.com/maps/place/Zabawki+edukacyjne+%26+upominki/data=!4m7!3m6!1s0x46fd75f10b16579f:0x862005560dda9e07!8m2!3d54.3211817!4d18.5729566!16s%2Fg%2F11lgpb7bf1!19sChIJn1cWC_F1_UYRB57aDVYFIIY?authuser=0&hl=en&rclk=1
54.3198372,18.5518882,shop,Desigual,https://www.google.com/maps/place/Desigual/data=!4m7!3m6!1s0x46fd77dbf4df205f:0x89770bfc22826511!8m2!3d54.3198372!4d18.5518882!16s%2Fg%2F11sbbgq92l!19sChIJXyDf9Nt3_UYREWWCIvwLd4k?authuser=0&hl=en&rclk=1
54.322669,18.559322,shop,Żabka,https://www.google.com/maps/place/%C5%BBabka/data=!4m7!3m6!1s0x46fd742015739d5b:0x4fe30dffd288bd97!8m2!3d54.322669!4d18.559322!16s%2Fg%2F11cmh0tz7z!19sChIJW51zFSB0_UYRl72I0v8N408?authuser=0&hl=en&rclk=1
54.3206765,18.5523667,shop,Regatta Great Outdoors,https://www.google.com/maps/place/Regatta+Great+Outdoors/data=!4m7!3m6!1s0x46fd769dd65e57cd:0x306182b8b3a24743!8m2!3d54.3206765!4d18.5523667!16s%2Fg%2F11c6slwq3p!19sChIJzVde1p12_UYRQ0eis7iCYTA?authuser=0&hl=en&rclk=1
54.3239896,18.6025119,shop,Wka,https://www.google.com/maps/place/Wka/data=!4m7!3m6!1s0x46fd7375abd53c7d:0x5adaa3845b3bcb3c!8m2!3d54.3239896!4d18.6025119!16s%2Fg%2F11sbflqqvp!19sChIJfTzVq3Vz_UYRPMs7W4Sj2lo?authuser=0&hl=en&rclk=1
54.3203651,18.5949555,shop,Żabka,https://www.google.com/maps/place/%C5%BBabka/data=!4m7!3m6!1s0x46fd7560a8ecc481:0x1562a22e2ab31b4d!8m2!3d54.3203651!4d18.5949555!16s%2Fg%2F11nntzgqql!19sChIJgcTsqGB1_UYRTRuzKi6iYhU?authuser=0&hl=en&rclk=1
54.3280197,18.6047772,shop,AleKreska.pl,https://www.google.com/maps/place/AleKreska.pl/data=!4m7!3m6!1s0x46fd733c331e6d1d:0xbe25c66fa09ae90f!8m2!3d54.3280197!4d18.6047772!16s%2Fg%2F11q1tvwtq9!19sChIJHW0eMzxz_UYRD-maoG_GJb4?authuser=0&hl=en&rclk=1
54.3246052,18.6068605,shop,ALKO OUTLET Orunia,https://www.google.com/maps/place/ALKO+OUTLET+Orunia/data=!4m7!3m6!1s0x46fd73f9e103fd5f:0xfb37a34157e65356!8m2!3d54.3246052!4d18.6068605!16s%2Fg%2F11c2jn2hqt!19sChIJX_0D4flz_UYRVlPmV0GjN_s?authuser=0&hl=en&rclk=1
54.3187012,18.6364604,shop,SzipSzop.pl,https://www.google.com/maps/place/SzipSzop.pl/data=!4m7!3m6!1s0x46fd74101fa2641b:0x2a5eea1f51086315!8m2!3d54.3187012!4d18.6364604!16s%2Fg%2F1tdx2tzp!19sChIJG2SiHxB0_UYRFWMIUR_qXio?authuser=0&hl=en&rclk=1
54.326009,18.633346,shop,Żabka,https://www.google.com/maps/place/%C5%BBabka/data=!4m7!3m6!1s0x46fd7316bc541afb:0x15afe091ab4e4140!8m2!3d54.326009!4d18.633346!16s%2Fg%2F11t5twthz9!19sChIJ-xpUvBZz_UYRQEFOq5HgrxU?authuser=0&hl=en&rclk=1
54.3201328,18.745374,shop,TOP10 fajerwerki,https://www.google.com/maps/place/TOP10+fajerwerki/data=!4m7!3m6!1s0x46fd6d880c0e5f75:0x26792f1baa43f64c!8m2!3d54.3201328!4d18.745374!16s%2Fg%2F1tc_jv4s!19sChIJdV8ODIht_UYRTPZDqhsveSY?authuser=0&hl=en&rclk=1
54.3243431,18.7465938,shop,Serwis Opon PNEUMATICO Tomasz Pleński,https://www.google.com/maps/place/Serwis+Opon+PNEUMATICO+Tomasz+Ple%C5%84ski/data=!4m7!3m6!1s0x46fd6d4fdf76afbf:0xa764ca2b26595e73!8m2!3d54.3243431!4d18.7465938!16s%2Fg%2F11hzxsmhhp!19sChIJv692309t_UYRc15ZJivKZKc?authuser=0&hl=en&rclk=1
54.3203524,18.5514108,shop,Tchibo Outlet,https://www.google.com/maps/place/Tchibo+Outlet/data=!4m7!3m6!1s0x46fd77eb5235ca0f:0x894eec877142d12b!8m2!3d54.3203524!4d18.5514108!16s%2Fg%2F11mvp6q9xg!19sChIJD8o1Uut3_UYRK9FCcYfsTok?authuser=0&hl=en&rclk=1
54.3203524,18.5514108,shop,ASICS - Gdańsk Factory Outlet,https://www.google.com/maps/place/ASICS+-+Gda%C5%84sk+Factory+Outlet/data=!4m7!3m6!1s0x46fd769e42be47cf:0x158a27d10cee463!8m2!3d54.3203524!4d18.5514108!16s%2Fg%2F11b5z47lpb!19sChIJz0e-Qp52_UYRY-TOEH2iWAE?authuser=0&hl=en&rclk=1
54.3183617,18.5527502,shop,Salon OCHNIK - Designer Outlet - Gdańsk,https://www.google.com/maps/place/Salon+OCHNIK+-+Designer+Outlet+-+Gda%C5%84sk/data=!4m7!3m6!1s0x46fd769ddceac6c3:0xeb5e7d45fcfb51e3!8m2!3d54.3183617!4d18.5527502!16s%2Fg%2F11c2l09s80!19sChIJw8bq3J12_UYR41H7_EV9Xus?authuser=0&hl=en&rclk=1
54.3115115,18.5675156,shop,eSmoking World,https://www.google.com/maps/place/eSmoking+World/data=!4m7!3m6!1s0x46fd76a4560f1acb:0x5e9eb0805c11b25d!8m2!3d54.3115115!4d18.5675156!16s%2Fg%2F11hd73q9v4!19sChIJyxoPVqR2_UYRXbIRXICwnl4?authuser=0&hl=en&rclk=1
54.3115115,18.5675156,shop,TRESOR BUTIK,https://www.google.com/maps/place/TRESOR+BUTIK/data=!4m7!3m6!1s0x46fd777f90e14753:0x6a4d18cdf75f645b!8m2!3d54.3115115!4d18.5675156!16s%2Fg%2F11h4d4q_wf!19sChIJU0fhkH93_UYRW2Rf980YTWo?authuser=0&hl=en&rclk=1
54.3110993,18.5674068,shop,PEPCO,https://www.google.com/maps/place/PEPCO/data=!4m7!3m6!1s0x46fd76a45784bca3:0x4dc9bdc53e3aa561!8m2!3d54.3110993!4d18.5674068!16s%2Fg%2F1s04dwfkb!19sChIJo7yEV6R2_UYRYaU6PsW9yU0?authuser=0&hl=en&rclk=1
54.314413,18.569996,shop,Żabka,https://www.google.com/maps/place/%C5%BBabka/data=!4m7!3m6!1s0x46fd741fe036ce0d:0xfd048bf81be674ca!8m2!3d54.314413!4d18.569996!16s%2Fg%2F1tf06c3j!19sChIJDc424B90_UYRynTmG_iLBP0?authuser=0&hl=en&rclk=1
54.3140842,18.5710766,shop,Meble kuchenne Gdańsk,https://www.google.com/maps/place/Meble+kuchenne+Gda%C5%84sk/data=!4m7!3m6!1s0x46fd76a67a900001:0x841962dd22d3072c!8m2!3d54.3140842!4d18.5710766!16s%2Fg%2F11fm16338q!19sChIJAQCQeqZ2_UYRLAfTIt1iGYQ?authuser=0&hl=en&rclk=1
54.306754,18.597259,shop,Żabka,https://www.google.com/maps/place/%C5%BBabka/data=!4m7!3m6!1s0x46fd71517716e613:0x5eee744d4035d847!8m2!3d54.306754!4d18.597259!16s%2Fg%2F11fylyryq0!19sChIJE-YWd1Fx_UYRR9g1QE107l4?authuser=0&hl=en&rclk=1
54.3128695,18.597356,shop,"Włóczki tkaniny, szycie i projektowanie odzieży","https://www.google.com/maps/place/W%C5%82%C3%B3czki+tkaniny,+szycie+i+projektowanie+odzie%C5%BCy/data=!4m7!3m6!1s0x46fd71262e43faef:0x2e79ebf6d0bba777!8m2!3d54.3128695!4d18.597356!16s%2Fg%2F11gb3yrh4f!19sChIJ7_pDLiZx_UYRd6e70PbreS4?authuser=0&hl=en&rclk=1"
54.308784,18.5854201,shop,Żabka,https://www.google.com/maps/place/%C5%BBabka/data=!4m7!3m6!1s0x46fd773c6404eb5d:0x7e1f917380aef8c3!8m2!3d54.308784!4d18.5854201!16s%2Fg%2F11sr0_jsdd!19sChIJXesEZDx3_UYRw_iugHORH34?authuser=0&hl=en&rclk=1
54.317102,18.5832791,shop,Żabka,https://www.google.com/maps/place/%C5%BBabka/data=!4m7!3m6!1s0x46fd77c74eccc4bd:0x58ed3c7b15ea8e65!8m2!3d54.317102!4d18.5832791!16s%2Fg%2F11h3pynsnc!19sChIJvcTMTsd3_UYRZY7qFXs87Vg?authuser=0&hl=en&rclk=1
54.301853,18.5859516,shop,Optimera Mystery Shopping,https://www.google.com/maps/place/Optimera+Mystery+Shopping/data=!4m7!3m6!1s0x46fd714ce83ff931:0x88594e54e062d654!8m2!3d54.301853!4d18.5859516!16s%2Fg%2F11b69zq6c4!19sChIJMfk_6Exx_UYRVNZi4FROWYg?authuser=0&hl=en&rclk=1
54.3102493,18.5879726,shop,Biedronka,https://www.google.com/maps/place/Biedronka/data=!4m7!3m6!1s0x46fd76acbce01351:0x1d4ac2db2a3cb90c!8m2!3d54.3102493!4d18.5879726!16s%2Fg%2F1hdzw2h0t!19sChIJURPgvKx2_UYRDLk8KtvCSh0?authuser=0&hl=en&rclk=1
54.3064577,18.5873529,shop,Toontutu,https://www.google.com/maps/place/Toontutu/data=!4m7!3m6!1s0x46fd712476dc8787:0xd729ed9543217cae!8m2!3d54.3064577!4d18.5873529!16s%2Fg%2F11rnnjnmlq!19sChIJh4fcdiRx_UYRrnwhQ5XtKdc?authuser=0&hl=en&rclk=1
54.3162885,18.6361493,shop,Dobrze Upieczone Anna Wójcik,https://www.google.com/maps/place/Dobrze+Upieczone+Anna+W%C3%B3jcik/data=!4m7!3m6!1s0x46fd737fb70ba0a1:0x60d07c6705a889c8!8m2!3d54.3162885!4d18.6361493!16s%2Fg%2F11tcjvy1fn!19sChIJoaALt39z_UYRyImoBWd80GA?authuser=0&hl=en&rclk=1
54.3093052,18.6300163,shop,Belamed Izabela Szostak-Szulc,https://www.google.com/maps/place/Belamed+Izabela+Szostak-Szulc/data=!4m7!3m6!1s0x46fd615a550fcfd1:0xdf4316721e3f751c!8m2!3d54.3093052!4d18.6300163!16s%2Fg%2F1vp72gp8!19sChIJ0c8PVVph_UYRHHU_HnIWQ98?authuser=0&hl=en&rclk=1
54.3251858,18.6188313,shop,Shop Hairdressing Cosmetic Wera,https://www.google.com/maps/place/Shop+Hairdressing+Cosmetic+Wera/data=!4m7!3m6!1s0x46fd73efdadd3a03:0xcec15abf7339a878!8m2!3d54.3251858!4d18.6188313!16s%2Fg%2F11fx8c547x!19sChIJAzrd2u9z_UYReKg5c79awc4?authuser=0&hl=en&rclk=1
54.3103404,18.7969559,shop,Favorite toys internetowy sklep z zabawkami i akcesoriami dla dzieci,https://www.google.com/maps/place/Favorite+toys+internetowy+sklep+z+zabawkami+i+akcesoriami+dla+dzieci/data=!4m7!3m6!1s0x66dad641d70484af:0xba77820689ffa30c!8m2!3d54.3103404!4d18.7969559!16s%2Fg%2F11p07ztsv6!19sChIJr4QE10HW2mYRDKP_iQaCd7o?authuser=0&hl=en&rclk=1
54.2945589,18.5372435,shop,ZOYA Fashion,https://www.google.com/maps/place/ZOYA+Fashion/data=!4m7!3m6!1s0x46fd76b2ba11c74f:0xac8dacb216c4d217!8m2!3d54.2945589!4d18.5372435!16s%2Fg%2F11f57t6c_g!19sChIJT8cRurJ2_UYRF9LEFrKsjaw?authuser=0&hl=en&rclk=1
54.2910718,18.5318484,shop,Victoria-Sport Sp. o.o.,https://www.google.com/maps/place/Victoria-Sport+Sp.+o.o./data=!4m7!3m6!1s0x46fd735727bbaf95:0xc5d2ce74aaad0537!8m2!3d54.2910718!4d18.5318484!16s%2Fg%2F1tjz6n5r!19sChIJla-7J1dz_UYRNwWtqnTO0sU?authuser=0&hl=en&rclk=1
54.3053848,18.5416807,shop,Serwis Opon Kowale Mobilny,https://www.google.com/maps/place/Serwis+Opon+Kowale+Mobilny/data=!4m7!3m6!1s0x46fd771c3624c1d9:0x81ccfc9698bc8b28!8m2!3d54.3053848!4d18.5416807!16s%2Fg%2F11tjgpg013!19sChIJ2cEkNhx3_UYRKIu8mJb8zIE?authuser=0&hl=en&rclk=1
54.3053848,18.5416807,shop,Zakład Tapicerski Fach-MEB Tomasz Stefański,https://www.google.com/maps/place/Zak%C5%82ad+Tapicerski+Fach-MEB+Tomasz+Stefa%C5%84ski/data=!4m7!3m6!1s0x46fd87625cf2089d:0x28ae966216242659!8m2!3d54.3053848!4d18.5416807!16s%2Fg%2F1tm8cpd_!19sChIJnQjyXGKH_UYRWSYkFmKWrig?authuser=0&hl=en&rclk=1
54.305168,18.543358,shop,Partsclub.pl SERWIS,https://www.google.com/maps/place/Partsclub.pl+SERWIS/data=!4m7!3m6!1s0x46fd76945d0b77cf:0x30ad44f1f5346d89!8m2!3d54.305168!4d18.543358!16s%2Fg%2F11b7q_dbsh!19sChIJz3cLXZR2_UYRiW009fFErTA?authuser=0&hl=en&rclk=1
54.3034744,18.5729266,shop,Lasem Zdobione,https://www.google.com/maps/place/Lasem+Zdobione/data=!4m7!3m6!1s0x46fd76b1165d9a33:0xb8b019ae7fc93095!8m2!3d54.3034744!4d18.5729266!16s%2Fg%2F11fm167tlf!19sChIJM5pdFrF2_UYRlTDJf64ZsLg?authuser=0&hl=en&rclk=1
54.3050696,18.5684018,shop,Woodpic,https://www.google.com/maps/place/Woodpic/data=!4m7!3m6!1s0x46fd77201f366b8f:0xc754d82433380163!8m2!3d54.3050696!4d18.5684018!16s%2Fg%2F11r_wbnjp4!19sChIJj2s2HyB3_UYRYwE4MyTYVMc?authuser=0&hl=en&rclk=1
54.3014982,18.5770117,shop,LODOSTANY Borkowo,https://www.google.com/maps/place/LODOSTANY+Borkowo/data=!4m7!3m6!1s0x46fd77b858a1ceed:0xe161707d1a452739!8m2!3d54.3014982!4d18.5770117!16s%2Fg%2F11q2syfw4r!19sChIJ7c6hWLh3_UYROSdFGn1wYeE?authuser=0&hl=en&rclk=1
54.302086,18.57713,shop,Super-Planet,https://www.google.com/maps/place/Super-Planet/data=!4m7!3m6!1s0x46fd76b392d14853:0x5eba364d1736767d!8m2!3d54.302086!4d18.57713!16s%2Fg%2F11bxd_sbbx!19sChIJU0jRkrN2_UYRfXY2F002ul4?authuser=0&hl=en&rclk=1
54.3021187,18.5516576,shop,Serwis Opon Mobilny Gdansk,https://www.google.com/maps/place/Serwis+Opon+Mobilny+Gdansk/data=!4m7!3m6!1s0x46fd7724b3e4e571:0x6bcb57f571c60e50!8m2!3d54.3021187!4d18.5516576!16s%2Fg%2F11k3hwy879!19sChIJceXksyR3_UYRUA7GcfVXy2s?authuser=0&hl=en&rclk=1
54.3016248,18.6099131,shop,Trójmiejskie Ciacho,https://www.google.com/maps/place/Tr%C3%B3jmiejskie+Ciacho/data=!4m7!3m6!1s0x46fd71b41956c0cf:0xc8d0b041b507a73d!8m2!3d54.3016248!4d18.6099131!16s%2Fg%2F11tg0d03hh!19sChIJz8BWGbRx_UYRPacHtUGw0Mg?authuser=0&hl=en&rclk=1
54.297666,18.5915961,shop,Aura. Sklep meblowy. Kocięda M.,https://www.google.com/maps/place/Aura.+Sklep+meblowy.+Koci%C4%99da+M./data=!4m7!3m6!1s0x46fd76a477eaba77:0x62d1660626b5b21d!8m2!3d54.297666!4d18.5915961!16s%2Fg%2F1ptw_cdjk!19sChIJd7rqd6R2_UYRHbK1JgZm0WI?authuser=0&hl=en&rclk=1
54.3037025,18.6113098,shop,Żabka,https://www.google.com/maps/place/%C5%BBabka/data=!4m7!3m6!1s0x46fd7127c44d25f9:0xed4c738027dc7d54!8m2!3d54.3037025!4d18.6113098!16s%2Fg%2F11rmww04pj!19sChIJ-SVNxCdx_UYRVH3cJ4BzTO0?authuser=0&hl=en&rclk=1
54.2972325,18.5936227,shop,Wulkanizacja Mobilna,https://www.google.com/maps/place/Wulkanizacja+Mobilna/data=!4m7!3m6!1s0x46fd71ee506dd191:0xa8b3628ee85f01d1!8m2!3d54.2972325!4d18.5936227!16s%2Fg%2F11k3hx80b9!19sChIJkdFtUO5x_UYR0QFf6I5is6g?authuser=0&hl=en&rclk=1
54.3015808,18.5869756,shop,Mobilna Wulkanizacja Borkowo,https://www.google.com/maps/place/Mobilna+Wulkanizacja+Borkowo/data=!4m7!3m6!1s0x46fd71e85c2005ef:0x1cf7c1e699d2154b!8m2!3d54.3015808!4d18.5869756!16s%2Fg%2F11tg5m1q62!19sChIJ7wUgXOhx_UYRSxXSmebB9xw?authuser=0&hl=en&rclk=1
54.2966438,18.5902106,shop,Woodentino,https://www.google.com/maps/place/Woodentino/data=!4m7!3m6!1s0x46fd71cb7f432a73:0xee498ef1454ada32!8m2!3d54.2966438!4d18.5902106!16s%2Fg%2F11p6fn9f7v!19sChIJcypDf8tx_UYRMtpKRfGOSe4?authuser=0&hl=en&rclk=1
54.295369,18.6343979,shop,Wiklina Meble Kosze,https://www.google.com/maps/place/Wiklina+Meble+Kosze/data=!4m7!3m6!1s0x46fd717036423bdd:0xe08873ac64b11a0f!8m2!3d54.295369!4d18.6343979!16s%2Fg%2F11g0h2rsp3!19sChIJ3TtCNnBx_UYRDxqxZKxziOA?authuser=0&hl=en&rclk=1
54.3006665,18.6368263,shop,Atut - Markizy & Rolety,https://www.google.com/maps/place/Atut+-+Markizy+%26+Rolety/data=!4m7!3m6!1s0x46fd717b2e818965:0x98766b6cbd5a3523!8m2!3d54.3006665!4d18.6368263!16s%2Fg%2F1hc46hkn4!19sChIJZYmBLntx_UYRIzVavWxrdpg?authuser=0&hl=en&rclk=1
