lat,lon,type,title,link
54.435368,18.418612,silownia,Modelscy Sport Club,https://www.google.com/maps/place/Modelscy+Sport+Club/data=!4m7!3m6!1s0x46fda1e23d645f5b:0x3dc2ebabd0ae56e7!8m2!3d54.435368!4d18.418612!16s%2Fg%2F11b6zptsk7!19sChIJW19kPeKh_UYR51au0Kvrwj0?authuser=0&hl=en&rclk=1
54.4614766,18.4505889,silownia,Premium Fitness&Gym Gdynia,https://www.google.com/maps/place/Premium+Fitness%26Gym+Gdynia/data=!4m7!3m6!1s0x46fda1a9cfb27a9f:0xab5177c658b0ea53!8m2!3d54.4614766!4d18.4505889!16s%2Fg%2F11hz_543pk!19sChIJn3qyz6mh_UYRU-qwWMZ3Uas?authuser=0&hl=en&rclk=1
54.4738355,18.4746581,silownia,Fitness Klub ZDROFIT Gdynia - Karwiny,https://www.google.com/maps/place/Fitness+Klub+ZDROFIT+Gdynia+-+Karwiny/data=!4m7!3m6!1s0x46fda1bf753d1f5b:0x95a7b8e5c20290e4!8m2!3d54.4738355!4d18.4746581!16s%2Fg%2F11h9hk8y6m!19sChIJWx89db-h_UYR5JACwuW4p5U?authuser=0&hl=en&rclk=1
54.4328044,18.4804677,silownia,Klub fitness UP - Gdańsk Osowa,https://www.google.com/maps/place/Klub+fitness+UP+-+Gda%C5%84sk+Osowa/data=!4m7!3m6!1s0x46fda02f7cf7d3dd:0xa37289d8d94e2710!8m2!3d54.4328044!4d18.4804677!16s%2Fg%2F11bwm4t8sy!19sChIJ3dP3fC-g_UYRECdO2diJcqM?authuser=0&hl=en&rclk=1
54.500053,18.4372643,silownia,Fitness Klub ZDROFIT Gdynia - Chwarzno,https://www.google.com/maps/place/Fitness+Klub+ZDROFIT+Gdynia+-+Chwarzno/data=!4m7!3m6!1s0x46fda3e0325dc0af:0x7a9d3abb3d84fbe1!8m2!3d54.500053!4d18.4372643!16s%2Fg%2F11b6zt8bnj!19sChIJr8BdMuCj_UYR4fuEPbs6nXo?authuser=0&hl=en&rclk=1
54.4722839,18.5189464,silownia,Centrum Fitness Gdynia,https://www.google.com/maps/place/Centrum+Fitness+Gdynia/data=!4m7!3m6!1s0x46fda0f2372037c5:0xe130ba4cc9d01737!8m2!3d54.4722839!4d18.5189464!16s%2Fg%2F11bw3ftck7!19sChIJxTcgN_Kg_UYRNxfQyUy6MOE?authuser=0&hl=en&rclk=1
54.4465369,18.4254032,silownia,Fit Medica,https://www.google.com/maps/place/Fit+Medica/data=!4m7!3m6!1s0x46fd9ea0c5bf29dd:0xbd157b5a20508a80!8m2!3d54.4465369!4d18.4254032!16s%2Fg%2F1hjglwwbb!19sChIJ3Sm_xaCe_UYRgIpQIFp7Fb0?authuser=0&hl=en&rclk=1
54.388222,18.3835227,silownia,Good Luck Club Banino,https://www.google.com/maps/place/Good+Luck+Club+Banino/data=!4m7!3m6!1s0x46fd9edbdc669faf:0xc33125f2550a4046!8m2!3d54.388222!4d18.3835227!16s%2Fg%2F11b6zq_d46!19sChIJr59m3Nue_UYRRkAKVfIlMcM?authuser=0&hl=en&rclk=1
54.4039409,18.5714547,silownia,CityFit,https://www.google.com/maps/place/CityFit/data=!4m7!3m6!1s0x46fd752e8e7ea7f1:0x19f5d693839e7c4e!8m2!3d54.4039409!4d18.5714547!16s%2Fg%2F11cmr01lhs!19sChIJ8ad-ji51_UYRTnyeg5PW9Rk?authuser=0&hl=en&rclk=1
54.5031548,18.5315364,silownia,Zdrofit,https://www.google.com/maps/place/Zdrofit/data=!4m7!3m6!1s0x46fda0cd93030ee9:0x7051a8385a9300a6!8m2!3d54.5031548!4d18.5315364!16s%2Fg%2F11cjkp_9gv!19sChIJ6Q4Dk82g_UYRpgCTWjioUXA?authuser=0&hl=en&rclk=1
54.3992272,18.5762208,silownia,Zdrofit Gdańsk - Alchemia,https://www.google.com/maps/place/Zdrofit+Gda%C5%84sk+-+Alchemia/data=!4m7!3m6!1s0x46fd7599f48ff897:0x285f8607708176d1!8m2!3d54.3992272!4d18.5762208!16s%2Fg%2F1ptxgrzf9!19sChIJl_iP9Jl1_UYR0XaBcAeGXyg?authuser=0&hl=en&rclk=1
54.522221,18.5434721,silownia,Fitness Klub ZDROFIT Gdynia - Plac Kaszubski,https://www.google.com/maps/place/Fitness+Klub+ZDROFIT+Gdynia+-+Plac+Kaszubski/data=!4m7!3m6!1s0x46fda724aa8ada53:0x1f230f9100b5186e!8m2!3d54.522221!4d18.5434721!16s%2Fg%2F11cly5b20w!19sChIJU9qKqiSn_UYRbhi1AJEPIx8?authuser=0&hl=en&rclk=1
54.4119683,18.6024734,silownia,Fitness Klub ZDROFIT Gdańsk - Przymorze,https://www.google.com/maps/place/Fitness+Klub+ZDROFIT+Gda%C5%84sk+-+Przymorze/data=!4m7!3m6!1s0x46fd0bd175185a21:0x44395510a64d48e!8m2!3d54.4119683!4d18.6024734!16s%2Fg%2F11f8ljbqlh!19sChIJIVoYddEL_UYRjtRkClGVQwQ?authuser=0&hl=en&rclk=1
54.4675652,18.4876974,silownia,ACTIV Studio Recreation FIKAKOWO,https://www.google.com/maps/place/ACTIV+Studio+Recreation+FIKAKOWO/data=!4m7!3m6!1s0x46fda0554e623a63:0xf1a6cf35d05e5e4e!8m2!3d54.4675652!4d18.4876974!16s%2Fg%2F11clsxyftw!19sChIJYzpiTlWg_UYRTl5e0DXPpvE?authuser=0&hl=en&rclk=1
54.4741461,18.5144881,silownia,BODY CENTER - Gdynia,https://www.google.com/maps/place/BODY+CENTER+-+Gdynia/data=!4m7!3m6!1s0x46fda0f1b559d7f9:0x8a7ded3d2143d5d7!8m2!3d54.4741461!4d18.5144881!16s%2Fg%2F11b6_n7sc2!19sChIJ-ddZtfGg_UYR19VDIT3tfYo?authuser=0&hl=en&rclk=1
54.471384,18.4607579,silownia,ACTIV Studio Recreation DĄBROWA,https://www.google.com/maps/place/ACTIV+Studio+Recreation+D%C4%84BROWA/data=!4m7!3m6!1s0x46fda1a095a02af1:0x9424c2c09429f87f!8m2!3d54.471384!4d18.4607579!16s%2Fg%2F11clyvrl5f!19sChIJ8SqglaCh_UYRf_gplMDCJJQ?authuser=0&hl=en&rclk=1
54.4572677,18.5352953,silownia,Pit Gym Siłownia,https://www.google.com/maps/place/Pit+Gym+Si%C5%82ownia/data=!4m7!3m6!1s0x46fda07cc3c220a3:0x7b853912ad9af1bc!8m2!3d54.4572677!4d18.5352953!16s%2Fg%2F1hc4s5c15!19sChIJoyDCw3yg_UYRvPGarRI5hXs?authuser=0&hl=en&rclk=1
54.4743043,18.5519425,silownia,Calypso Fitness i Siłownia Gdynia Klif,https://www.google.com/maps/place/Calypso+Fitness+i+Si%C5%82ownia+Gdynia+Klif/data=!4m7!3m6!1s0x46fda137d0148c19:0x6e4fa127cee223ef!8m2!3d54.4743043!4d18.5519425!16s%2Fg%2F11gh6bxgmj!19sChIJGYwU0Deh_UYR7yPiziehT24?authuser=0&hl=en&rclk=1
54.445755,18.55059,silownia,CENTRUM SOPOT,https://www.google.com/maps/place/CENTRUM+SOPOT/data=!4m7!3m6!1s0x46fd0a9cb0b4ce9f:0xc7bc5755cc042bc0!8m2!3d54.445755!4d18.55059!16s%2Fg%2F1tpln_sw!19sChIJn860sJwK_UYRwCsEzFVXvMc?authuser=0&hl=en&rclk=1
54.4416285,18.5620849,silownia,Klub Fitness ZDROFIT Sopot - Sopot Centrum,https://www.google.com/maps/place/Klub+Fitness+ZDROFIT+Sopot+-+Sopot+Centrum/data=!4m7!3m6!1s0x46fd0a90e3470949:0xe2713afd759ca0e2!8m2!3d54.4416285!4d18.5620849!16s%2Fg%2F11gbfd9rkn!19sChIJSQlH45AK_UYR4qCcdf06ceI?authuser=0&hl=en&rclk=1
54.4482863,18.5554385,silownia,Siłownia pod chmurką,https://www.google.com/maps/place/Si%C5%82ownia+pod+chmurk%C4%85/data=!4m7!3m6!1s0x46fd0bb369ebc8b9:0xac17bd36454ffa98!8m2!3d54.4482863!4d18.5554385!16s%2Fg%2F11j99qj4wp!19sChIJucjrabML_UYRmPpPRTa9F6w?authuser=0&hl=en&rclk=1
54.4198083,18.5621899,silownia,Akademos - Fitness Klub,https://www.google.com/maps/place/Akademos+-+Fitness+Klub/data=!4m7!3m6!1s0x46fd0ac835ce2f91:0x320accf973d92f83!8m2!3d54.4198083!4d18.5621899!16s%2Fg%2F1v82_sx0!19sChIJkS_ONcgK_UYRgy_Zc_nMCjI?authuser=0&hl=en&rclk=1
54.4340056,18.5635448,silownia,Community Fitness 3miasto,https://www.google.com/maps/place/Community+Fitness+3miasto/data=!4m7!3m6!1s0x46fd0a95f49d43af:0x98a34db7eaed4dd3!8m2!3d54.4340056!4d18.5635448!16s%2Fg%2F1pxwqb6xp!19sChIJr0Od9JUK_UYR003t6rdNo5g?authuser=0&hl=en&rclk=1
54.4474588,18.5683975,silownia,SmartGym: Gdańsk Gdynia Sopot,https://www.google.com/maps/place/SmartGym:+Gda%C5%84sk+Gdynia+Sopot/data=!4m7!3m6!1s0x46fd0a90372e30f7:0x205b0788cbed1206!8m2!3d54.4474588!4d18.5683975!16s%2Fg%2F11fm16dhbr!19sChIJ9zAuN5AK_UYRBhLty4gHWyA?authuser=0&hl=en&rclk=1
54.446682,18.569163,silownia,Sheraton Sopot Spa,https://www.google.com/maps/place/Sheraton+Sopot+Spa/data=!4m7!3m6!1s0x46fd0a8e63a06713:0x4c2165056ea26daa!8m2!3d54.446682!4d18.569163!16s%2Fg%2F11c5stvtl8!19sChIJE2egY44K_UYRqm2ibgVlIUw?authuser=0&hl=en&rclk=1
54.4400581,18.4566484,silownia,Centrum Rekreacji Studio Nr 1,https://www.google.com/maps/place/Centrum+Rekreacji+Studio+Nr+1/data=!4m7!3m6!1s0x46fda029d2d823d1:0x2201d6ca9e65346e!8m2!3d54.4400581!4d18.4566484!16s%2Fg%2F1yfh_k0f_!19sChIJ0SPY0img_UYRbjRlnsrWASI?authuser=0&hl=en&rclk=1
54.4286593,18.4683796,silownia,Taurus,https://www.google.com/maps/place/Taurus/data=!4m7!3m6!1s0x46fda02a2a486585:0xf864dc032293fb12!8m2!3d54.4286593!4d18.4683796!16s%2Fg%2F1tg59sz9!19sChIJhWVIKiqg_UYREvuTIgPcZPg?authuser=0&hl=en&rclk=1
54.431072,18.473274,silownia,Gregor Gym,https://www.google.com/maps/place/Gregor+Gym/data=!4m7!3m6!1s0x46fda1b92c2739fd:0x383154c27e0cef67!8m2!3d54.431072!4d18.473274!16s%2Fg%2F11h0b99h2j!19sChIJ_TknLLmh_UYRZ-8MfsJUMTg?authuser=0&hl=en&rclk=1
54.4017988,18.5792583,silownia,All For Body,https://www.google.com/maps/place/All+For+Body/data=!4m7!3m6!1s0x46fd75299c22a2dd:0x4df7a53ae2b302b2!8m2!3d54.4017988!4d18.5792583!16s%2Fg%2F11ggrbxbzt!19sChIJ3aIinCl1_UYRsgKz4jql900?authuser=0&hl=en&rclk=1
54.4223169,18.5820279,silownia,"Siłownia ""Pod chmurką""",https://www.google.com/maps/place/Si%C5%82ownia+%22Pod+chmurk%C4%85%22/data=!4m7!3m6!1s0x46fd0adad89dd9eb:0x7446c00c29c5d0a!8m2!3d54.4223169!4d18.5820279!16s%2Fg%2F11c1vqnnjt!19sChIJ69md2NoK_UYRCl2cwgBsRAc?authuser=0&hl=en&rclk=1
54.421579,18.5687783,silownia,Body Club Centrum Rekreacyjno-Kulturystyczne i Fitness,https://www.google.com/maps/place/Body+Club+Centrum+Rekreacyjno-Kulturystyczne+i+Fitness/data=!4m7!3m6!1s0x46fd0acf715b3c8f:0x3f1afcfd2fbbcd9f!8m2!3d54.421579!4d18.5687783!16s%2Fg%2F1tdb7jh_!19sChIJjzxbcc8K_UYRn827L_38Gj8?authuser=0&hl=en&rclk=1
54.4289637,18.5904468,silownia,Marina Wellness Center swimming pool,https://www.google.com/maps/place/Marina+Wellness+Center+swimming+pool/data=!4m7!3m6!1s0x46fd0add8ff75053:0x70bf976ec8e4c18a!8m2!3d54.4289637!4d18.5904468!16s%2Fg%2F1tf8rsxz!19sChIJU1D3j90K_UYRisHkyG6Xv3A?authuser=0&hl=en&rclk=1
54.391556,18.5692393,silownia,MOVEGYM - Studio Treningowe,https://www.google.com/maps/place/MOVEGYM+-+Studio+Treningowe/data=!4m7!3m6!1s0x46fd75555d10940d:0x3860c214aa03de0!8m2!3d54.391556!4d18.5692393!16s%2Fg%2F11p0ckhn6m!19sChIJDZQQXVV1_UYR4D2gSiEMhgM?authuser=0&hl=en&rclk=1
54.4213647,18.4745367,silownia,Siłownia zewnętrzna,https://www.google.com/maps/place/Si%C5%82ownia+zewn%C4%99trzna/data=!4m7!3m6!1s0x46fd9f22b439ba8f:0xba3757c05f3826ed!8m2!3d54.4213647!4d18.4745367!16s%2Fg%2F11fhyqfcv2!19sChIJj7o5tCKf_UYR7SY4X8BXN7o?authuser=0&hl=en&rclk=1
54.4263726,18.4799098,silownia,Impuls Zdrowia,https://www.google.com/maps/place/Impuls+Zdrowia/data=!4m7!3m6!1s0x46fda19fc088113d:0x6cf91280a6884673!8m2!3d54.4263726!4d18.4799098!16s%2Fg%2F11h1djd8s8!19sChIJPRGIwJ-h_UYRc0aIpoAS-Ww?authuser=0&hl=en&rclk=1
54.3850873,18.5760858,silownia,Siłownia na Wolnym Powietrzu,https://www.google.com/maps/place/Si%C5%82ownia+na+Wolnym+Powietrzu/data=!4m7!3m6!1s0x46fd74e08be07f41:0xec9d063d8233d557!8m2!3d54.3850873!4d18.5760858!16s%2Fg%2F11c4gd_c_b!19sChIJQX_gi-B0_UYRV9Uzgj0Gnew?authuser=0&hl=en&rclk=1
54.4095818,18.5908366,silownia,Calypso Fitness i Siłownia,https://www.google.com/maps/place/Calypso+Fitness+i+Si%C5%82ownia/data=!4m7!3m6!1s0x46fd0b2b1d21c681:0x7ad8593c392e10fb!8m2!3d54.4095818!4d18.5908366!16s%2Fg%2F1ptzkclyj!19sChIJgcYhHSsL_UYR-xAuOTxZ2Ho?authuser=0&hl=en&rclk=1
54.3998717,18.5913089,silownia,Klub fitness i Siłownia Total Fitness Gdańsk,https://www.google.com/maps/place/Klub+fitness+i+Si%C5%82ownia+Total+Fitness+Gda%C5%84sk/data=!4m7!3m6!1s0x46fd75a797cf308d:0xb088a864abf1d590!8m2!3d54.3998717!4d18.5913089!16s%2Fg%2F11h38h9v3n!19sChIJjTDPl6d1_UYRkNXxq2SoiLA?authuser=0&hl=en&rclk=1
54.3395513,18.5558479,silownia,Gym & Fitness Gdańsk - Good Luck Club,https://www.google.com/maps/place/Gym+%26+Fitness+Gda%C5%84sk+-+Good+Luck+Club/data=!4m7!3m6!1s0x46fd74375d2f00d5:0x7822e1414613962c!8m2!3d54.3395513!4d18.5558479!16s%2Fg%2F1ts1lbft!19sChIJ1QAvXTd0_UYRLJYTRkHhIng?authuser=0&hl=en&rclk=1
54.3906056,18.5875471,silownia,Siłownia Total Fitness Gdańsk,https://www.google.com/maps/place/Si%C5%82ownia+Total+Fitness+Gda%C5%84sk/data=!4m7!3m6!1s0x46fd749449c99c55:0xb298c8793401ef7d!8m2!3d54.3906056!4d18.5875471!16s%2Fg%2F1hc0x8v2n!19sChIJVZzJSZR0_UYRfe8BNHnImLI?authuser=0&hl=en&rclk=1
54.4023529,18.5979628,silownia,Atleta. Miejski Klub Sportowy,https://www.google.com/maps/place/Atleta.+Miejski+Klub+Sportowy/data=!4m7!3m6!1s0x46fd74d253eb3661:0xedd3bdd47fbf73da!8m2!3d54.4023529!4d18.5979628!16s%2Fg%2F1tmpcmnk!19sChIJYTbrU9J0_UYR2nO_f9S90-0?authuser=0&hl=en&rclk=1
54.4090133,18.6369747,silownia,Jungle Gym,https://www.google.com/maps/place/Jungle+Gym/data=!4m7!3m6!1s0x46fd0b0fd55912b5:0x11624e682d87b21b!8m2!3d54.4090133!4d18.6369747!16s%2Fg%2F11q8sk4bz7!19sChIJtRJZ1Q8L_UYRG7KHLWhOYhE?authuser=0&hl=en&rclk=1
54.401212,18.6730959,silownia,Port Fitness,https://www.google.com/maps/place/Port+Fitness/data=!4m7!3m6!1s0x46fd0d0ee0b42993:0xe180380e3f192ec8!8m2!3d54.401212!4d18.6730959!16s%2Fg%2F11fb0889zg!19sChIJkym04A4N_UYRyC4ZPw44gOE?authuser=0&hl=en&rclk=1
54.3722991,18.6341438,silownia,FitYard,https://www.google.com/maps/place/FitYard/data=!4m7!3m6!1s0x46fd7361e40c1ed7:0xf6e7a6256d9dcbd8!8m2!3d54.3722991!4d18.6341438!16s%2Fg%2F11cn9r7j66!19sChIJ1x4M5GFz_UYR2MudbSWm5_Y?authuser=0&hl=en&rclk=1
54.3772561,18.6238052,silownia,Siłownia kalisteniczna,https://www.google.com/maps/place/Si%C5%82ownia+kalisteniczna/data=!4m7!3m6!1s0x46fd74985ff7afc7:0x683c6ed2ec4917a5!8m2!3d54.3772561!4d18.6238052!16s%2Fg%2F11fy4hcgm8!19sChIJx6_3X5h0_UYRpRdJ7NJuPGg?authuser=0&hl=en&rclk=1
54.3899659,18.6102236,silownia,Calypso Fitness Gdańsk Zaspa,https://www.google.com/maps/place/Calypso+Fitness+Gda%C5%84sk+Zaspa/data=!4m7!3m6!1s0x46fd75a49849c72b:0x397ea9408e495c2b!8m2!3d54.3899659!4d18.6102236!16s%2Fg%2F11mtjf3qcf!19sChIJK8dJmKR1_UYRK1xJjkCpfjk?authuser=0&hl=en&rclk=1
54.392417,18.4083149,silownia,Studio Kształtowania Sylwetki Rolletic,https://www.google.com/maps/place/Studio+Kszta%C5%82towania+Sylwetki+Rolletic/data=!4m7!3m6!1s0x46fd9f1dd089ba97:0x161ce20bf799d4ba!8m2!3d54.392417!4d18.4083149!16s%2Fg%2F11g873j36g!19sChIJl7qJ0B2f_UYRutSZ9wviHBY?authuser=0&hl=en&rclk=1
54.3810515,18.5962245,silownia,Fitness Club Spójnia,https://www.google.com/maps/place/Fitness+Club+Sp%C3%B3jnia/data=!4m7!3m6!1s0x46fd74e989414b41:0x5cafe3b35a0aa8b9!8m2!3d54.3810515!4d18.5962245!16s%2Fg%2F1yj4k3jft!19sChIJQUtBiel0_UYRuagKWrPjr1w?authuser=0&hl=en&rclk=1
54.3829264,18.6039032,silownia,Tonezone,https://www.google.com/maps/place/Tonezone/data=!4m7!3m6!1s0x46fd74bf8d033e89:0x63ebe331064d9ba9!8m2!3d54.3829264!4d18.6039032!16s%2Fg%2F11gbw9fldd!19sChIJiT4Djb90_UYRqZtNBjHj62M?authuser=0&hl=en&rclk=1
54.3773803,18.6072282,silownia,Fitness Klub ZDROFIT Gdańsk - CH Manhattan,https://www.google.com/maps/place/Fitness+Klub+ZDROFIT+Gda%C5%84sk+-+CH+Manhattan/data=!4m7!3m6!1s0x46fd749446d19051:0x3ce22f92acd648f!8m2!3d54.3773803!4d18.6072282!16s%2Fg%2F1vj5yxkm!19sChIJUZDRRpR0_UYRj2TNKvkizgM?authuser=0&hl=en&rclk=1
54.394864,18.6092543,silownia,Siłownia pod chmurką,https://www.google.com/maps/place/Si%C5%82ownia+pod+chmurk%C4%85/data=!4m7!3m6!1s0x46fd7531c25d7c1f:0x7c22f4465d96bc2e!8m2!3d54.394864!4d18.6092543!16s%2Fg%2F11j90kzxxv!19sChIJH3xdwjF1_UYRLryWXUb0Inw?authuser=0&hl=en&rclk=1
54.3911408,18.5880557,silownia,CrossCore CrossFit,https://www.google.com/maps/place/CrossCore+CrossFit/data=!4m7!3m6!1s0x46fd74db8f23b58f:0xe92c7dd20d3e3863!8m2!3d54.3911408!4d18.5880557!16s%2Fg%2F11clrs1j8y!19sChIJj7Ujj9t0_UYRYzg-DdJ9LOk?authuser=0&hl=en&rclk=1
54.3900881,18.59208,silownia,"CrossCore Fight Gym klub sportów walki ""fight Academy """,https://www.google.com/maps/place/CrossCore+Fight+Gym+klub+sport%C3%B3w+walki+%22fight+Academy+%22/data=!4m7!3m6!1s0x46fd74db477982ab:0x24ec37bdf620dba4!8m2!3d54.3900881!4d18.59208!16s%2Fg%2F1tp8yr8m!19sChIJq4J5R9t0_UYRpNsg9r037CQ?authuser=0&hl=en&rclk=1
54.356532,18.648498,silownia,Calypso Fitness i Siłownia,https://www.google.com/maps/place/Calypso+Fitness+i+Si%C5%82ownia/data=!4m7!3m6!1s0x46fd7376a235bc37:0x5aca3204f4f08dec!8m2!3d54.356532!4d18.648498!16s%2Fg%2F11bwf75dmf!19sChIJN7w1onZz_UYR7I3w9AQyylo?authuser=0&hl=en&rclk=1
54.349346,18.643527,silownia,CityFit,https://www.google.com/maps/place/CityFit/data=!4m7!3m6!1s0x46fd738d30bdd287:0xd7ced77384ac72f2!8m2!3d54.349346!4d18.643527!16s%2Fg%2F11h6r9t5lq!19sChIJh9K9MI1z_UYR8nKshHPXztc?authuser=0&hl=en&rclk=1
54.3609731,18.7159982,silownia,Fit Lady Studio Fitness,https://www.google.com/maps/place/Fit+Lady+Studio+Fitness/data=!4m7!3m6!1s0x46fd72e888b0d909:0xc192d3f72e22fa00!8m2!3d54.3609731!4d18.7159982!16s%2Fg%2F11hbtwf9pr!19sChIJCdmwiOhy_UYRAPoiLvfTksE?authuser=0&hl=en&rclk=1
54.3455853,18.5325408,silownia,Gdańsk Fitness Magnum,https://www.google.com/maps/place/Gda%C5%84sk+Fitness+Magnum/data=!4m7!3m6!1s0x46fd75c985a7022d:0xcc57e063826c5370!8m2!3d54.3455853!4d18.5325408!16s%2Fg%2F1tp2z22y!19sChIJLQKnhcl1_UYRcFNsgmPgV8w?authuser=0&hl=en&rclk=1
54.3584112,18.5859918,silownia,Siłownia B-52 Morena,https://www.google.com/maps/place/Si%C5%82ownia+B-52+Morena/data=!4m7!3m6!1s0x46fd745e38f9094f:0x6bd1c232ef47e8b0!8m2!3d54.3584112!4d18.5859918!16s%2Fg%2F1wzt11qw!19sChIJTwn5OF50_UYRsOhH7zLC0Ws?authuser=0&hl=en&rclk=1
54.3896861,18.5993654,silownia,Outdoor gym,https://www.google.com/maps/place/Outdoor+gym/data=!4m7!3m6!1s0x46fd74c41560bbd1:0x948d571076da9305!8m2!3d54.3896861!4d18.5993654!16s%2Fg%2F12q4qcxjr!19sChIJ0btgFcR0_UYRBZPadhBXjZQ?authuser=0&hl=en&rclk=1
54.3823734,18.5860922,silownia,MEON EMS studio Gdańsk,https://www.google.com/maps/place/MEON+EMS+studio+Gda%C5%84sk/data=!4m7!3m6!1s0x46fd75b3cbb72daf:0x96a386481498da5c!8m2!3d54.3823734!4d18.5860922!16s%2Fg%2F11qz95rc9q!19sChIJry23y7N1_UYRXNqYFEiGo5Y?authuser=0&hl=en&rclk=1
54.3809089,18.5958561,silownia,Siłownia trainPRO,https://www.google.com/maps/place/Si%C5%82ownia+trainPRO/data=!4m7!3m6!1s0x46fd75ccde3051ff:0x90869fbf334e43dc!8m2!3d54.3809089!4d18.5958561!16s%2Fg%2F11frjbg246!19sChIJ_1Ew3sx1_UYR3ENOM7-fhpA?authuser=0&hl=en&rclk=1
54.3770237,18.6053331,silownia,MOVE4LIFE,https://www.google.com/maps/place/MOVE4LIFE/data=!4m7!3m6!1s0x46fd75fe3f4734f5:0xe04a3fb8ea70bc3c!8m2!3d54.3770237!4d18.6053331!16s%2Fg%2F11rjbcv4fx!19sChIJ9TRHP_51_UYRPLxw6rg_SuA?authuser=0&hl=en&rclk=1
54.3556043,18.6143403,silownia,Fitness Klub ZDROFIT Gdańsk - Suchanino,https://www.google.com/maps/place/Fitness+Klub+ZDROFIT+Gda%C5%84sk+-+Suchanino/data=!4m7!3m6!1s0x46fd747e6f1b5c3b:0xe431993fe1e9d425!8m2!3d54.3556043!4d18.6143403!16s%2Fg%2F11g6jb2c0g!19sChIJO1wbb350_UYRJdTp4T-ZMeQ?authuser=0&hl=en&rclk=1
54.3226378,18.5531688,silownia,Fitness Klub ZDROFIT Gdańsk - CH Rental Park,https://www.google.com/maps/place/Fitness+Klub+ZDROFIT+Gda%C5%84sk+-+CH+Rental+Park/data=!4m7!3m6!1s0x46fd7509def8309d:0x6362530295153415!8m2!3d54.3226378!4d18.5531688!16s%2Fg%2F11g2zcn4pm!19sChIJnTD43gl1_UYRFTQVlQJTYmM?authuser=0&hl=en&rclk=1
54.3721758,18.5238065,silownia,Siłownia na świeżym powietrzu,https://www.google.com/maps/place/Si%C5%82ownia+na+%C5%9Bwie%C5%BCym+powietrzu/data=!4m7!3m6!1s0x46fd7519dcabd815:0xc01cfa8dbc6ab611!8m2!3d54.3721758!4d18.5238065!16s%2Fg%2F11tccc7qlj!19sChIJFdir3Bl1_UYREbZqvI36HMA?authuser=0&hl=en&rclk=1
54.3606127,18.5877129,silownia,Premium Fitness & Gym - Club and Gym,https://www.google.com/maps/place/Premium+Fitness+%26+Gym+-+Club+and+Gym/data=!4m7!3m6!1s0x46fd745feb043313:0x7921b3e1f4a47641!8m2!3d54.3606127!4d18.5877129!16s%2Fg%2F11cm0g8hqf!19sChIJEzME6190_UYRQXak9OGzIXk?authuser=0&hl=en&rclk=1
54.3773231,18.5743205,silownia,Siłownia pod chmurkąchmurką,https://www.google.com/maps/place/Si%C5%82ownia+pod+chmurk%C4%85chmurk%C4%85/data=!4m7!3m6!1s0x46fd75bb80602eaf:0x6a9766243ef78cdc!8m2!3d54.3773231!4d18.5743205!16s%2Fg%2F11fj6vskdd!19sChIJry5ggLt1_UYR3Iz3PiRml2o?authuser=0&hl=en&rclk=1
54.3526019,18.5939831,silownia,Calypso Fitness and Gym Danzig Zigankenberg,https://www.google.com/maps/place/Calypso+Fitness+and+Gym+Danzig+Zigankenberg/data=!4m7!3m6!1s0x46fd74642f31e0a1:0x288874045ebffbd!8m2!3d54.3526019!4d18.5939831!16s%2Fg%2F11c4b3104r!19sChIJoeAxL2R0_UYRvf_rRUCHiAI?authuser=0&hl=en&rclk=1
54.357397,18.6917,silownia,Drakkar Gdansk Rowing Club,https://www.google.com/maps/place/Drakkar+Gdansk+Rowing+Club/data=!4m7!3m6!1s0x46fd731d38900fd1:0xd521a6ed111d2c94!8m2!3d54.357397!4d18.6917!16s%2Fg%2F1tcxnc64!19sChIJ0Q-QOB1z_UYRlCwdEe2mIdU?authuser=0&hl=en&rclk=1
54.3589877,18.6796034,silownia,Knockout Fight & Gym,https://www.google.com/maps/place/Knockout+Fight+%26+Gym/data=!4m7!3m6!1s0x46fd73629c66533d:0xa2ff8d696a719e42!8m2!3d54.3589877!4d18.6796034!16s%2Fg%2F11gy7_k_f9!19sChIJPVNmnGJz_UYRQp5xammN_6I?authuser=0&hl=en&rclk=1
54.3377876,18.6119613,silownia,ZDROFIT,https://www.google.com/maps/place/ZDROFIT/data=!4m7!3m6!1s0x46fd738af1abebfb:0xbaac1760a5d91070!8m2!3d54.3377876!4d18.6119613!16s%2Fg%2F11bw673vbq!19sChIJ--ur8Ypz_UYRcBDZpWAXrLo?authuser=0&hl=en&rclk=1
54.336478,18.6204508,silownia,Premium Fitness & Gym - Klub i Siłownia,https://www.google.com/maps/place/Premium+Fitness+%26+Gym+-+Klub+i+Si%C5%82ownia/data=!4m7!3m6!1s0x46fd738cf9e30b73:0x447e11b1bf6025df!8m2!3d54.336478!4d18.6204508!16s%2Fg%2F11c3xb2ktj!19sChIJcwvj-Yxz_UYR3yVgv7ERfkQ?authuser=0&hl=en&rclk=1
54.324464,18.609995,silownia,CityFitness,https://www.google.com/maps/place/CityFitness/data=!4m7!3m6!1s0x46fd73f0a61ae6e9:0x26996197962c3b9d!8m2!3d54.324464!4d18.609995!16s%2Fg%2F1hc2s81y3!19sChIJ6eYapvBz_UYRnTsslpdhmSY?authuser=0&hl=en&rclk=1
54.329899,18.6049984,silownia,Klub Fitness i Siłownia Total Fitness Gdańsk,https://www.google.com/maps/place/Klub+Fitness+i+Si%C5%82ownia+Total+Fitness+Gda%C5%84sk/data=!4m7!3m6!1s0x46fd7375555dc715:0xae5df47a841e695!8m2!3d54.329899!4d18.6049984!16s%2Fg%2F11fsvqjj2n!19sChIJFcddVXVz_UYRleZBqEff5Qo?authuser=0&hl=en&rclk=1
54.36401,18.4607007,silownia,FUNFIT-GYM&FITNESS,https://www.google.com/maps/place/FUNFIT-GYM%26FITNESS/data=!4m7!3m6!1s0x46fd9e3c13400001:0xbb0d10be4e7ca98c!8m2!3d54.36401!4d18.4607007!16s%2Fg%2F11h48wm7r3!19sChIJAQBAEzye_UYRjKl8Tr4QDbs?authuser=0&hl=en&rclk=1
54.3597094,18.5154588,silownia,Outdoor fitness,https://www.google.com/maps/place/Outdoor+fitness/data=!4m7!3m6!1s0x46fd7597b7b7a95b:0x8d9dd5db21f364de!8m2!3d54.3597094!4d18.5154588!16s%2Fg%2F11g9sywfrj!19sChIJW6m3t5d1_UYR3mTzIdvVnY0?authuser=0&hl=en&rclk=1
54.3329607,18.5660151,silownia,Zbiornik Retencyjny Jabłoniowa i Siłownia Na Świeżym Powietrzu,https://www.google.com/maps/place/Zbiornik+Retencyjny+Jab%C5%82oniowa+i+Si%C5%82ownia+Na+%C5%9Awie%C5%BCym+Powietrzu/data=!4m7!3m6!1s0x46fd743d1eebed17:0xa4821dd2c4175224!8m2!3d54.3329607!4d18.5660151!16s%2Fg%2F11dxl38554!19sChIJF-3rHj10_UYRJFIXxNIdgqQ?authuser=0&hl=en&rclk=1
54.3600481,18.5750253,silownia,Siłownia zewnętrzna,https://www.google.com/maps/place/Si%C5%82ownia+zewn%C4%99trzna/data=!4m7!3m6!1s0x46fd75cd340f294f:0xf6cdf67e7c994efe!8m2!3d54.3600481!4d18.5750253!16s%2Fg%2F11hz021pyf!19sChIJTykPNM11_UYR_k6ZfH72zfY?authuser=0&hl=en&rclk=1
54.3616606,18.5730326,silownia,Siłownia plenerowa Gdańsk Czecha,https://www.google.com/maps/place/Si%C5%82ownia+plenerowa+Gda%C5%84sk+Czecha/data=!4m7!3m6!1s0x46fd7580aa5fe33f:0x7e96084181c5868!8m2!3d54.3616606!4d18.5730326!16s%2Fg%2F11fnpln3kc!19sChIJP-NfqoB1_UYRaFgcGIRg6Qc?authuser=0&hl=en&rclk=1
54.3599096,18.6015648,silownia,"Siłownia zewnętrzna, siłownia pod chmurką","https://www.google.com/maps/place/Si%C5%82ownia+zewn%C4%99trzna,+si%C5%82ownia+pod+chmurk%C4%85/data=!4m7!3m6!1s0x46fd7489d7468b9d:0x44a86a21235f5172!8m2!3d54.3599096!4d18.6015648!16s%2Fg%2F1jkz918xm!19sChIJnYtG14l0_UYRclFfIyFqqEQ?authuser=0&hl=en&rclk=1"
54.3530908,18.6099396,silownia,Aquarius Fitness & Wellness,https://www.google.com/maps/place/Aquarius+Fitness+%26+Wellness/data=!4m7!3m6!1s0x46fd747c043fa1fb:0x22f21bb7b37471b6!8m2!3d54.3530908!4d18.6099396!16s%2Fg%2F1vs1qkl8!19sChIJ-6E_BHx0_UYRtnF0s7cb8iI?authuser=0&hl=en&rclk=1
54.3618155,18.6542849,silownia,Centrum Sportu Stocznia,https://www.google.com/maps/place/Centrum+Sportu+Stocznia/data=!4m7!3m6!1s0x46fd7372005fd75f:0xc149d97bda58b499!8m2!3d54.3618155!4d18.6542849!16s%2Fg%2F11b6n8_cld!19sChIJX9dfAHJz_UYRmbRY2nvZScE?authuser=0&hl=en&rclk=1
54.3648032,18.7079264,silownia,Park kalisteniczny,https://www.google.com/maps/place/Park+kalisteniczny/data=!4m7!3m6!1s0x46fd72e74cd71f41:0x3e5bf2b41bf2ced1!8m2!3d54.3648032!4d18.7079264!16s%2Fg%2F11g9g2pv_b!19sChIJQR_XTOdy_UYR0c7yG7TyWz4?authuser=0&hl=en&rclk=1
54.3280824,18.6148407,silownia,All Time Fitness,https://www.google.com/maps/place/All+Time+Fitness/data=!4m7!3m6!1s0x46fd73f1735c9fa7:0xfec52f987aa2c3d3!8m2!3d54.3280824!4d18.6148407!16s%2Fg%2F11c31y5x9_!19sChIJp59cc_Fz_UYR08Oiepgvxf4?authuser=0&hl=en&rclk=1
54.3390991,18.8902324,silownia,Siłownia Kalistenika,https://www.google.com/maps/place/Si%C5%82ownia+Kalistenika/data=!4m7!3m6!1s0x46fd6da645bb5d3b:0x36e06a2da9b521d3!8m2!3d54.3390991!4d18.8902324!16s%2Fg%2F11k5zzp9bn!19sChIJO127RaZt_UYR0yG1qS1q4DY?authuser=0&hl=en&rclk=1
54.2645863,18.6641711,silownia,Good Luck Club Kasprowicza,https://www.google.com/maps/place/Good+Luck+Club+Kasprowicza/data=!4m7!3m6!1s0x46fd71ca0195a52b:0xc33ef5aacb365418!8m2!3d54.2645863!4d18.6641711!16s%2Fg%2F11f34t21lt!19sChIJK6WVAcpx_UYRGFQ2y6r1PsM?authuser=0&hl=en&rclk=1
54.3480568,18.455177,silownia,Siłownia zewnętrzna,https://www.google.com/maps/place/Si%C5%82ownia+zewn%C4%99trzna/data=!4m7!3m6!1s0x46fd9f2cbaac6a8b:0x8ee633c589d575e1!8m2!3d54.3480568!4d18.455177!16s%2Fg%2F11rtbfj9nt!19sChIJi2qsuiyf_UYR4XXVicUz5o4?authuser=0&hl=en&rclk=1
54.3114281,18.56728,silownia,Calypso Fitness i Siłownia Gdańsk Kowale,https://www.google.com/maps/place/Calypso+Fitness+i+Si%C5%82ownia+Gda%C5%84sk+Kowale/data=!4m7!3m6!1s0x46fd76a4f86edfb3:0x6645cc7fafbfd4db!8m2!3d54.3114281!4d18.56728!16s%2Fg%2F11b6p78vc2!19sChIJs99u-KR2_UYR29S_r3_MRWY?authuser=0&hl=en&rclk=1
54.3501277,18.5279705,silownia,Siłownia na świeżym powietrzu / Street workout Decathlon,https://www.google.com/maps/place/Si%C5%82ownia+na+%C5%9Bwie%C5%BCym+powietrzu+%2F+Street+workout+Decathlon/data=!4m7!3m6!1s0x46fd75ca2e88e289:0x92f68b2403a1816d!8m2!3d54.3501277!4d18.5279705!16s%2Fg%2F11jn48dq35!19sChIJieKILsp1_UYRbYGhAySL9pI?authuser=0&hl=en&rclk=1
54.35159,18.5253557,silownia,Just GYM,https://www.google.com/maps/place/Just+GYM/data=!4m7!3m6!1s0x46fd758ca6fd6b73:0x4a7c4791f51cb5ee!8m2!3d54.35159!4d18.5253557!16s%2Fg%2F11tfxpgy8k!19sChIJc2v9pox1_UYR7rUc9ZFHfEo?authuser=0&hl=en&rclk=1
54.3486186,18.5899381,silownia,Fit Point EMS,https://www.google.com/maps/place/Fit+Point+EMS/data=!4m7!3m6!1s0x46fd75dcd3465acd:0xe992551000c02d2d!8m2!3d54.3486186!4d18.5899381!16s%2Fg%2F11s57m6wbj!19sChIJzVpG09x1_UYRLS3AABBVkuk?authuser=0&hl=en&rclk=1
54.3488696,18.6648417,silownia,Street Workout Park,https://www.google.com/maps/place/Street+Workout+Park/data=!4m7!3m6!1s0x46fd7390d7fe3025:0x4916292604b84946!8m2!3d54.3488696!4d18.6648417!16s%2Fg%2F11jpk9m3kn!19sChIJJTD-15Bz_UYRRkm4BCYpFkk?authuser=0&hl=en&rclk=1
54.3487943,18.6639543,silownia,Siłownia na świeżym powietrzu,https://www.google.com/maps/place/Si%C5%82ownia+na+%C5%9Bwie%C5%BCym+powietrzu/data=!4m7!3m6!1s0x46fd738cd1be590d:0x956b2e7496ddc663!8m2!3d54.3487943!4d18.6639543!16s%2Fg%2F11jn4_p9bt!19sChIJDVm-0Yxz_UYRY8bdlnQua5U?authuser=0&hl=en&rclk=1
54.3022225,18.5773297,silownia,Gdańsk NH Fitness,https://www.google.com/maps/place/Gda%C5%84sk+NH+Fitness/data=!4m7!3m6!1s0x46fd76b3934055c9:0x37bf6c2b8c3c539f!8m2!3d54.3022225!4d18.5773297!16s%2Fg%2F125_wghnc!19sChIJyVVAk7N2_UYRn1M8jCtsvzc?authuser=0&hl=en&rclk=1
54.3320575,18.5532929,silownia,Siłownia plenerowa,https://www.google.com/maps/place/Si%C5%82ownia+plenerowa/data=!4m7!3m6!1s0x46fd742542297813:0xf03753f3e7cc87f7!8m2!3d54.3320575!4d18.5532929!16s%2Fg%2F11f3p13w6r!19sChIJE3gpQiV0_UYR94fM5_NTN_A?authuser=0&hl=en&rclk=1
54.326944,18.624748,silownia,"STUDIO SPORTOWE ""PETRUS""",https://www.google.com/maps/place/STUDIO+SPORTOWE+%22PETRUS%22/data=!4m7!3m6!1s0x46fd73ee854dcbd9:0x7a07da95c1c39376!8m2!3d54.326944!4d18.624748!16s%2Fg%2F11dfx6l5qs!19sChIJ2ctNhe5z_UYRdpPDwZXaB3o?authuser=0&hl=en&rclk=1
54.3373473,18.6573667,silownia,Park Street Workout,https://www.google.com/maps/place/Park+Street+Workout/data=!4m7!3m6!1s0x46fd73083fc23ff9:0x238ad4e43332f91c!8m2!3d54.3373473!4d18.6573667!16s%2Fg%2F11ll1kv65g!19sChIJ-T_CPwhz_UYRHPkyM-TUiiM?authuser=0&hl=en&rclk=1
54.3421035,18.6565383,silownia,Hike Gym - |Trener personalny |Przygotowanie motoryczne,https://www.google.com/maps/place/Hike+Gym+-+%7CTrener+personalny+%7CPrzygotowanie+motoryczne/data=!4m7!3m6!1s0x46fd737699af5307:0x2231ebcdd1090ad0!8m2!3d54.3421035!4d18.6565383!16s%2Fg%2F11s4_bmnfg!19sChIJB1OvmXZz_UYR0AoJ0c3rMSI?authuser=0&hl=en&rclk=1
54.3394037,18.6590066,silownia,Siłownia pod chmurką,https://www.google.com/maps/place/Si%C5%82ownia+pod+chmurk%C4%85/data=!4m7!3m6!1s0x46fd73bcb7a3f8eb:0xf7a62844c26211e9!8m2!3d54.3394037!4d18.6590066!16s%2Fg%2F11n0409mky!19sChIJ6_ijt7xz_UYR6RFiwkQopvc?authuser=0&hl=en&rclk=1
54.3322,18.7982999,silownia,"Siłownia ""Pod Chmurką""",https://www.google.com/maps/place/Si%C5%82ownia+%22Pod+Chmurk%C4%85%22/data=!4m7!3m6!1s0x46fd6d08eb7931c3:0xfd07fa02b57e72c5!8m2!3d54.3322!4d18.7982999!16s%2Fg%2F11c46568q_!19sChIJwzF56wht_UYRxXJ-tQL6B_0?authuser=0&hl=en&rclk=1
54.340406,18.802501,silownia,"Siłownia ""Pod Chmurką""",https://www.google.com/maps/place/Si%C5%82ownia+%22Pod+Chmurk%C4%85%22/data=!4m7!3m6!1s0x46fd6d11caf23e55:0x4fe974ec8507c7e4!8m2!3d54.340406!4d18.802501!16s%2Fg%2F11cp7xdmhj!19sChIJVT7yyhFt_UYR5McHhex06U8?authuser=0&hl=en&rclk=1
54.3159414,18.6038248,silownia,36MINUT Orunia Górna,https://www.google.com/maps/place/36MINUT+Orunia+G%C3%B3rna/data=!4m7!3m6!1s0x46fd7372461a7e2d:0x25eba5f67e98eead!8m2!3d54.3159414!4d18.6038248!16s%2Fg%2F11g4cjpq_6!19sChIJLX4aRnJz_UYRre6Yfval6yU?authuser=0&hl=en&rclk=1
54.3200449,18.5949269,silownia,Stacja Kobiet. Klub Sportowy,https://www.google.com/maps/place/Stacja+Kobiet.+Klub+Sportowy/data=!4m7!3m6!1s0x46fd754e717af02f:0x7211bc2dbf3bdeb8!8m2!3d54.3200449!4d18.5949269!16s%2Fg%2F11rj974x6k!19sChIJL_B6cU51_UYRuN47vy28EXI?authuser=0&hl=en&rclk=1
54.3216547,18.6279374,silownia,Gym under a cloud,https://www.google.com/maps/place/Gym+under+a+cloud/data=!4m7!3m6!1s0x46fd73e62a1fd529:0x7a889b637a3daad4!8m2!3d54.3216547!4d18.6279374!16s%2Fg%2F11dzh_v8t7!19sChIJKdUfKuZz_UYR1Ko9emObiHo?authuser=0&hl=en&rclk=1
54.3144787,18.5902116,silownia,Plac zabaw & Siłownia,https://www.google.com/maps/place/Plac+zabaw+%26+Si%C5%82ownia/data=!4m7!3m6!1s0x46fd76aaea83363f:0x27689a9d53876184!8m2!3d54.3144787!4d18.5902116!16s%2Fg%2F11c4lys1zj!19sChIJPzaD6qp2_UYRhGGHU52aaCc?authuser=0&hl=en&rclk=1
54.3126836,18.6299059,silownia,Husarz gym,https://www.google.com/maps/place/Husarz+gym/data=!4m7!3m6!1s0x46fd73b9b90300c5:0xf8378a5aa3e099e8!8m2!3d54.3126836!4d18.6299059!16s%2Fg%2F11j_zq2b98!19sChIJxQADublz_UYR6Jngo1qKN_g?authuser=0&hl=en&rclk=1
54.2568801,18.635248,silownia,ProFit GYM - Siłownia Pruszcz Gdański,https://www.google.com/maps/place/ProFit+GYM+-+Si%C5%82ownia+Pruszcz+Gda%C5%84ski/data=!4m7!3m6!1s0x46fd70516df83275:0x7930c58d4fdb2a67!8m2!3d54.2568801!4d18.635248!16s%2Fg%2F11cn186160!19sChIJdTL4bVFw_UYRZyrbT43FMHk?authuser=0&hl=en&rclk=1
54.2597681,18.6582734,silownia,Fitness Club Bingo,https://www.google.com/maps/place/Fitness+Club+Bingo/data=!4m7!3m6!1s0x46fd7034444a0c7f:0xcb2b6db2343c1455!8m2!3d54.2597681!4d18.6582734!16s%2Fg%2F1hc94dnx8!19sChIJfwxKRDRw_UYRVRQ8NLJtK8s?authuser=0&hl=en&rclk=1
54.296538,18.556339,silownia,Plac zabaw,https://www.google.com/maps/place/Plac+zabaw/data=!4m7!3m6!1s0x46fd778e24b0bacb:0xb1cc3df05a41a42d!8m2!3d54.296538!4d18.556339!16s%2Fg%2F11gm7vnkbk!19sChIJy7qwJI53_UYRLaRBWvA9zLE?authuser=0&hl=en&rclk=1
54.3009086,18.5945441,silownia,FitPark Borkowo,https://www.google.com/maps/place/FitPark+Borkowo/data=!4m7!3m6!1s0x46fd714e8bb6af0b:0x925c1f3ef104011b!8m2!3d54.3009086!4d18.5945441!16s%2Fg%2F11c5g9mpzc!19sChIJC6-2i05x_UYRGwEE8T4fXJI?authuser=0&hl=en&rclk=1
54.2680325,18.6251838,silownia,Good Luck Club Domeyki,https://www.google.com/maps/place/Good+Luck+Club+Domeyki/data=!4m7!3m6!1s0x46fd71010dd47481:0xd8242fd241df3d4d!8m2!3d54.2680325!4d18.6251838!16s%2Fg%2F11ggbqcj75!19sChIJgXTUDQFx_UYRTT3fQdIvJNg?authuser=0&hl=en&rclk=1
54.2655773,18.630962,silownia,36 MINUT,https://www.google.com/maps/place/36+MINUT/data=!4m7!3m6!1s0x46fd71aab8ce8fcb:0x6a1115a3971aa2cf!8m2!3d54.2655773!4d18.630962!16s%2Fg%2F11csrbtjl4!19sChIJy4_OuKpx_UYRz6Ial6MVEWo?authuser=0&hl=en&rclk=1
54.3229809,19.1747536,silownia,JOGYM siłownia i fitness,https://www.google.com/maps/place/JOGYM+si%C5%82ownia+i+fitness/data=!4m7!3m6!1s0x46fd393c1620578b:0xaee8e7fe23b6ed38!8m2!3d54.3229809!4d19.1747536!16s%2Fg%2F11h40xvrcg!19sChIJi1cgFjw5_UYROO22I_7n6K4?authuser=0&hl=en&rclk=1
54.2703729,18.4677337,silownia,Plac zabaw,https://www.google.com/maps/place/Plac+zabaw/data=!4m7!3m6!1s0x46fd773b70ae48b9:0x11045bbcd2e4fd53!8m2!3d54.2703729!4d18.4677337!16s%2Fg%2F11h38fwcqx!19sChIJuUiucDt3_UYRU_3k0rxbBBE?authuser=0&hl=en&rclk=1
54.2544425,18.6336456,silownia,Hidden Beauty Fitness For Women,https://www.google.com/maps/place/Hidden+Beauty+Fitness+For+Women/data=!4m7!3m6!1s0x46fd7050f12a366d:0xaae6cf3d27317905!8m2!3d54.2544425!4d18.6336456!16s%2Fg%2F11ddxskdxj!19sChIJbTYq8VBw_UYRBXkxJz3P5qo?authuser=0&hl=en&rclk=1
54.2724736,18.8728437,silownia,Stadion KCM,https://www.google.com/maps/place/Stadion+KCM/data=!4m7!3m6!1s0x46fd6b7edd606687:0x7973c65c765b88bc!8m2!3d54.2724736!4d18.8728437!16s%2Fg%2F11m8bnrz1s!19sChIJh2Zg3X5r_UYRvIhbdlzGc3k?authuser=0&hl=en&rclk=1
54.1506118,18.7106323,silownia,Studio Relax,https://www.google.com/maps/place/Studio+Relax/data=!4m7!3m6!1s0x46fd644f9b11913d:0xc0dd52f7955e3bba!8m2!3d54.1506118!4d18.7106323!16s%2Fg%2F11ckjc3vhj!19sChIJPZERm09k_UYRujtelfdS3cA?authuser=0&hl=en&rclk=1
