lat,lon,type,title,link
54.439887,18.417741,szkola,Szkoła Podstawowa im. Adama Mickiewicza w Chwaszczynie,https://www.google.com/maps/place/Szko%C5%82a+Podstawowa+im.+Adama+Mickiewicza+w+Chwaszczynie/data=!4m7!3m6!1s0x46fda1e49d3943d3:0x7810a6b0e3be4913!8m2!3d54.439887!4d18.417741!16s%2Fg%2F1tffhgkj!19sChIJ00M5neSh_UYRE0m-47CmEHg?authuser=0&hl=en&rclk=1
54.4433131,18.4169423,szkola,MyTime centrum językowe dla dzieci i młodzieży,https://www.google.com/maps/place/MyTime+centrum+j%C4%99zykowe+dla+dzieci+i+m%C5%82odzie%C5%BCy/data=!4m7!3m6!1s0x46fda1e52da4474f:0xe042e0101b3993e1!8m2!3d54.4433131!4d18.4169423!16s%2Fg%2F11g9q8vrw_!19sChIJT0ekLeWh_UYR4ZM5GxDgQuA?authuser=0&hl=en&rclk=1
54.4434354,18.4160468,szkola,Sitrax école Szkoła Języków Obcych,https://www.google.com/maps/place/Sitrax+%C3%A9cole+Szko%C5%82a+J%C4%99zyk%C3%B3w+Obcych/data=!4m7!3m6!1s0x46fda1fad1733115:0x8b1c70b80a220429!8m2!3d54.4434354!4d18.4160468!16s%2Fg%2F11fxxf79tg!19sChIJFTFz0fqh_UYRKQQiCrhwHIs?authuser=0&hl=en&rclk=1
54.4421637,18.420248,szkola,Pomorskiej Szkoły Walki FIGHTER,https://www.google.com/maps/place/Pomorskiej+Szko%C5%82y+Walki+FIGHTER/data=!4m7!3m6!1s0x46fda1e5aaaaaaad:0x71acd924070b91bb!8m2!3d54.4421637!4d18.420248!16s%2Fg%2F11g0vz8nfq!19sChIJraqqquWh_UYRu5ELByTZrHE?authuser=0&hl=en&rclk=1
54.445329,18.3868699,szkola,Szkoła Podstawowa Społeczna z Przedszkolem,https://www.google.com/maps/place/Szko%C5%82a+Podstawowa+Spo%C5%82eczna+z+Przedszkolem/data=!4m7!3m6!1s0x46fda2020661d369:0xb313b3b94a55d2a0!8m2!3d54.445329!4d18.3868699!16s%2Fg%2F1ptw_zb0c!19sChIJadNhBgKi_UYRoNJVSrmzE7M?authuser=0&hl=en&rclk=1
54.4293575,18.3906328,szkola,Szkoła Podstawowa,https://www.google.com/maps/place/Szko%C5%82a+Podstawowa/data=!4m7!3m6!1s0x46fda1ef0f7ab551:0xeedee3950971f2da!8m2!3d54.4293575!4d18.3906328!16s%2Fg%2F1ptvt7mby!19sChIJUbV6D--h_UYR2vJxCZXj3u4?authuser=0&hl=en&rclk=1
54.4713867,18.4609807,szkola,School No. 14,https://www.google.com/maps/place/School+No.+14/data=!4m7!3m6!1s0x46fda1a0beb0ed17:0x98d17b2b9f8ff03d!8m2!3d54.4713867!4d18.4609807!16s%2Fg%2F1vm794f_!19sChIJF-2wvqCh_UYRPfCPnyt70Zg?authuser=0&hl=en&rclk=1
54.4305647,18.4682271,szkola,Primary School No. 81,https://www.google.com/maps/place/Primary+School+No.+81/data=!4m7!3m6!1s0x46fda02be9707a07:0x1216397745b4a503!8m2!3d54.4305647!4d18.4682271!16s%2Fg%2F1tlvn6nk!19sChIJB3pw6Sug_UYRA6W0RXc5FhI?authuser=0&hl=en&rclk=1
54.473031,18.4683229,szkola,Primary School No. 45,https://www.google.com/maps/place/Primary+School+No.+45/data=!4m7!3m6!1s0x46fda109b5cab83d:0x6aed357cfe1a140e!8m2!3d54.473031!4d18.4683229!16s%2Fg%2F1w3459n5!19sChIJPbjKtQmh_UYRDhQa_nw17Wo?authuser=0&hl=en&rclk=1
54.4210499,18.4790674,szkola,Szkoła podstawowa nr 33,https://www.google.com/maps/place/Szko%C5%82a+podstawowa+nr+33/data=!4m7!3m6!1s0x46fd9f8973a0b949:0x68bb5e2369e90702!8m2!3d54.4210499!4d18.4790674!16s%2Fg%2F11gbxbwq_x!19sChIJSbmgc4mf_UYRAgfpaSNeu2g?authuser=0&hl=en&rclk=1
54.4641604,18.4560878,szkola,Szkoła Językowa - Języki Obce dla Wiercipiętów,https://www.google.com/maps/place/Szko%C5%82a+J%C4%99zykowa+-+J%C4%99zyki+Obce+dla+Wiercipi%C4%99t%C3%B3w/data=!4m7!3m6!1s0x46fda129613c8e6d:0xbce14675d0f24c55!8m2!3d54.4641604!4d18.4560878!16s%2Fg%2F11fn1w1d4z!19sChIJbY48YSmh_UYRVUzy0HVG4bw?authuser=0&hl=en&rclk=1
54.4727861,18.4878032,szkola,Zespół Szkolno-Przedszkolny nr 4 w Gdyni,https://www.google.com/maps/place/Zesp%C3%B3%C5%82+Szkolno-Przedszkolny+nr+4+w+Gdyni/data=!4m7!3m6!1s0x46fda101be995ba9:0x980675ad21b1cf21!8m2!3d54.4727861!4d18.4878032!16s%2Fg%2F1tflwl8_!19sChIJqVuZvgGh_UYRIc-xIa11Bpg?authuser=0&hl=en&rclk=1
54.4645317,18.4958379,szkola,Primary School No. 20,https://www.google.com/maps/place/Primary+School+No.+20/data=!4m7!3m6!1s0x46fda056614c689f:0xb57a21f3cc13f090!8m2!3d54.4645317!4d18.4958379!16s%2Fg%2F1tg33xr9!19sChIJn2hMYVag_UYRkPATzPMherU?authuser=0&hl=en&rclk=1
54.4725174,18.4968996,szkola,Szkoła Podstawowa Samorządowa nr 42,https://www.google.com/maps/place/Szko%C5%82a+Podstawowa+Samorz%C4%85dowa+nr+42/data=!4m7!3m6!1s0x46fda0fe9edbd90b:0x48ecf5e2876883e9!8m2!3d54.4725174!4d18.4968996!16s%2Fg%2F1ttpfl84!19sChIJC9nbnv6g_UYR6YNoh-L17Eg?authuser=0&hl=en&rclk=1
54.4569424,18.5318743,szkola,Szkoła Podstawowa nr 9 z Oddziałami Integracyjnymi im. gen. W. Sikorskiego,https://www.google.com/maps/place/Szko%C5%82a+Podstawowa+nr+9+z+Oddzia%C5%82ami+Integracyjnymi+im.+gen.+W.+Sikorskiego/data=!4m7!3m6!1s0x46fda063485e981f:0x4406fedb13b41806!8m2!3d54.4569424!4d18.5318743!16s%2Fg%2F1v16n_9v!19sChIJH5heSGOg_UYRBhi0E9v-BkQ?authuser=0&hl=en&rclk=1
54.45672,18.5329093,szkola,Ślo,https://www.google.com/maps/place/%C5%9Alo/data=!4m7!3m6!1s0x46fda1099ee550cf:0xc6090638307eb37!8m2!3d54.45672!4d18.5329093!16s%2Fg%2F11gmg37zbb!19sChIJz1Dlngmh_UYRN-sHg2OQYAw?authuser=0&hl=en&rclk=1
54.455316,18.552131,szkola,Niepubliczna Szkoła Podstawowa Montessori Latawiec,https://www.google.com/maps/place/Niepubliczna+Szko%C5%82a+Podstawowa+Montessori+Latawiec/data=!4m7!3m6!1s0x46fd0a8035553061:0x49602dab3a10316b!8m2!3d54.455316!4d18.552131!16s%2Fg%2F11hbhfkytt!19sChIJYTBVNYAK_UYRazEQOqstYEk?authuser=0&hl=en&rclk=1
54.454757,18.5496497,szkola,"Sopocka Szkoła Montessori-Żłobek, Przedszkole, Szkoła Podstawowa","https://www.google.com/maps/place/Sopocka+Szko%C5%82a+Montessori-%C5%BB%C5%82obek,+Przedszkole,+Szko%C5%82a+Podstawowa/data=!4m7!3m6!1s0x46fda097819393a7:0xc404eb926f70784a!8m2!3d54.454757!4d18.5496497!16s%2Fg%2F1tk6z5lv!19sChIJp5OTgZeg_UYRSnhwb5LrBMQ?authuser=0&hl=en&rclk=1"
54.4358765,18.559773,szkola,Szkoła Podstawowa nr 1 Samorządowa,https://www.google.com/maps/place/Szko%C5%82a+Podstawowa+nr+1+Samorz%C4%85dowa/data=!4m7!3m6!1s0x46fd0a964ebb8d21:0xfc6fb56eb92cb2be!8m2!3d54.4358765!4d18.559773!16s%2Fg%2F1tjf8z7f!19sChIJIY27TpYK_UYRvrIsuW61b_w?authuser=0&hl=en&rclk=1
54.4561409,18.5312931,szkola,Sopot Brodwino Szkoła,https://www.google.com/maps/place/Sopot+Brodwino+Szko%C5%82a/data=!4m7!3m6!1s0x46fda0635982f303:0xb83cb7301b9985c9!8m2!3d54.4561409!4d18.5312931!16s%2Fg%2F11fj9c5d0q!19sChIJA_OCWWOg_UYRyYWZGzC3PLg?authuser=0&hl=en&rclk=1
54.4491264,18.5625019,szkola,Szkoła Podstawowa z Oddziałami Sportowymi nr 7 im. T. Kościuszki,https://www.google.com/maps/place/Szko%C5%82a+Podstawowa+z+Oddzia%C5%82ami+Sportowymi+nr+7+im.+T.+Ko%C5%9Bciuszki/data=!4m7!3m6!1s0x46fd0a858dc4d7b7:0x437f57e98a414a2d!8m2!3d54.4491264!4d18.5625019!16s%2Fg%2F1tdzptv7!19sChIJt9fEjYUK_UYRLUpBiulXf0M?authuser=0&hl=en&rclk=1
54.4530188,18.5544335,szkola,Zespół Szkół Handlowych Technikum nr 1 im. Danuty Siedzikówny Inki,https://www.google.com/maps/place/Zesp%C3%B3%C5%82+Szk%C3%B3%C5%82+Handlowych+Technikum+nr+1+im.+Danuty+Siedzik%C3%B3wny+Inki/data=!4m7!3m6!1s0x46fd0a91167a61ef:0xa25fc9f0bcddf997!8m2!3d54.4530188!4d18.5544335!16s%2Fg%2F11cs3qpf7k!19sChIJ72F6FpEK_UYRl_ndvPDJX6I?authuser=0&hl=en&rclk=1
54.445461,18.5622279,szkola,Sopocka Szkoła Muzyczna,https://www.google.com/maps/place/Sopocka+Szko%C5%82a+Muzyczna/data=!4m7!3m6!1s0x46fd0a8fe3a2dfd3:0x3bb6bfa67141da41!8m2!3d54.445461!4d18.5622279!16s%2Fg%2F11h53wrn3n!19sChIJ09-i448K_UYRQdpBcaa_tjs?authuser=0&hl=en&rclk=1
54.4446977,18.5655878,szkola,Sopocka Szkoła Fotografii WFH,https://www.google.com/maps/place/Sopocka+Szko%C5%82a+Fotografii+WFH/data=!4m7!3m6!1s0x46fd0a8e280eea3b:0xb80c1165b17d840e!8m2!3d54.4446977!4d18.5655878!16s%2Fg%2F1tdb7jhy!19sChIJO-oOKI4K_UYRDoR9sWURDLg?authuser=0&hl=en&rclk=1
54.4454475,18.5621435,szkola,Sopockie Ognisko Muzyczne przy Towarzystwie Przyjaciół Sopotu,https://www.google.com/maps/place/Sopockie+Ognisko+Muzyczne+przy+Towarzystwie+Przyjaci%C3%B3%C5%82+Sopotu/data=!4m7!3m6!1s0x46fd0a8fe3066f27:0xa6c8ec177c46a684!8m2!3d54.4454475!4d18.5621435!16s%2Fg%2F1vppr6n5!19sChIJJ28G448K_UYRhKZGfBfsyKY?authuser=0&hl=en&rclk=1
54.434798,18.4676306,szkola,Stara Szkoła Podstawowa W Osowie,https://www.google.com/maps/place/Stara+Szko%C5%82a+Podstawowa+W+Osowie/data=!4m7!3m6!1s0x46fda02d02f40001:0x95e086f4b7b7ca67!8m2!3d54.434798!4d18.4676306!16s%2Fg%2F11h0vqrl6n!19sChIJAQD0Ai2g_UYRZ8q3t_SG4JU?authuser=0&hl=en&rclk=1
54.4357316,18.4633495,szkola,Szkoła,https://www.google.com/maps/place/Szko%C5%82a/data=!4m7!3m6!1s0x46fda109ba11b463:0xa9a64f3cd19a3c74!8m2!3d54.4357316!4d18.4633495!16s%2Fg%2F11fs2_glcm!19sChIJY7QRugmh_UYRdDya0TxPpqk?authuser=0&hl=en&rclk=1
54.430855,18.4681665,szkola,Hydrostacja Osowa. Szkoła pływania,https://www.google.com/maps/place/Hydrostacja+Osowa.+Szko%C5%82a+p%C5%82ywania/data=!4m7!3m6!1s0x46fda19ec72e02b3:0x8bf5225241221885!8m2!3d54.430855!4d18.4681665!16s%2Fg%2F11g0dw384p!19sChIJswIux56h_UYRhRgiQVIi9Ys?authuser=0&hl=en&rclk=1
54.417581,18.4560249,szkola,NOWY ŚWIAT Niepubliczna Szkoła Podstawowa,https://www.google.com/maps/place/NOWY+%C5%9AWIAT+Niepubliczna+Szko%C5%82a+Podstawowa/data=!4m7!3m6!1s0x46fd9f82d907eaaf:0x3191396a900b0fdd!8m2!3d54.417581!4d18.4560249!16s%2Fg%2F11cs39k6pr!19sChIJr-oH2YKf_UYR3Q8LkGo5kTE?authuser=0&hl=en&rclk=1
54.439883,18.4570188,szkola,ANATOMIC Gdyńska Szkoła Masażu,https://www.google.com/maps/place/ANATOMIC+Gdy%C5%84ska+Szko%C5%82a+Masa%C5%BCu/data=!4m7!3m6!1s0x46fda7323bad5c7d:0x7dc14dca534cc485!8m2!3d54.439883!4d18.4570188!16s%2Fg%2F1jglvm86d!19sChIJfVytOzKn_UYRhcRMU8pNwX0?authuser=0&hl=en&rclk=1
54.3881906,18.4834117,szkola,Szkoła Podstawowa nr 82,https://www.google.com/maps/place/Szko%C5%82a+Podstawowa+nr+82/data=!4m7!3m6!1s0x46fd9fcfead13dcd:0x71857e6f9647e1db!8m2!3d54.3881906!4d18.4834117!16s%2Fg%2F1tc_v8qr!19sChIJzT3R6s-f_UYR2-FHlm9-hXE?authuser=0&hl=en&rclk=1
54.422183,18.4777922,szkola,Szkoła Rodzenia Świat Maluszka,https://www.google.com/maps/place/Szko%C5%82a+Rodzenia+%C5%9Awiat+Maluszka/data=!4m7!3m6!1s0x46fd9f2d7dfb8635:0x30e6883a6608c303!8m2!3d54.422183!4d18.4777922!16s%2Fg%2F11h0cv6l60!19sChIJNYb7fS2f_UYRA8MIZjqI5jA?authuser=0&hl=en&rclk=1
54.4376746,18.5620629,szkola,Szkoła,https://www.google.com/maps/place/Szko%C5%82a/data=!4m7!3m6!1s0x46fd0bff372ed247:0xd959d86eaf81d2e1!8m2!3d54.4376746!4d18.5620629!16s%2Fg%2F11fs0gq7vd!19sChIJR9IuN_8L_UYR4dKBr27YWdk?authuser=0&hl=en&rclk=1
54.426679,18.4824689,szkola,College Językowy,https://www.google.com/maps/place/College+J%C4%99zykowy/data=!4m7!3m6!1s0x46fda18370a93489:0x9e68db454f2c9f8!8m2!3d54.426679!4d18.4824689!16s%2Fg%2F11nfvffhl6!19sChIJiTSpcIOh_UYR-MnyVLSN5gk?authuser=0&hl=en&rclk=1
54.4376629,18.5619331,szkola,Sopocka Autonomiczna Szkoła Podstawowa,https://www.google.com/maps/place/Sopocka+Autonomiczna+Szko%C5%82a+Podstawowa/data=!4m7!3m6!1s0x46fd0a96f1ff9dd5:0x760d114da119c6b3!8m2!3d54.4376629!4d18.5619331!16s%2Fg%2F1ptwjks8w!19sChIJ1Z3_8ZYK_UYRs8YZoU0RDXY?authuser=0&hl=en&rclk=1
54.430549,18.56334,szkola,Niepubliczna Szkoła Podstawowa Lokomotywa,https://www.google.com/maps/place/Niepubliczna+Szko%C5%82a+Podstawowa+Lokomotywa/data=!4m7!3m6!1s0x46fd0a90420ec589:0xcf7d780764c99156!8m2!3d54.430549!4d18.56334!16s%2Fg%2F1tx8rx15!19sChIJicUOQpAK_UYRVpHJZAd4fc8?authuser=0&hl=en&rclk=1
54.4400558,18.5636253,szkola,Szkoła Podstawowa z Oddziałami Integracyjnymi nr 8,https://www.google.com/maps/place/Szko%C5%82a+Podstawowa+z+Oddzia%C5%82ami+Integracyjnymi+nr+8/data=!4m7!3m6!1s0x46fd0a9138077829:0xa14a6f78b1c1e6c8!8m2!3d54.4400558!4d18.5636253!16s%2Fg%2F11fm161y3y!19sChIJKXgHOJEK_UYRyObBsXhvSqE?authuser=0&hl=en&rclk=1
54.4333932,18.5630107,szkola,Sopocka Akademia Tenisowa,https://www.google.com/maps/place/Sopocka+Akademia+Tenisowa/data=!4m7!3m6!1s0x46fd0abe1898da63:0x69b2a5542fe10682!8m2!3d54.4333932!4d18.5630107!16s%2Fg%2F11gb3_bznx!19sChIJY9qYGL4K_UYRggbhL1Slsmk?authuser=0&hl=en&rclk=1
54.4352263,18.570478,szkola,Szkoła Podstawowa z Oddziałami Integracyjnymi nr 8 im. Jana Matejki,https://www.google.com/maps/place/Szko%C5%82a+Podstawowa+z+Oddzia%C5%82ami+Integracyjnymi+nr+8+im.+Jana+Matejki/data=!4m7!3m6!1s0x46fd0a9529e8597f:0x97ade76359f32202!8m2!3d54.4352263!4d18.570478!16s%2Fg%2F119w3bby7!19sChIJf1noKZUK_UYRAiLzWWPnrZc?authuser=0&hl=en&rclk=1
54.4394068,18.5708208,szkola,Zespół Szkół Specjalnych nr 5,https://www.google.com/maps/place/Zesp%C3%B3%C5%82+Szk%C3%B3%C5%82+Specjalnych+nr+5/data=!4m7!3m6!1s0x46fd0a930b6ee507:0x4a4fafd39863be61!8m2!3d54.4394068!4d18.5708208!16s%2Fg%2F1tl4bqpj!19sChIJB-VuC5MK_UYRYb5jmNOvT0o?authuser=0&hl=en&rclk=1
54.4322729,18.5872427,szkola,Sopot Surf - Windsurfing School,https://www.google.com/maps/place/Sopot+Surf+-+Windsurfing+School/data=!4m7!3m6!1s0x46fd0ae7d6394ff3:0xc57c4596d1fc622e!8m2!3d54.4322729!4d18.5872427!16s%2Fg%2F11bbw_qgdq!19sChIJ80851ucK_UYRLmL80ZZFfMU?authuser=0&hl=en&rclk=1
54.4240329,18.5848117,szkola,Primary School No. 77,https://www.google.com/maps/place/Primary+School+No.+77/data=!4m7!3m6!1s0x46fd0adb6514a4b1:0xdd4308a8a7bd42c5!8m2!3d54.4240329!4d18.5848117!16s%2Fg%2F1tj2gl24!19sChIJsaQUZdsK_UYRxUK9p6gIQ90?authuser=0&hl=en&rclk=1
54.4352091,18.5834658,szkola,Szkoła Orka Surf,https://www.google.com/maps/place/Szko%C5%82a+Orka+Surf/data=!4m7!3m6!1s0x46fd0b3994dd4375:0x81c643c809c88417!8m2!3d54.4352091!4d18.5834658!16s%2Fg%2F11h10tvdk0!19sChIJdUPdlDkL_UYRF4TICchDxoE?authuser=0&hl=en&rclk=1
54.422398,18.576423,szkola,Primary School No. 89,https://www.google.com/maps/place/Primary+School+No.+89/data=!4m7!3m6!1s0x46fd0ac50e4d8a9d:0x7960f3850550bd94!8m2!3d54.422398!4d18.576423!16s%2Fg%2F1tk66ctb!19sChIJnYpNDsUK_UYRlL1QBYXzYHk?authuser=0&hl=en&rclk=1
54.418086,18.5867109,szkola,Primary School No. 60,https://www.google.com/maps/place/Primary+School+No.+60/data=!4m7!3m6!1s0x46fd0ad74e2b0e35:0x6bc821b46bf3887d!8m2!3d54.418086!4d18.5867109!16s%2Fg%2F1tf7fc1z!19sChIJNQ4rTtcK_UYRfYjza7QhyGs?authuser=0&hl=en&rclk=1
54.4195734,18.573212,szkola,Szkoła Podstawowa Sportowa nr 75,https://www.google.com/maps/place/Szko%C5%82a+Podstawowa+Sportowa+nr+75/data=!4m7!3m6!1s0x46fd0ac8179bd5f5:0x57a9595b62305177!8m2!3d54.4195734!4d18.573212!16s%2Fg%2F1tdmt9qg!19sChIJ9dWbF8gK_UYRd1EwYltZqVc?authuser=0&hl=en&rclk=1
54.4289756,18.5636285,szkola,Sopocka Akademia Nauk Stosowanych,https://www.google.com/maps/place/Sopocka+Akademia+Nauk+Stosowanych/data=!4m7!3m6!1s0x46fd0a9423b4b015:0x1669fc411c12d93a!8m2!3d54.4289756!4d18.5636285!16s%2Fg%2F11fd6dgl5f!19sChIJFbC0I5QK_UYROtkSHEH8aRY?authuser=0&hl=en&rclk=1
54.417346,18.4539609,szkola,Szkoła Rodzenia Super Mama,https://www.google.com/maps/place/Szko%C5%82a+Rodzenia+Super+Mama/data=!4m7!3m6!1s0x46fd9f82ca356293:0xa3b2a8adba9d49bc!8m2!3d54.417346!4d18.4539609!16s%2Fg%2F11b8jd36m2!19sChIJk2I1yoKf_UYRvEmduq2osqM?authuser=0&hl=en&rclk=1
54.418106,18.4803539,szkola,QL School,https://www.google.com/maps/place/QL+School/data=!4m7!3m6!1s0x46fd9f8c07f4ddbd:0xbad114f4ccf0f375!8m2!3d54.418106!4d18.4803539!16s%2Fg%2F1hc2zbgpj!19sChIJvd30B4yf_UYRdfPwzPQU0bo?authuser=0&hl=en&rclk=1
54.4118806,18.5561066,szkola,Primary School No. 23,https://www.google.com/maps/place/Primary+School+No.+23/data=!4m7!3m6!1s0x46fd7535520f5165:0x46c3908f70c90dcf!8m2!3d54.4118806!4d18.5561066!16s%2Fg%2F1tx4n14y!19sChIJZVEPUjV1_UYRzw3JcI-Qw0Y?authuser=0&hl=en&rclk=1
54.409695,18.5572519,szkola,FREGATA Primary School for Boys,https://www.google.com/maps/place/FREGATA+Primary+School+for+Boys/data=!4m7!3m6!1s0x46fd753503815ce7:0x88fe7888ce6ea3b5!8m2!3d54.409695!4d18.5572519!16s%2Fg%2F1hc1pgsyp!19sChIJ51yBAzV1_UYRtaNuzoh4_og?authuser=0&hl=en&rclk=1
54.4060145,18.5600625,szkola,I Społeczna Szkoła Podstawowa STO,https://www.google.com/maps/place/I+Spo%C5%82eczna+Szko%C5%82a+Podstawowa+STO/data=!4m7!3m6!1s0x46fd7533fe71cd9f:0x88b46867ae09c075!8m2!3d54.4060145!4d18.5600625!16s%2Fg%2F1thk7fhg!19sChIJn81x_jN1_UYRdcAJrmdotIg?authuser=0&hl=en&rclk=1
54.4199758,18.5731947,szkola,Zespół Szkół Sportowych i Mistrzostwa Sportowego,https://www.google.com/maps/place/Zesp%C3%B3%C5%82+Szk%C3%B3%C5%82+Sportowych+i+Mistrzostwa+Sportowego/data=!4m7!3m6!1s0x46fd0acf715b5ccb:0xc7e49d59b1e560d2!8m2!3d54.4199758!4d18.5731947!16s%2Fg%2F1hc6xq163!19sChIJy1xbcc8K_UYR0mDlsVmd5Mc?authuser=0&hl=en&rclk=1
54.4217455,18.5611924,szkola,Zespół Szkół Architektury Krajobrazu i Handlowo - Usługowych,https://www.google.com/maps/place/Zesp%C3%B3%C5%82+Szk%C3%B3%C5%82+Architektury+Krajobrazu+i+Handlowo+-+Us%C5%82ugowych/data=!4m7!3m6!1s0x46fd0ab7e1e50a5b:0xc17c6d3ab77488b1!8m2!3d54.4217455!4d18.5611924!16s%2Fg%2F1pv1c157l!19sChIJWwrl4bcK_UYRsYh0tzptfME?authuser=0&hl=en&rclk=1
54.421148,18.5694649,szkola,Moja Szkoła Tenisa,https://www.google.com/maps/place/Moja+Szko%C5%82a+Tenisa/data=!4m7!3m6!1s0x46fd0b28c29f0219:0x1ba1af5a3f0dce99!8m2!3d54.421148!4d18.5694649!16s%2Fg%2F1hc947gsh!19sChIJGQKfwigL_UYRmc4NP1qvoRs?authuser=0&hl=en&rclk=1
54.4245539,18.5723263,szkola,"Driving School ""Education-Linguist""",https://www.google.com/maps/place/Driving+School+%22Education-Linguist%22/data=!4m7!3m6!1s0x46fd0ac69cc213cd:0x1ede10248b1434b4!8m2!3d54.4245539!4d18.5723263!16s%2Fg%2F11c2qkw257!19sChIJzRPCnMYK_UYRtDQUiyQQ3h4?authuser=0&hl=en&rclk=1
54.4215896,18.5606317,szkola,Zasadnicza Szkoła Zawodowa nr 21 Zespołu Szkół,https://www.google.com/maps/place/Zasadnicza+Szko%C5%82a+Zawodowa+nr+21+Zespo%C5%82u+Szk%C3%B3%C5%82/data=!4m7!3m6!1s0x46fd0ab7e61a07b9:0xec8e562a6f82ef88!8m2!3d54.4215896!4d18.5606317!16s%2Fg%2F1tfx3llj!19sChIJuQca5rcK_UYRiO-CbypWjuw?authuser=0&hl=en&rclk=1
54.4216935,18.5635116,szkola,Liceum Columbus,https://www.google.com/maps/place/Liceum+Columbus/data=!4m7!3m6!1s0x46fd0b68653a1dcd:0x20af563fef3807a8!8m2!3d54.4216935!4d18.5635116!16s%2Fg%2F11pf8g1bsg!19sChIJzR06ZWgL_UYRqAc47z9WryA?authuser=0&hl=en&rclk=1
54.4285497,18.5607751,szkola,Szkoła Rozwoju,https://www.google.com/maps/place/Szko%C5%82a+Rozwoju/data=!4m7!3m6!1s0x46fd0abecd22f4cd:0xfe6ad785c8136621!8m2!3d54.4285497!4d18.5607751!16s%2Fg%2F11gy9vtx5_!19sChIJzfQizb4K_UYRIWYTyIXXav4?authuser=0&hl=en&rclk=1
54.421148,18.5694649,szkola,ISTA School Poland - Szkoła Tańca Irlandzkiego,https://www.google.com/maps/place/ISTA+School+Poland+-+Szko%C5%82a+Ta%C5%84ca+Irlandzkiego/data=!4m7!3m6!1s0x46fd0ac8a748594f:0x839f1bba30c3becc!8m2!3d54.421148!4d18.5694649!16s%2Fg%2F11c6sm7hl1!19sChIJT1lIp8gK_UYRzL7DMLobn4M?authuser=0&hl=en&rclk=1
54.4138399,18.5953916,szkola,Secondary School for Adults,https://www.google.com/maps/place/Secondary+School+for+Adults/data=!4m7!3m6!1s0x46fd0b29afb74523:0xc792563053705d21!8m2!3d54.4138399!4d18.5953916!16s%2Fg%2F1vcl2g5v!19sChIJI0W3rykL_UYRIV1wUzBWksc?authuser=0&hl=en&rclk=1
54.4116949,18.5938895,szkola,Zespół Szkolno-Przedszkolny nr 1 w Gdańsku,https://www.google.com/maps/place/Zesp%C3%B3%C5%82+Szkolno-Przedszkolny+nr+1+w+Gda%C5%84sku/data=!4m7!3m6!1s0x46fd0b2a29ba763d:0x31c6f8cb178c770f!8m2!3d54.4116949!4d18.5938895!16s%2Fg%2F1txfmvfs!19sChIJPXa6KSoL_UYRD3eMF8v4xjE?authuser=0&hl=en&rclk=1
54.4130291,18.5906877,szkola,Chrzescijańska Szkoła Podstawowa Montessori,https://www.google.com/maps/place/Chrzescija%C5%84ska+Szko%C5%82a+Podstawowa+Montessori/data=!4m7!3m6!1s0x46fd0ad6714b58eb:0xcb6c0670569fd7a7!8m2!3d54.4130291!4d18.5906877!16s%2Fg%2F11h7r2l_s0!19sChIJ61hLcdYK_UYRp9efVnAGbMs?authuser=0&hl=en&rclk=1
54.3960549,18.4089505,szkola,OTWARTA Niepubliczna Szkoła Podstawowa Nr 1,https://www.google.com/maps/place/OTWARTA+Niepubliczna+Szko%C5%82a+Podstawowa+Nr+1/data=!4m7!3m6!1s0x46fd9fc42f53b98d:0xa93753102a7197b4!8m2!3d54.3960549!4d18.4089505!16s%2Fg%2F11qjl2vn69!19sChIJjblTL8Sf_UYRtJdxKhBTN6k?authuser=0&hl=en&rclk=1
54.3959421,18.3998214,szkola,Szkoła Podstawowa im. ks. prałata Józefa Bigusa,https://www.google.com/maps/place/Szko%C5%82a+Podstawowa+im.+ks.+pra%C5%82ata+J%C3%B3zefa+Bigusa/data=!4m7!3m6!1s0x46fd9f1d71481f2b:0xc4d05ee6f285efed!8m2!3d54.3959421!4d18.3998214!16s%2Fg%2F11xvr54qk!19sChIJKx9IcR2f_UYR7e-F8uZe0MQ?authuser=0&hl=en&rclk=1
54.3941455,18.4012493,szkola,Szkoła Szóstka,https://www.google.com/maps/place/Szko%C5%82a+Sz%C3%B3stka/data=!4m7!3m6!1s0x46fd9f1f9d848981:0xfd54c157dce579ea!8m2!3d54.3941455!4d18.4012493!16s%2Fg%2F11f31dxnlm!19sChIJgYmEnR-f_UYR6nnl3FfBVP0?authuser=0&hl=en&rclk=1
54.3714555,18.5241223,szkola,Szkoła Podstawowa nr 7,https://www.google.com/maps/place/Szko%C5%82a+Podstawowa+nr+7/data=!4m7!3m6!1s0x46fd759fdd845fcb:0x380b73808a8eb555!8m2!3d54.3714555!4d18.5241223!16s%2Fg%2F1vyn2kkg!19sChIJy1-E3Z91_UYRVbWOioBzCzg?authuser=0&hl=en&rclk=1
54.4041941,18.5674305,szkola,Szkoła Podstawowa nr 35 z Oddziałami Sportowymi im. Jana Parandowskiego,https://www.google.com/maps/place/Szko%C5%82a+Podstawowa+nr+35+z+Oddzia%C5%82ami+Sportowymi+im.+Jana+Parandowskiego/data=!4m7!3m6!1s0x46fd752e01e9b239:0x10ad545bc002e87a!8m2!3d54.4041941!4d18.5674305!16s%2Fg%2F11fx726_ty!19sChIJObLpAS51_UYReugCwFtUrRA?authuser=0&hl=en&rclk=1
54.3878756,18.5743333,szkola,Szkoła Podstawowa nr 70,https://www.google.com/maps/place/Szko%C5%82a+Podstawowa+nr+70/data=!4m7!3m6!1s0x46fd74dfe8a33bf7:0x4c090a27762eaa24!8m2!3d54.3878756!4d18.5743333!16s%2Fg%2F1tfx3lmj!19sChIJ9zuj6N90_UYRJKoudicKCUw?authuser=0&hl=en&rclk=1
54.40921,18.5423232,szkola,Oliwka szkoła,https://www.google.com/maps/place/Oliwka+szko%C5%82a/data=!4m7!3m6!1s0x46fd7544eecf8ea1:0x5c86171acd30d05c!8m2!3d54.40921!4d18.5423232!16s%2Fg%2F11p5lx71dx!19sChIJoY7P7kR1_UYRXNAwzRoXhlw?authuser=0&hl=en&rclk=1
54.4027688,18.5715213,szkola,Thinking Zone – Szkoła Podstawowa i Liceum Ogólnokształcące,https://www.google.com/maps/place/Thinking+Zone+%E2%80%93+Szko%C5%82a+Podstawowa+i+Liceum+Og%C3%B3lnokszta%C5%82c%C4%85ce/data=!4m7!3m6!1s0x46fd752e6141ac47:0x78fe69a9da9ecc2d!8m2!3d54.4027688!4d18.5715213!16s%2Fg%2F11cm0pyp8r!19sChIJR6xBYS51_UYRLcye2qlp_ng?authuser=0&hl=en&rclk=1
54.4034839,18.5788623,szkola,Primary School 46,https://www.google.com/maps/place/Primary+School+46/data=!4m7!3m6!1s0x46fd752bcfa72c89:0xce15e022ea0b39ea!8m2!3d54.4034839!4d18.5788623!16s%2Fg%2F1hhhw0r14!19sChIJiSynzyt1_UYR6jkL6iLgFc4?authuser=0&hl=en&rclk=1
54.4123177,18.5688244,szkola,Chrześcijańska Szkoła Montessori,https://www.google.com/maps/place/Chrze%C5%9Bcija%C5%84ska+Szko%C5%82a+Montessori/data=!4m7!3m6!1s0x46fd0acce2847215:0x686039aac9ee6ac7!8m2!3d54.4123177!4d18.5688244!16s%2Fg%2F11d_2fxf7d!19sChIJFXKE4swK_UYRx2ruyao5YGg?authuser=0&hl=en&rclk=1
54.4133966,18.5547337,szkola,Polska Szkoła Masażu Shantala,https://www.google.com/maps/place/Polska+Szko%C5%82a+Masa%C5%BCu+Shantala/data=!4m7!3m6!1s0x46fd0ab56118ed0b:0x5aaedbd720c5db83!8m2!3d54.4133966!4d18.5547337!16s%2Fg%2F1tfldymr!19sChIJC-0YYbUK_UYRg9vFINfbrlo?authuser=0&hl=en&rclk=1
54.412854,18.589489,szkola,Zespół Szkolno-Przedszkolny nr 1 w Gdańsku (drugi budynek),https://www.google.com/maps/place/Zesp%C3%B3%C5%82+Szkolno-Przedszkolny+nr+1+w+Gda%C5%84sku+(drugi+budynek)/data=!4m7!3m6!1s0x46fd0bdaa4a1535d:0xc49e442adb51ea23!8m2!3d54.412854!4d18.589489!16s%2Fg%2F11h915gzw0!19sChIJXVOhpNoL_UYRI-pR2ypEnsQ?authuser=0&hl=en&rclk=1
54.4068348,18.60122,szkola,Szkoła podstawowa nr 33,https://www.google.com/maps/place/Szko%C5%82a+podstawowa+nr+33/data=!4m7!3m6!1s0x46fd0b2d1bd8d7fd:0x423bff43165f0a89!8m2!3d54.4068348!4d18.60122!16s%2Fg%2F1tdp_txl!19sChIJ_dfYGy0L_UYRiQpfFkP_O0I?authuser=0&hl=en&rclk=1
54.4093435,18.6057028,szkola,Zespół Szkół Kreowania Wizerunku,https://www.google.com/maps/place/Zesp%C3%B3%C5%82+Szk%C3%B3%C5%82+Kreowania+Wizerunku/data=!4m7!3m6!1s0x46fd0b2df0f5a1f5:0xc6c913542663a170!8m2!3d54.4093435!4d18.6057028!16s%2Fg%2F11f4pq8h40!19sChIJ9aH18C0L_UYRcKFjJlQTycY?authuser=0&hl=en&rclk=1
54.4109322,18.5986206,szkola,Primary School No. 44 to them. A. Mickiewicz,https://www.google.com/maps/place/Primary+School+No.+44+to+them.+A.+Mickiewicz/data=!4m7!3m6!1s0x46fd0b2bffaa33df:0xf5d1d0c4c1405340!8m2!3d54.4109322!4d18.5986206!16s%2Fg%2F1td0f5rh!19sChIJ3zOq_ysL_UYRQFNAwcTQ0fU?authuser=0&hl=en&rclk=1
54.4068348,18.60122,szkola,Akademia Dobrej Edukacji im. Macieja Płażyńskiego w Gdańsku,https://www.google.com/maps/place/Akademia+Dobrej+Edukacji+im.+Macieja+P%C5%82a%C5%BCy%C5%84skiego+w+Gda%C5%84sku/data=!4m7!3m6!1s0x46fd0ad751a6747d:0x5ef97fc2540e991b!8m2!3d54.4068348!4d18.60122!16s%2Fg%2F1ptxr8gxm!19sChIJfXSmUdcK_UYRG5kOVMJ_-V4?authuser=0&hl=en&rclk=1
54.4063936,18.5935365,szkola,Primary School No. 79,https://www.google.com/maps/place/Primary+School+No.+79/data=!4m7!3m6!1s0x46fd0b2b4af745df:0x4ddb9a50a076ec7f!8m2!3d54.4063936!4d18.5935365!16s%2Fg%2F11yn9n7_h!19sChIJ30X3SisL_UYRf-x2oFCa200?authuser=0&hl=en&rclk=1
54.4068348,18.6012199,szkola,Oliwskie Liceum Ogólnokształcące,https://www.google.com/maps/place/Oliwskie+Liceum+Og%C3%B3lnokszta%C5%82c%C4%85ce/data=!4m7!3m6!1s0x46fd0b2d1a3e8a37:0x9badb74b1d57a508!8m2!3d54.4068348!4d18.6012199!16s%2Fg%2F11h53wmm61!19sChIJN4o-Gi0L_UYRCKVXHUu3rZs?authuser=0&hl=en&rclk=1
54.411687,18.59368,szkola,Szkoła pływania STRZAŁKA,https://www.google.com/maps/place/Szko%C5%82a+p%C5%82ywania+STRZA%C5%81KA/data=!4m7!3m6!1s0x46fd0badb1a2c94f:0x8e4a7eba71f3ecb1!8m2!3d54.411687!4d18.59368!16s%2Fg%2F11fn4p1v6h!19sChIJT8misa0L_UYRsezzcbp-So4?authuser=0&hl=en&rclk=1
54.4095207,18.6307357,szkola,Primary School No. 20,https://www.google.com/maps/place/Primary+School+No.+20/data=!4m7!3m6!1s0x46fd0b48e89bd305:0xb8fc911e8e569314!8m2!3d54.4095207!4d18.6307357!16s%2Fg%2F1tcxyhzw!19sChIJBdOb6EgL_UYRFJNWjh6R_Lg?authuser=0&hl=en&rclk=1
54.4050097,18.644425,szkola,Zespół Szkół Ogólnokształcących Nr 10 im. Eugeniusza Kwiatkowskiego,https://www.google.com/maps/place/Zesp%C3%B3%C5%82+Szk%C3%B3%C5%82+Og%C3%B3lnokszta%C5%82c%C4%85cych+Nr+10+im.+Eugeniusza+Kwiatkowskiego/data=!4m7!3m6!1s0x46fd0b516e1d0cc9:0xd046cb616b1aacae!8m2!3d54.4050097!4d18.644425!16s%2Fg%2F1vm794dm!19sChIJyQwdblEL_UYRrqwaa2HLRtA?authuser=0&hl=en&rclk=1
54.4029111,18.627437,szkola,Gedanensis: Niepubliczne Przedszkole oraz Szkoła Podstawowa Gdańsk (Brzeźno),https://www.google.com/maps/place/Gedanensis:+Niepubliczne+Przedszkole+oraz+Szko%C5%82a+Podstawowa+Gda%C5%84sk+(Brze%C5%BAno)/data=!4m7!3m6!1s0x46fd0b4b6fddbf55:0xfa868523d556df1b!8m2!3d54.4029111!4d18.627437!16s%2Fg%2F1tfd5nn0!19sChIJVb_db0sL_UYRG99W1SOFhvo?authuser=0&hl=en&rclk=1
54.404945,18.627263,szkola,"Nuwave, Policealna Szkoła Technik Audiowizualnych","https://www.google.com/maps/place/Nuwave,+Policealna+Szko%C5%82a+Technik+Audiowizualnych/data=!4m7!3m6!1s0x46fd7499e30e7c43:0xff021b3ba7753d89!8m2!3d54.404945!4d18.627263!16s%2Fg%2F1yg4fj3rz!19sChIJQ3wO45l0_UYRiT11pzsbAv8?authuser=0&hl=en&rclk=1"
54.4063331,18.6425502,szkola,Szkoła Rodzenia Supermama,https://www.google.com/maps/place/Szko%C5%82a+Rodzenia+Supermama/data=!4m7!3m6!1s0x46fd0b831062c4c5:0xc0073ad9705b2d33!8m2!3d54.4063331!4d18.6425502!16s%2Fg%2F11t35lz4ff!19sChIJxcRiEIML_UYRMy1bcNk6B8A?authuser=0&hl=en&rclk=1
54.400438,18.6710911,szkola,Szkoła Podstawowa Nr 78,https://www.google.com/maps/place/Szko%C5%82a+Podstawowa+Nr+78/data=!4m7!3m6!1s0x46fd0cae1c700001:0xe40b43ccd36a6d61!8m2!3d54.400438!4d18.6710911!16s%2Fg%2F11h0vpt71z!19sChIJAQBwHK4M_UYRYW1q08xDC-Q?authuser=0&hl=en&rclk=1
54.398985,18.67164,szkola,Primary School No. 55,https://www.google.com/maps/place/Primary+School+No.+55/data=!4m7!3m6!1s0x46fd0cb2051ecbab:0x7a48154318e4d658!8m2!3d54.398985!4d18.67164!16s%2Fg%2F1tqnk99d!19sChIJq8seBbIM_UYRWNbkGEMVSHo?authuser=0&hl=en&rclk=1
54.4021887,18.6566782,szkola,Zespół Szkół Morskich Im. Bohaterskich Obrońców Westerplatte,https://www.google.com/maps/place/Zesp%C3%B3%C5%82+Szk%C3%B3%C5%82+Morskich+Im.+Bohaterskich+Obro%C5%84c%C3%B3w+Westerplatte/data=!4m7!3m6!1s0x46fd0ca9f4757da3:0x75b7120420e44eca!8m2!3d54.4021887!4d18.6566782!16s%2Fg%2F1tk6z5kf!19sChIJo3119KkM_UYRyk7kIAQSt3U?authuser=0&hl=en&rclk=1
54.3981687,18.6671598,szkola,Wyższa Szkoła Bezpieczeństwa Wydział Studiów Społecznych w Gdańsku,https://www.google.com/maps/place/Wy%C5%BCsza+Szko%C5%82a+Bezpiecze%C5%84stwa+Wydzia%C5%82+Studi%C3%B3w+Spo%C5%82ecznych+w+Gda%C5%84sku/data=!4m7!3m6!1s0x46fd0cadb7397f0b:0x8c6619a011347da8!8m2!3d54.3981687!4d18.6671598!16s%2Fg%2F119pgx0jt!19sChIJC385t60M_UYRqH00EaAZZow?authuser=0&hl=en&rclk=1
54.402127,18.662468,szkola,Alfa. Centrum Edukacji Dorosłych. Szkoła Policealna,https://www.google.com/maps/place/Alfa.+Centrum+Edukacji+Doros%C5%82ych.+Szko%C5%82a+Policealna/data=!4m7!3m6!1s0x46fd0ca947aa4e8d:0x59c4a1548b0734b5!8m2!3d54.402127!4d18.662468!16s%2Fg%2F11xrh32b1!19sChIJjU6qR6kM_UYRtTQHi1ShxFk?authuser=0&hl=en&rclk=1
54.3787834,18.6295523,szkola,Szkoła Podstawowa nr 69 im. gen. St. Sosabowskiego,https://www.google.com/maps/place/Szko%C5%82a+Podstawowa+nr+69+im.+gen.+St.+Sosabowskiego/data=!4m7!3m6!1s0x46fd74a1f62984a3:0x98e6c6c3d0f7ec74!8m2!3d54.3787834!4d18.6295523!16s%2Fg%2F1td0x4yb!19sChIJo4Qp9qF0_UYRdOz30MPG5pg?authuser=0&hl=en&rclk=1
54.3957202,18.6083733,szkola,Primary School No. 48,https://www.google.com/maps/place/Primary+School+No.+48/data=!4m7!3m6!1s0x46fd74c9196b75e1:0xae561eb08d5441a4!8m2!3d54.3957202!4d18.6083733!16s%2Fg%2F1tfb9vkn!19sChIJ4XVrGcl0_UYRpEFUjbAeVq4?authuser=0&hl=en&rclk=1
54.391199,18.6126204,szkola,"Niepubliczna Szkoła Podstawowa ""Nasza Szkoła""",https://www.google.com/maps/place/Niepubliczna+Szko%C5%82a+Podstawowa+%22Nasza+Szko%C5%82a%22/data=!4m7!3m6!1s0x46fd74b81aba8f39:0xcde6d0ae789b8a1b!8m2!3d54.391199!4d18.6126204!16s%2Fg%2F1tvrydvn!19sChIJOY-6Grh0_UYRG4qbeK7Q5s0?authuser=0&hl=en&rclk=1
54.3920484,18.4055929,szkola,Niepubliczna Szkoła Podstawowa „AiB”,https://www.google.com/maps/place/Niepubliczna+Szko%C5%82a+Podstawowa+%E2%80%9EAiB%E2%80%9D/data=!4m7!3m6!1s0x46fd9fdca16b9fe5:0x79eaecdeac1dacf9!8m2!3d54.3920484!4d18.4055929!16s%2Fg%2F11sy1m7ldb!19sChIJ5Z9rodyf_UYR-awdrN7s6nk?authuser=0&hl=en&rclk=1
54.3908233,18.4117671,szkola,Banino Szkoła 01,https://www.google.com/maps/place/Banino+Szko%C5%82a+01/data=!4m7!3m6!1s0x46fd9f1d723e9149:0x38f77b0abefa3a3!8m2!3d54.3908233!4d18.4117671!16s%2Fg%2F11h2p6_mhz!19sChIJSZE-ch2f_UYRo6Pvq7B3jwM?authuser=0&hl=en&rclk=1
54.3533586,18.4809331,szkola,Szkoła Podstawowa nr 83,https://www.google.com/maps/place/Szko%C5%82a+Podstawowa+nr+83/data=!4m7!3m6!1s0x46fd75f509c2bcf9:0x64e59c5f6f2fce5e!8m2!3d54.3533586!4d18.4809331!16s%2Fg%2F1tcwvdv6!19sChIJ-bzCCfV1_UYRXs4vb1-c5WQ?authuser=0&hl=en&rclk=1
54.3968426,18.5186926,szkola,Żyrafia Osada,https://www.google.com/maps/place/%C5%BByrafia+Osada/data=!4m7!3m6!1s0x46fd755de826b9a1:0xc316572a4e973fcb!8m2!3d54.3968426!4d18.5186926!16s%2Fg%2F11fmxz6wrw!19sChIJobkm6F11_UYRyz-XTipXFsM?authuser=0&hl=en&rclk=1
54.3905338,18.5849846,szkola,Państwowe Szkoły Budownictwa im. prof. Mariana Osińskiego,https://www.google.com/maps/place/Pa%C5%84stwowe+Szko%C5%82y+Budownictwa+im.+prof.+Mariana+Osi%C5%84skiego/data=!4m7!3m6!1s0x46fd74dc079069a1:0xcfb9943f40a84570!8m2!3d54.3905338!4d18.5849846!16s%2Fg%2F1tk66cv7!19sChIJoWmQB9x0_UYRcEWoQD-Uuc8?authuser=0&hl=en&rclk=1
54.4025442,18.5608478,szkola,Ogólnokształcące Liceum Programów Indywidualnych,https://www.google.com/maps/place/Og%C3%B3lnokszta%C5%82c%C4%85ce+Liceum+Program%C3%B3w+Indywidualnych/data=!4m7!3m6!1s0x46fd7530fc92e65d:0x133c76160e892140!8m2!3d54.4025442!4d18.5608478!16s%2Fg%2F11_dz4rqm!19sChIJXeaS_DB1_UYRQCGJDhZ2PBM?authuser=0&hl=en&rclk=1
54.396922,18.5724896,szkola,Szkoła Biblijna Archidiecezji Gdańskiej,https://www.google.com/maps/place/Szko%C5%82a+Biblijna+Archidiecezji+Gda%C5%84skiej/data=!4m7!3m6!1s0x46fd7526136be179:0xefcefcfc163b20f!8m2!3d54.396922!4d18.5724896!16s%2Fg%2F11fm16bvn1!19sChIJeeFrEyZ1_UYRD7Jjwc_v_A4?authuser=0&hl=en&rclk=1
54.3951644,18.595938,szkola,Primary School No. 92,https://www.google.com/maps/place/Primary+School+No.+92/data=!4m7!3m6!1s0x46fd74d01cefceeb:0x99c72d804ae6f64f!8m2!3d54.3951644!4d18.595938!16s%2Fg%2F1tdbpkpw!19sChIJ687vHNB0_UYRT_bmSoAtx5k?authuser=0&hl=en&rclk=1
54.4020529,18.6041108,szkola,Zespół Szkół Ogólnokształcących nr 8 im. Jana Pawła II,https://www.google.com/maps/place/Zesp%C3%B3%C5%82+Szk%C3%B3%C5%82+Og%C3%B3lnokszta%C5%82c%C4%85cych+nr+8+im.+Jana+Paw%C5%82a+II/data=!4m7!3m6!1s0x46fd74cda9a41c23:0xa091d74f07b6d573!8m2!3d54.4020529!4d18.6041108!16s%2Fg%2F1tfgbybg!19sChIJIxykqc10_UYRc9W2B0_XkaA?authuser=0&hl=en&rclk=1
54.4012041,18.6048828,szkola,TUR. Szkoły policealne,https://www.google.com/maps/place/TUR.+Szko%C5%82y+policealne/data=!4m7!3m6!1s0x46fd74d01cefceeb:0xd8a84dc7324ea47b!8m2!3d54.4012041!4d18.6048828!16s%2Fg%2F1tfz8wwq!19sChIJ687vHNB0_UYRe6ROMsdNqNg?authuser=0&hl=en&rclk=1
54.402034,18.6041021,szkola,Stage Monsters - szkoła muzyki rozrywkowej,https://www.google.com/maps/place/Stage+Monsters+-+szko%C5%82a+muzyki+rozrywkowej/data=!4m7!3m6!1s0x46fd74cd0955e4c5:0x273334503dc5afa5!8m2!3d54.402034!4d18.6041021!16s%2Fg%2F11b76j707p!19sChIJxeRVCc10_UYRpa_FPVA0Myc?authuser=0&hl=en&rclk=1
54.4003633,18.5919987,szkola,Szkoła Pamięci SPW - zajęcia edukacyjne treningu pamięci i koncentracji,https://www.google.com/maps/place/Szko%C5%82a+Pami%C4%99ci+SPW+-+zaj%C4%99cia+edukacyjne+treningu+pami%C4%99ci+i+koncentracji/data=!4m7!3m6!1s0x46fd7555c0356327:0xcdfddd2d73eadf5!8m2!3d54.4003633!4d18.5919987!16s%2Fg%2F11s_w1vcsq!19sChIJJ2M1wFV1_UYR9a0-19Ld3ww?authuser=0&hl=en&rclk=1
54.396748,18.6272764,szkola,CreoGedania,https://www.google.com/maps/place/CreoGedania/data=!4m7!3m6!1s0x46fd75faee3a1413:0xccf672dec53a8b5a!8m2!3d54.396748!4d18.6272764!16s%2Fg%2F11h710n2qf!19sChIJExQ67vp1_UYRWos6xd5y9sw?authuser=0&hl=en&rclk=1
54.3900786,18.6392969,szkola,Publiczna Szkoła Podstawowa Hevelius,https://www.google.com/maps/place/Publiczna+Szko%C5%82a+Podstawowa+Hevelius/data=!4m7!3m6!1s0x46fd752f4018fd53:0xbf38fbaf2e7745c7!8m2!3d54.3900786!4d18.6392969!16s%2Fg%2F11pkjf70nt!19sChIJU_0YQC91_UYRx0V3Lq_7OL8?authuser=0&hl=en&rclk=1
54.3934955,18.6446484,szkola,Publiczna Szkoła Podstawowa HEVELIUS,https://www.google.com/maps/place/Publiczna+Szko%C5%82a+Podstawowa+HEVELIUS/data=!4m7!3m6!1s0x46fd75370c04f93d:0x5b7bd2b37fb8a650!8m2!3d54.3934955!4d18.6446484!16s%2Fg%2F11tdqgl5jc!19sChIJPfkEDDd1_UYRUKa4f7PSe1s?authuser=0&hl=en&rclk=1
54.3875315,18.6249276,szkola,Primary School No. 52,https://www.google.com/maps/place/Primary+School+No.+52/data=!4m7!3m6!1s0x46fd74badc6f6b77:0x45ce0b685767b539!8m2!3d54.3875315!4d18.6249276!16s%2Fg%2F1w0hz99j!19sChIJd2tv3Lp0_UYRObVnV2gLzkU?authuser=0&hl=en&rclk=1
54.386182,18.6120751,szkola,Bronisław Komorowski Primary School no. 49,https://www.google.com/maps/place/Bronis%C5%82aw+Komorowski+Primary+School+no.+49/data=!4m7!3m6!1s0x46fd74bf2ade4de1:0x86170a257af29213!8m2!3d54.386182!4d18.6120751!16s%2Fg%2F11dzdkl4tm!19sChIJ4U3eKr90_UYRE5LyeiUKF4Y?authuser=0&hl=en&rclk=1
54.384953,18.6175303,szkola,Primary School No. 24,https://www.google.com/maps/place/Primary+School+No.+24/data=!4m7!3m6!1s0x46fd74bbf88cd307:0x201437856c987d3b!8m2!3d54.384953!4d18.6175303!16s%2Fg%2F1td4c79p!19sChIJB9OM-Lt0_UYRO32YbIU3FCA?authuser=0&hl=en&rclk=1
54.402127,18.662468,szkola,Zespół Szkół Ogólnokształcących nr 5,https://www.google.com/maps/place/Zesp%C3%B3%C5%82+Szk%C3%B3%C5%82+Og%C3%B3lnokszta%C5%82c%C4%85cych+nr+5/data=!4m7!3m6!1s0x46fd0ca947aa4e8d:0x77ec25ad836449dd!8m2!3d54.402127!4d18.662468!16s%2Fg%2F1tgmtz4d!19sChIJjU6qR6kM_UYR3Ulkg60l7Hc?authuser=0&hl=en&rclk=1
54.361414,18.71226,szkola,Szkoła Podstawowa nr 11 im. Na Bursztynowym Szlaku,https://www.google.com/maps/place/Szko%C5%82a+Podstawowa+nr+11+im.+Na+Bursztynowym+Szlaku/data=!4m7!3m6!1s0x46fd72e64bc8bebd:0xf515060ba692172a!8m2!3d54.361414!4d18.71226!16s%2Fg%2F1tcw6wjh!19sChIJvb7IS-Zy_UYRKheSpgsGFfU?authuser=0&hl=en&rclk=1
54.3586154,18.6911197,szkola,Szkoła Podstawowa nr 61 im. J. Wybickiego,https://www.google.com/maps/place/Szko%C5%82a+Podstawowa+nr+61+im.+J.+Wybickiego/data=!4m7!3m6!1s0x46fd731d176bcd63:0x10d0c4ab7f712774!8m2!3d54.3586154!4d18.6911197!16s%2Fg%2F1v2d_5_2!19sChIJY81rFx1z_UYRdCdxf6vE0BA?authuser=0&hl=en&rclk=1
54.360543,18.7373349,szkola,Szkoła Podstawowa nr 62,https://www.google.com/maps/place/Szko%C5%82a+Podstawowa+nr+62/data=!4m7!3m6!1s0x46fd72be2bd4f6b7:0xbf5287383d9ddd80!8m2!3d54.360543!4d18.7373349!16s%2Fg%2F1tdnjthy!19sChIJt_bUK75y_UYRgN2dPTiHUr8?authuser=0&hl=en&rclk=1
54.3580527,18.6527194,szkola,Primary School No. 57,https://www.google.com/maps/place/Primary+School+No.+57/data=!4m7!3m6!1s0x46fd737392890949:0xeb2fca1d8e54d9cd!8m2!3d54.3580527!4d18.6527194!16s%2Fg%2F1tdr6wmz!19sChIJSQmJknNz_UYRzdlUjh3KL-s?authuser=0&hl=en&rclk=1
54.3561525,18.6557894,szkola,Gdańska Autonomiczna Szkoła Podstawowa,https://www.google.com/maps/place/Gda%C5%84ska+Autonomiczna+Szko%C5%82a+Podstawowa/data=!4m7!3m6!1s0x46fd73749868fad9:0xd2e472dd03588001!8m2!3d54.3561525!4d18.6557894!16s%2Fg%2F11byz95hmk!19sChIJ2fpomHRz_UYRAYBYA91y5NI?authuser=0&hl=en&rclk=1
54.3484,18.6957281,szkola,Primary School No. 29 LEONARDO,https://www.google.com/maps/place/Primary+School+No.+29+LEONARDO/data=!4m7!3m6!1s0x46fd72fecf4e1947:0x289838950323e812!8m2!3d54.3484!4d18.6957281!16s%2Fg%2F1vg_bkbz!19sChIJRxlOz_5y_UYREugjA5U4mCg?authuser=0&hl=en&rclk=1
54.3517487,18.6274044,szkola,Elementary School No. 58,https://www.google.com/maps/place/Elementary+School+No.+58/data=!4m7!3m6!1s0x46fd7383d89053d9:0x907e3f95efd08398!8m2!3d54.3517487!4d18.6274044!16s%2Fg%2F1tfx3lm4!19sChIJ2VOQ2INz_UYRmIPQ75U_fpA?authuser=0&hl=en&rclk=1
54.3914607,18.4104638,szkola,Banino Szkoła 02,https://www.google.com/maps/place/Banino+Szko%C5%82a+02/data=!4m7!3m6!1s0x46fd9f1da256c89b:0xb70c0c0a682097f9!8m2!3d54.3914607!4d18.4104638!16s%2Fg%2F11h2p6zttp!19sChIJm8hWoh2f_UYR-ZcgaAoMDLc?authuser=0&hl=en&rclk=1
54.3687461,18.3958608,szkola,Primary School. Sec. Clement Wickiego,https://www.google.com/maps/place/Primary+School.+Sec.+Clement+Wickiego/data=!4m7!3m6!1s0x46fd9e324b47c407:0x915d0901ae87986a!8m2!3d54.3687461!4d18.3958608!16s%2Fg%2F1tpljf7m!19sChIJB8RHSzKe_UYRapiHrgEJXZE?authuser=0&hl=en&rclk=1
54.3877087,18.3594458,szkola,Szkoła Podstawowa im. J. Trepczyka,https://www.google.com/maps/place/Szko%C5%82a+Podstawowa+im.+J.+Trepczyka/data=!4m7!3m6!1s0x46fd992d2bcbec19:0xb4ba5638fe14c076!8m2!3d54.3877087!4d18.3594458!16s%2Fg%2F1tf2qy1v!19sChIJGezLKy2Z_UYRdsAU_jhWurQ?authuser=0&hl=en&rclk=1
54.3466119,18.4328262,szkola,Szkoła Podstawowa im. J. Pawła II w Leźnie,https://www.google.com/maps/place/Szko%C5%82a+Podstawowa+im.+J.+Paw%C5%82a+II+w+Le%C5%BAnie/data=!4m7!3m6!1s0x46fd9e747eebe6d7:0xa4737be150d4bdda!8m2!3d54.3466119!4d18.4328262!16s%2Fg%2F1hd_kwvqy!19sChIJ1-brfnSe_UYR2r3UUOF7c6Q?authuser=0&hl=en&rclk=1
54.3938073,18.3885358,szkola,EduArt&Fun Szkoła Artystyczna /HiFive Szkoła językowa,https://www.google.com/maps/place/EduArt%26Fun+Szko%C5%82a+Artystyczna+%2FHiFive+Szko%C5%82a+j%C4%99zykowa/data=!4m7!3m6!1s0x46fd9f20438080ed:0xf263ff67e06eb5b6!8m2!3d54.3938073!4d18.3885358!16s%2Fg%2F11b7q2jtwn!19sChIJ7YCAQyCf_UYRtrVu4Gf_Y_I?authuser=0&hl=en&rclk=1
54.3522125,18.5112813,szkola,Pozytywna Szkoła Podstawowa w Gdańsku,https://www.google.com/maps/place/Pozytywna+Szko%C5%82a+Podstawowa+w+Gda%C5%84sku/data=!4m7!3m6!1s0x46fd75955cda2b01:0x77aed505b45ed57a!8m2!3d54.3522125!4d18.5112813!16s%2Fg%2F11bw61jwy5!19sChIJASvaXJV1_UYRetVetAXVrnc?authuser=0&hl=en&rclk=1
54.3398485,18.508964,szkola,Primary School No. 84 to them. Brzechwa,https://www.google.com/maps/place/Primary+School+No.+84+to+them.+Brzechwa/data=!4m7!3m6!1s0x46fd75dcd03344db:0xe8957cf9e155723f!8m2!3d54.3398485!4d18.508964!16s%2Fg%2F1thpvjhr!19sChIJ20Qz0Nx1_UYRP3JV4fl8leg?authuser=0&hl=en&rclk=1
54.361413,18.495404,szkola,Szkoła Nurkowania Gdańsk Ośmiornica,https://www.google.com/maps/place/Szko%C5%82a+Nurkowania+Gda%C5%84sk+O%C5%9Bmiornica/data=!4m7!3m6!1s0x46fd758eeef8b761:0xf054d1e5ec9772ce!8m2!3d54.361413!4d18.495404!16s%2Fg%2F11b6lkxt05!19sChIJYbf47o51_UYRznKX7OXRVPA?authuser=0&hl=en&rclk=1
54.3584629,18.5746067,szkola,Primary School No. 2,https://www.google.com/maps/place/Primary+School+No.+2/data=!4m7!3m6!1s0x46fd745953e9848f:0x9d339fd12342b5bb!8m2!3d54.3584629!4d18.5746067!16s%2Fg%2F1jglvqjwf!19sChIJj4TpU1l0_UYRu7VCI9GfM50?authuser=0&hl=en&rclk=1
54.3417165,18.367546,szkola,Szkoła Podstawowa w Bieganowie,https://www.google.com/maps/place/Szko%C5%82a+Podstawowa+w+Bieganowie/data=!4m7!3m6!1s0x4718593e8d1f242d:0x52f3933d76ec9757!8m2!3d54.3417165!4d18.367546!16s%2Fg%2F11fm164xl2!19sChIJLSQfjT5ZGEcRV5fsdj2T81I?authuser=0&hl=en&rclk=1
54.3759739,18.5620398,szkola,Zespół Kształcenia Podstawowego i Gimnazjalnego Szkoła Podstawowa nr 38 im. gen. S. Maczka,https://www.google.com/maps/place/Zesp%C3%B3%C5%82+Kszta%C5%82cenia+Podstawowego+i+Gimnazjalnego+Szko%C5%82a+Podstawowa+nr+38+im.+gen.+S.+Maczka/data=!4m7!3m6!1s0x46fd7502e7b65def:0x25439d5e02ad3582!8m2!3d54.3759739!4d18.5620398!16s%2Fg%2F1tpb9p49!19sChIJ71225wJ1_UYRgjWtAl6dQyU?authuser=0&hl=en&rclk=1
54.3737286,18.56595,szkola,Szkoła Podstawowa im.św.Jana De La Salle,https://www.google.com/maps/place/Szko%C5%82a+Podstawowa+im.%C5%9Bw.Jana+De+La+Salle/data=!4m7!3m6!1s0x46fd74fd9f70b05b:0xd9c84989a6fa62f!8m2!3d54.3737286!4d18.56595!16s%2Fg%2F1td9tt7l!19sChIJW7Bwn_10_UYRL6ZvmpiEnA0?authuser=0&hl=en&rclk=1
54.3883209,18.5740681,szkola,Gdańska Szkoła Floretu,https://www.google.com/maps/place/Gda%C5%84ska+Szko%C5%82a+Floretu/data=!4m10!3m9!1s0x46fd74dfe8a33bf7:0x685f01f9b44bf6e6!5m2!4m1!1i2!8m2!3d54.3883209!4d18.5740681!16s%2Fg%2F113gnny43!19sChIJ9zuj6N90_UYR5vZLtPkBX2g?authuser=0&hl=en&rclk=1
54.3878155,18.5745946,szkola,Fundacja Gdańska Szkoła Floretu,https://www.google.com/maps/place/Fundacja+Gda%C5%84ska+Szko%C5%82a+Floretu/data=!4m7!3m6!1s0x46fd74dfed75d485:0xde86ae08d346e1b6!8m2!3d54.3878155!4d18.5745946!16s%2Fg%2F11fm16k7nl!19sChIJhdR17d90_UYRtuFG0wiuht4?authuser=0&hl=en&rclk=1
54.377132,18.5810801,szkola,Szkoła Podstawowa nr 27 im. Dzieci Zjednoczonej Europy,https://www.google.com/maps/place/Szko%C5%82a+Podstawowa+nr+27+im.+Dzieci+Zjednoczonej+Europy/data=!4m7!3m6!1s0x46fd74e5a798933d:0x6a0cf238bb06d5be!8m2!3d54.377132!4d18.5810801!16s%2Fg%2F1tp_526p!19sChIJPZOYp-V0_UYRvtUGuzjyDGo?authuser=0&hl=en&rclk=1
54.3903652,18.5951347,szkola,"Podstawowa Szkoła Społeczna ""Niedźwiednik""",https://www.google.com/maps/place/Podstawowa+Szko%C5%82a+Spo%C5%82eczna+%22Nied%C5%BAwiednik%22/data=!4m7!3m6!1s0x46fd74e2d59de141:0xed42de24f9b63a6f!8m2!3d54.3903652!4d18.5951347!16s%2Fg%2F1vc_p11z!19sChIJQeGd1eJ0_UYRbzq2-STeQu0?authuser=0&hl=en&rclk=1
54.3914947,18.5964647,szkola,Szkoła Podstawowa Przy Parafii Św. Kazimierza,https://www.google.com/maps/place/Szko%C5%82a+Podstawowa+Przy+Parafii+%C5%9Aw.+Kazimierza/data=!4m7!3m6!1s0x46fd74c4e1955555:0x30c5c0ca3bc5fbd8!8m2!3d54.3914947!4d18.5964647!16s%2Fg%2F11h6g16bf2!19sChIJVVWV4cR0_UYR2PvFO8rAxTA?authuser=0&hl=en&rclk=1
54.3813183,18.5906453,szkola,Szkoła Praktyków - z pasji do projektowania,https://www.google.com/maps/place/Szko%C5%82a+Praktyk%C3%B3w+-+z+pasji+do+projektowania/data=!4m7!3m6!1s0x46fd751beffa0ab5:0x6d2261279f433b97!8m2!3d54.3813183!4d18.5906453!16s%2Fg%2F11fmxz4th3!19sChIJtQr67xt1_UYRlztDnydhIm0?authuser=0&hl=en&rclk=1
54.385829,18.6032689,szkola,Szkoła,https://www.google.com/maps/place/Szko%C5%82a/data=!4m7!3m6!1s0x46fd758c380600ed:0x7379c87304bb4ed6!8m2!3d54.385829!4d18.6032689!16s%2Fg%2F11h5xj3f5_!19sChIJ7QAGOIx1_UYR1k67BHPIeXM?authuser=0&hl=en&rclk=1
54.3804584,18.5940543,szkola,Primary School No. 39,https://www.google.com/maps/place/Primary+School+No.+39/data=!4m7!3m6!1s0x46fd74e982c8db45:0x7d8d176af6a66709!8m2!3d54.3804584!4d18.5940543!16s%2Fg%2F1vd7006z!19sChIJRdvIgul0_UYRCWem9moXjX0?authuser=0&hl=en&rclk=1
54.3853646,18.5931175,szkola,Niepubliczna Szkoła Podstawowa Mental Arts,https://www.google.com/maps/place/Niepubliczna+Szko%C5%82a+Podstawowa+Mental+Arts/data=!4m7!3m6!1s0x46fd75533b27c72b:0x2b951f79ffeff2ad!8m2!3d54.3853646!4d18.5931175!16s%2Fg%2F11t887mj9s!19sChIJK8cnO1N1_UYRrfLv_3kflSs?authuser=0&hl=en&rclk=1
54.3860701,18.6089791,szkola,Liceum Ogólnokształcące nr XIX im. Mariana Mokwy,https://www.google.com/maps/place/Liceum+Og%C3%B3lnokszta%C5%82c%C4%85ce+nr+XIX+im.+Mariana+Mokwy/data=!4m7!3m6!1s0x46fd74bf456a1041:0xc9b873aade102b1b!8m2!3d54.3860701!4d18.6089791!16s%2Fg%2F1tg_dr6j!19sChIJQRBqRb90_UYRGysQ3qpzuMk?authuser=0&hl=en&rclk=1
54.3841136,18.5906248,szkola,"Stylab - szkoła wizażu, stylizacji i charakteryzacji","https://www.google.com/maps/place/Stylab+-+szko%C5%82a+wiza%C5%BCu,+stylizacji+i+charakteryzacji/data=!4m7!3m6!1s0x46fd73710d9770f9:0xf82ab7d4c463dee3!8m2!3d54.3841136!4d18.5906248!16s%2Fg%2F1hc6mv72f!19sChIJ-XCXDXFz_UYR495jxNS3Kvg?authuser=0&hl=en&rclk=1"
54.3857629,18.5923894,szkola,Szkoła Językowa Acento Gdańsk,https://www.google.com/maps/place/Szko%C5%82a+J%C4%99zykowa+Acento+Gda%C5%84sk/data=!4m7!3m6!1s0x46fd74e805949039:0xf1555decea28c672!8m2!3d54.3857629!4d18.5923894!16s%2Fg%2F11f08dlxwc!19sChIJOZCUBeh0_UYRcsYo6uxdVfE?authuser=0&hl=en&rclk=1
54.3834176,18.6409802,szkola,Szkoła Sztuk Walki TANTO,https://www.google.com/maps/place/Szko%C5%82a+Sztuk+Walki+TANTO/data=!4m7!3m6!1s0x46fd75de4acae727:0x4eaae1207055ae29!8m2!3d54.3834176!4d18.6409802!16s%2Fg%2F11fcr2xmjd!19sChIJJ-fKSt51_UYRKa5VcCDhqk4?authuser=0&hl=en&rclk=1
54.3856218,18.6239368,szkola,College of Theology and Humanities,https://www.google.com/maps/place/College+of+Theology+and+Humanities/data=!4m7!3m6!1s0x46fd74bb47aa55a3:0xcd655a0a94ffab74!8m2!3d54.3856218!4d18.6239368!16s%2Fg%2F11b5pj1v3j!19sChIJo1WqR7t0_UYRdKv_lApaZc0?authuser=0&hl=en&rclk=1
54.3880943,18.6219354,szkola,Pomorska Szkoła Wyższa,https://www.google.com/maps/place/Pomorska+Szko%C5%82a+Wy%C5%BCsza/data=!4m7!3m6!1s0x46fd74ba50dcdf6b:0xdafc17e228eb74b2!8m2!3d54.3880943!4d18.6219354!16s%2Fg%2F11fmxz01q6!19sChIJa9_cULp0_UYRsnTrKOIX_No?authuser=0&hl=en&rclk=1
54.3800916,18.6213801,szkola,Centrum Kształcenia Zawodowego i Ustawicznego Nr 1,https://www.google.com/maps/place/Centrum+Kszta%C5%82cenia+Zawodowego+i+Ustawicznego+Nr+1/data=!4m7!3m6!1s0x46fd7398406339b3:0x80c8fa190728dff!8m2!3d54.3800916!4d18.6213801!16s%2Fg%2F1pv5wjx8n!19sChIJszljQJhz_UYR_41ykKGPDAg?authuser=0&hl=en&rclk=1
54.3806569,18.6453112,szkola,Szkoła Sztuk Walki YUMIYA,https://www.google.com/maps/place/Szko%C5%82a+Sztuk+Walki+YUMIYA/data=!4m7!3m6!1s0x46fd7390abfc50d5:0xc27832b562568f7e!8m2!3d54.3806569!4d18.6453112!16s%2Fg%2F11fcqbcxk6!19sChIJ1VD8q5Bz_UYRfo9WYrUyeMI?authuser=0&hl=en&rclk=1
54.3555332,18.6589915,szkola,Szkoła Podstawowa Specjalna nr 26,https://www.google.com/maps/place/Szko%C5%82a+Podstawowa+Specjalna+nr+26/data=!4m7!3m6!1s0x46fd730b5cb7436d:0xe531fa202929f956!8m2!3d54.3555332!4d18.6589915!16s%2Fg%2F1trc3ng9!19sChIJbUO3XAtz_UYRVvkpKSD6MeU?authuser=0&hl=en&rclk=1
54.3527221,18.6549777,szkola,Primary School No. 50,https://www.google.com/maps/place/Primary+School+No.+50/data=!4m7!3m6!1s0x46fd737536b091c7:0x35bb0008dd104185!8m2!3d54.3527221!4d18.6549777!16s%2Fg%2F1tg85bn5!19sChIJx5GwNnVz_UYRhUEQ3QgAuzU?authuser=0&hl=en&rclk=1
54.3614797,18.7124219,szkola,Barrakuda Szkoła Pływania Gdańsk - pływanie niemowlaków - szkółka pływacka - nauka pływania dla dzieci i dorosłych Gdańsk,https://www.google.com/maps/place/Barrakuda+Szko%C5%82a+P%C5%82ywania+Gda%C5%84sk+-+p%C5%82ywanie+niemowlak%C3%B3w+-+szk%C3%B3%C5%82ka+p%C5%82ywacka+-+nauka+p%C5%82ywania+dla+dzieci+i+doros%C5%82ych+Gda%C5%84sk/data=!4m7!3m6!1s0x46fd731d84b3940b:0x58805be3f8ac4c5c!8m2!3d54.3614797!4d18.7124219!16s%2Fg%2F11gjv7lgy3!19sChIJC5SzhB1z_UYRXEys-ONbgFg?authuser=0&hl=en&rclk=1
54.3501924,18.6255905,szkola,Niepubliczna Szkoła Sokrates,https://www.google.com/maps/place/Niepubliczna+Szko%C5%82a+Sokrates/data=!4m7!3m6!1s0x46fd73814d0c079f:0x4728bc6438169aa3!8m2!3d54.3501924!4d18.6255905!16s%2Fg%2F1tscmpk9!19sChIJnwcMTYFz_UYRo5oWOGS8KEc?authuser=0&hl=en&rclk=1
54.3440118,18.5616135,szkola,Primary School No. 85 to them. Kashubian-Pomeranian,https://www.google.com/maps/place/Primary+School+No.+85+to+them.+Kashubian-Pomeranian/data=!4m7!3m6!1s0x46fd7447f1dec805:0x5021539c41ff6365!8m2!3d54.3440118!4d18.5616135!16s%2Fg%2F1tftjxb_!19sChIJBcje8Ud0_UYRZWP_QZxTIVA?authuser=0&hl=en&rclk=1
54.3584297,18.5741646,szkola,Team primary and lower secondary Education 21,https://www.google.com/maps/place/Team+primary+and+lower+secondary+Education+21/data=!4m7!3m6!1s0x46fd745953e9848f:0x832459565c9e3600!8m2!3d54.3584297!4d18.5741646!16s%2Fg%2F1tj7znst!19sChIJj4TpU1l0_UYRADaeXFZZJIM?authuser=0&hl=en&rclk=1
54.3583802,18.5933882,szkola,Szkoła Podstawowa nr 1 im Mariusza Zaruskiego,https://www.google.com/maps/place/Szko%C5%82a+Podstawowa+nr+1+im+Mariusza+Zaruskiego/data=!4m7!3m6!1s0x46fd7460662afdf9:0x5c9ed670c749c7d0!8m2!3d54.3583802!4d18.5933882!16s%2Fg%2F1tklp76g!19sChIJ-f0qZmB0_UYR0MdJx3DWnlw?authuser=0&hl=en&rclk=1
54.3752891,18.5638244,szkola,Aquafit. Gdańska szkoła pływania. Orzechowski K.,https://www.google.com/maps/place/Aquafit.+Gda%C5%84ska+szko%C5%82a+p%C5%82ywania.+Orzechowski+K./data=!4m7!3m6!1s0x46fd7502a1b12ce9:0xd12da2d62d6f308a!8m2!3d54.3752891!4d18.5638244!16s%2Fg%2F1tk21mhb!19sChIJ6SyxoQJ1_UYRijBvLdaiLdE?authuser=0&hl=en&rclk=1
54.373803,18.5648301,szkola,"Szkoła Rodzenia ""Dobry Początek""",https://www.google.com/maps/place/Szko%C5%82a+Rodzenia+%22Dobry+Pocz%C4%85tek%22/data=!4m7!3m6!1s0x46fd739d28faead3:0xead289d3f3f239f9!8m2!3d54.373803!4d18.5648301!16s%2Fg%2F11gfd0_hv0!19sChIJ0-r6KJ1z_UYR-Tny89OJ0uo?authuser=0&hl=en&rclk=1
54.3770359,18.5999791,szkola,Zespół Szkół Specjalnych nr 1,https://www.google.com/maps/place/Zesp%C3%B3%C5%82+Szk%C3%B3%C5%82+Specjalnych+nr+1/data=!4m7!3m6!1s0x46fd74eb5648197f:0xcac5b776d39a3bb0!8m2!3d54.3770359!4d18.5999791!16s%2Fg%2F1td1t3_c!19sChIJfxlIVut0_UYRsDua03a3xco?authuser=0&hl=en&rclk=1
54.3774717,18.6022307,szkola,Primary School No. 45,https://www.google.com/maps/place/Primary+School+No.+45/data=!4m7!3m6!1s0x46fd7494bbcaaf01:0xda145c6e21e52aef!8m2!3d54.3774717!4d18.6022307!16s%2Fg%2F1tg66sw8!19sChIJAa_Ku5R0_UYR7yrlIW5cFNo?authuser=0&hl=en&rclk=1
54.3788914,18.607106,szkola,TEB Edukacja,https://www.google.com/maps/place/TEB+Edukacja/data=!4m7!3m6!1s0x46fd737419cd2841:0xba0daf08fce83755!8m2!3d54.3788914!4d18.607106!16s%2Fg%2F1pzplsmmf!19sChIJQSjNGXRz_UYRVTfo_AivDbo?authuser=0&hl=en&rclk=1
54.3774066,18.6070471,szkola,Gdańska Szkoła Artystyczna,https://www.google.com/maps/place/Gda%C5%84ska+Szko%C5%82a+Artystyczna/data=!4m7!3m6!1s0x46fd75f97c378bef:0x2601e641f70dd13f!8m2!3d54.3774066!4d18.6070471!16s%2Fg%2F11gphwct9g!19sChIJ74s3fPl1_UYRP9EN90HmASY?authuser=0&hl=en&rclk=1
54.3770376,18.5955233,szkola,Topcia,https://www.google.com/maps/place/Topcia/data=!4m7!3m6!1s0x46fd74ec71aaaaab:0xd9b3163b3d87b66e!8m2!3d54.3770376!4d18.5955233!16s%2Fg%2F11b6q1j3xh!19sChIJq6qqcex0_UYRbraHPTsWs9k?authuser=0&hl=en&rclk=1
54.3772143,18.6001078,szkola,Zasadnicza Szkoła Zawodowa Specjalna nr 19,https://www.google.com/maps/place/Zasadnicza+Szko%C5%82a+Zawodowa+Specjalna+nr+19/data=!4m7!3m6!1s0x46fd74eb5648197f:0x9e03c5827562d4e7!8m2!3d54.3772143!4d18.6001078!16s%2Fg%2F1tfsrl00!19sChIJfxlIVut0_UYR59RidYLFA54?authuser=0&hl=en&rclk=1
54.3741164,18.6223157,szkola,Szkoła Podstawowa,https://www.google.com/maps/place/Szko%C5%82a+Podstawowa/data=!4m7!3m6!1s0x46fd749970f0d1b5:0x754e5ed6d476b0de!8m2!3d54.3741164!4d18.6223157!16s%2Fg%2F1vbl689b!19sChIJtdHwcJl0_UYR3rB21NZeTnU?authuser=0&hl=en&rclk=1
54.3748949,18.6220399,szkola,Szkoły Okrętowe i Techniczne CONRADINUM,https://www.google.com/maps/place/Szko%C5%82y+Okr%C4%99towe+i+Techniczne+CONRADINUM/data=!4m7!3m6!1s0x46fd75735c77fef9:0xb97bdc539430a6fc!8m2!3d54.3748949!4d18.6220399!16s%2Fg%2F1vgw_fr9!19sChIJ-f53XHN1_UYR_KYwlFPce7k?authuser=0&hl=en&rclk=1
54.3767088,18.6238396,szkola,Pomorska Medyczna Szkoła Policealna w Gdańsku,https://www.google.com/maps/place/Pomorska+Medyczna+Szko%C5%82a+Policealna+w+Gda%C5%84sku/data=!4m7!3m6!1s0x46fd7498f123cc4b:0xa1b3efe343451729!8m2!3d54.3767088!4d18.6238396!16s%2Fg%2F1tf64586!19sChIJS8wj8Zh0_UYRKRdFQ-Pvs6E?authuser=0&hl=en&rclk=1
54.3676038,18.6263432,szkola,Primary School No. 15,https://www.google.com/maps/place/Primary+School+No.+15/data=!4m7!3m6!1s0x46fd749d2a2e9ce5:0xb99f6740299bdb69!8m2!3d54.3676038!4d18.6263432!16s%2Fg%2F1th55p9d!19sChIJ5ZwuKp10_UYRadubKUBnn7k?authuser=0&hl=en&rclk=1
54.3606315,18.7200051,szkola,Szkoła Podstawowa nr 72 im. Obrońców Westerplatte,https://www.google.com/maps/place/Szko%C5%82a+Podstawowa+nr+72+im.+Obro%C5%84c%C3%B3w+Westerplatte/data=!4m7!3m6!1s0x46fd72e9a9adffe3:0x791c5a38d2e21da8!8m2!3d54.3606315!4d18.7200051!16s%2Fg%2F11h0vp__r8!19sChIJ4_-tqely_UYRqB3i0jhaHHk?authuser=0&hl=en&rclk=1
54.371407,18.732988,szkola,Gdańska Szkoła Wyższa,https://www.google.com/maps/place/Gda%C5%84ska+Szko%C5%82a+Wy%C5%BCsza/data=!4m7!3m6!1s0x46fd72c6061a2dcb:0xc3145ea2ed147e6d!8m2!3d54.371407!4d18.732988!16s%2Fg%2F11fmxzcfyw!19sChIJyy0aBsZy_UYRbX4U7aJeFMM?authuser=0&hl=en&rclk=1
54.3410062,18.6688987,szkola,Szkoła Podstawowa nr 59,https://www.google.com/maps/place/Szko%C5%82a+Podstawowa+nr+59/data=!4m7!3m6!1s0x46fd73af0314a1c7:0x42e689dbf7d113db!8m2!3d54.3410062!4d18.6688987!16s%2Fg%2F1vqmh1cr!19sChIJx6EUA69z_UYR2xPR99uJ5kI?authuser=0&hl=en&rclk=1
54.3675995,18.777025,szkola,Szkoła Żeglarstwa KREVETKA,https://www.google.com/maps/place/Szko%C5%82a+%C5%BBeglarstwa+KREVETKA/data=!4m7!3m6!1s0x46fd6d57a5fc7051:0x756cdbebfb4a243e!8m2!3d54.3675995!4d18.777025!16s%2Fg%2F11hyxnclt6!19sChIJUXD8pVdt_UYRPiRK--vbbHU?authuser=0&hl=en&rclk=1
54.3449295,18.8295072,szkola,The team of Basic Education and Preschool No. 1,https://www.google.com/maps/place/The+team+of+Basic+Education+and+Preschool+No.+1/data=!4m7!3m6!1s0x46fd6ce01aa28b5f:0xfcd145ee4bd692c0!8m2!3d54.3449295!4d18.8295072!16s%2Fg%2F1thz0c8v!19sChIJX4uiGuBs_UYRwJLWS-5F0fw?authuser=0&hl=en&rclk=1
54.3507132,18.3710086,szkola,Jan Hewelius Primary School no.2,https://www.google.com/maps/place/Jan+Hewelius+Primary+School+no.2/data=!4m7!3m6!1s0x46fd9e9fbfba8b09:0x1ebbc5aff66200fa!8m2!3d54.3507132!4d18.3710086!16s%2Fg%2F1v4prpkx!19sChIJCYu6v5-e_UYR-gBi9q_Fux4?authuser=0&hl=en&rclk=1
54.3410419,18.363217,szkola,Parafialna Szkoła Podstawowa im. św. Franciszka z Asyżu,https://www.google.com/maps/place/Parafialna+Szko%C5%82a+Podstawowa+im.+%C5%9Bw.+Franciszka+z+Asy%C5%BCu/data=!4m7!3m6!1s0x46fd9c3d53412747:0x8f9fb8f58fce6090!8m2!3d54.3410419!4d18.363217!16s%2Fg%2F1w0j2x1z!19sChIJRydBUz2c_UYRkGDOj_W4n48?authuser=0&hl=en&rclk=1
54.3152012,18.433822,szkola,Szkoła podstawowa im. Więźniów Obozu Stutthof w Niestępowie,https://www.google.com/maps/place/Szko%C5%82a+podstawowa+im.+Wi%C4%99%C5%BAni%C3%B3w+Obozu+Stutthof+w+Niest%C4%99powie/data=!4m7!3m6!1s0x46fd9d8d9ce41eab:0x319cd08592395fff!8m2!3d54.3152012!4d18.433822!16s%2Fg%2F1261y2qpd!19sChIJqx7knI2d_UYR_185koXQnDE?authuser=0&hl=en&rclk=1
54.352495,18.5107395,szkola,Karczemki Szkoła 01,https://www.google.com/maps/place/Karczemki+Szko%C5%82a+01/data=!4m7!3m6!1s0x46fd75954406d53b:0x7252c8f048134cfb!8m2!3d54.352495!4d18.5107395!16s%2Fg%2F11fj9c7cxd!19sChIJO9UGRJV1_UYR-0wTSPDIUnI?authuser=0&hl=en&rclk=1
54.3492581,18.5077327,szkola,Szkoła Muzyczna,https://www.google.com/maps/place/Szko%C5%82a+Muzyczna/data=!4m7!3m6!1s0x46fd752ae683b8e7:0x7528864e99399a69!8m2!3d54.3492581!4d18.5077327!16s%2Fg%2F11gxxgw0_f!19sChIJ57iD5ip1_UYRaZo5mU6GKHU?authuser=0&hl=en&rclk=1
54.3526774,18.5121752,szkola,Karczemki Szkoła 02,https://www.google.com/maps/place/Karczemki+Szko%C5%82a+02/data=!4m7!3m6!1s0x46fd759542d8a08d:0xca5ae723dc3e5080!8m2!3d54.3526774!4d18.5121752!16s%2Fg%2F11fj9c2z1s!19sChIJjaDYQpV1_UYRgFA-3CPnWso?authuser=0&hl=en&rclk=1
54.351961,18.5122195,szkola,🌊 Szkoła pływania Małe nurki - pływanie niemowląt,https://www.google.com/maps/place/%F0%9F%8C%8A+Szko%C5%82a+p%C5%82ywania+Ma%C5%82e+nurki+-+p%C5%82ywanie+niemowl%C4%85t/data=!4m7!3m6!1s0x46fd73656617a46d:0xfdd53a23fbe8a2c!8m2!3d54.351961!4d18.5122195!16s%2Fg%2F11mk8_ll6g!19sChIJbaQXZmVz_UYRLIq-P6JT3Q8?authuser=0&hl=en&rclk=1
54.3585787,18.5734444,szkola,Szkoła Pływania Kasi Rucin PLUSK,https://www.google.com/maps/place/Szko%C5%82a+P%C5%82ywania+Kasi+Rucin+PLUSK/data=!4m7!3m6!1s0x46fd745953e9848f:0x7f7154641890ade8!8m2!3d54.3585787!4d18.5734444!16s%2Fg%2F1td1nkzf!19sChIJj4TpU1l0_UYR6K2QGGRUcX8?authuser=0&hl=en&rclk=1
54.3522466,18.5857022,szkola,"Kindergarten, Primary and Secondary School TE Vizja","https://www.google.com/maps/place/Kindergarten,+Primary+and+Secondary+School+TE+Vizja/data=!4m7!3m6!1s0x46fd7467c07a816b:0xb209757e2d08d712!8m2!3d54.3522466!4d18.5857022!16s%2Fg%2F11b7y9kcx2!19sChIJa4F6wGd0_UYREtcILX51CbI?authuser=0&hl=en&rclk=1"
54.3577786,18.5906991,szkola,Gdańska Prywatna Szkoła Umuzykalniająca ROMA,https://www.google.com/maps/place/Gda%C5%84ska+Prywatna+Szko%C5%82a+Umuzykalniaj%C4%85ca+ROMA/data=!4m7!3m6!1s0x46fd7460f1bbdcbd:0xa36a613176538a27!8m2!3d54.3577786!4d18.5906991!16s%2Fg%2F1td1zz1s!19sChIJvdy78WB0_UYRJ4pTdjFhaqM?authuser=0&hl=en&rclk=1
54.360765,18.6105867,szkola,Pomorskie Szkoły Rzemiosł,https://www.google.com/maps/place/Pomorskie+Szko%C5%82y+Rzemios%C5%82/data=!4m7!3m6!1s0x46fd7487b3bc060b:0xca86ad278f7ba3a!8m2!3d54.360765!4d18.6105867!16s%2Fg%2F11bttdgj2_!19sChIJCwa8s4d0_UYROrr3eNJqqAw?authuser=0&hl=en&rclk=1
54.367283,18.6092511,szkola,Fregata School For Boys,https://www.google.com/maps/place/Fregata+School+For+Boys/data=!4m7!3m6!1s0x46fd748fa431d6a9:0x814c83547ea60e54!8m2!3d54.367283!4d18.6092511!16s%2Fg%2F11d_5_79z3!19sChIJqdYxpI90_UYRVA6mflSDTIE?authuser=0&hl=en&rclk=1
54.3673498,18.5917857,szkola,Trójmiejska Nie Szkoła Demokratyczna Kalejdoskop,https://www.google.com/maps/place/Tr%C3%B3jmiejska+Nie+Szko%C5%82a+Demokratyczna+Kalejdoskop/data=!4m7!3m6!1s0x46fd75e13950b481:0x5868561f5e471d45!8m2!3d54.3673498!4d18.5917857!16s%2Fg%2F11f6g23mn3!19sChIJgbRQOeF1_UYRRR1HXh9WaFg?authuser=0&hl=en&rclk=1
54.3567044,18.5985762,szkola,School of fish - Pracownia języków obcych,https://www.google.com/maps/place/School+of+fish+-+Pracownia+j%C4%99zyk%C3%B3w+obcych/data=!4m7!3m6!1s0x2371952e21f8ac21:0x270e15d3e28bc23e!8m2!3d54.3567044!4d18.5985762!16s%2Fg%2F11t2cz8qbz!19sChIJIaz4IS6VcSMRPsKL4tMVDic?authuser=0&hl=en&rclk=1
54.3599817,18.5869004,szkola,Junga. Szkoła żeglarstwa. Gostkowski P.,https://www.google.com/maps/place/Junga.+Szko%C5%82a+%C5%BCeglarstwa.+Gostkowski+P./data=!4m7!3m6!1s0x46fd745fb860cfeb:0xa70a826faca78b0!8m2!3d54.3599817!4d18.5869004!16s%2Fg%2F1thtbv1b!19sChIJ689guF90_UYRsHjK-iaocAo?authuser=0&hl=en&rclk=1
54.3567052,18.6141066,szkola,School No. 29,https://www.google.com/maps/place/School+No.+29/data=!4m7!3m6!1s0x46fd74638c4ced15:0x2083d16f1a137799!8m2!3d54.3567052!4d18.6141066!16s%2Fg%2F1tfs9jmf!19sChIJFe1MjGN0_UYRmXcTGm_RgyA?authuser=0&hl=en&rclk=1
54.3534976,18.6029868,szkola,Primary School No. 42,https://www.google.com/maps/place/Primary+School+No.+42/data=!4m7!3m6!1s0x46fd747b54e95b79:0x6a9df47ff2f9bb8f!8m2!3d54.3534976!4d18.6029868!16s%2Fg%2F1tj7znsw!19sChIJeVvpVHt0_UYRj7v58n_0nWo?authuser=0&hl=en&rclk=1
54.360905,18.599548,szkola,"5 o'clock, Nawojka Łuczak, Autorska Szkoła Języka Angielskiego","https://www.google.com/maps/place/5+o'clock,+Nawojka+%C5%81uczak,+Autorska+Szko%C5%82a+J%C4%99zyka+Angielskiego/data=!4m7!3m6!1s0x46fd75c9b2cb84ff:0x56b485aac90cfa3f!8m2!3d54.360905!4d18.599548!16s%2Fg%2F11m_kyw0ck!19sChIJ_4TLssl1_UYRP_oMyaqFtFY?authuser=0&hl=en&rclk=1"
54.3547507,18.5940032,szkola,Gdańska Szkoła Wyższa Wydział Zamiejscowy w Koszalinie,https://www.google.com/maps/place/Gda%C5%84ska+Szko%C5%82a+Wy%C5%BCsza+Wydzia%C5%82+Zamiejscowy+w+Koszalinie/data=!4m7!3m6!1s0x46fd7466a9433f4b:0x7fc1fca47cdfad16!8m2!3d54.3547507!4d18.5940032!16s%2Fg%2F11gbxdp918!19sChIJSz9DqWZ0_UYRFq3ffKT8wX8?authuser=0&hl=en&rclk=1
54.3539746,18.5961844,szkola,"Be Montessori School, niepubliczna szkoła podstawowa Gdańsk Morena","https://www.google.com/maps/place/Be+Montessori+School,+niepubliczna+szko%C5%82a+podstawowa+Gda%C5%84sk+Morena/data=!4m7!3m6!1s0x46fd74646c57df79:0xd760d4a610a1e50d!8m2!3d54.3539746!4d18.5961844!16s%2Fg%2F11bv5v277w!19sChIJed9XbGR0_UYRDeWhEKbUYNc?authuser=0&hl=en&rclk=1"
54.3658495,18.6215461,szkola,Szkoła Podstawowa nr 90,https://www.google.com/maps/place/Szko%C5%82a+Podstawowa+nr+90/data=!4m7!3m6!1s0x46fd74836f1c0e45:0xf4f560b2fac227d9!8m2!3d54.3658495!4d18.6215461!16s%2Fg%2F1tg77rd1!19sChIJRQ4cb4N0_UYR2SfC-rJg9fQ?authuser=0&hl=en&rclk=1
54.3625999,18.6351356,szkola,Gdańska Wyższa Szkoła Humanistyczna,https://www.google.com/maps/place/Gda%C5%84ska+Wy%C5%BCsza+Szko%C5%82a+Humanistyczna/data=!4m7!3m6!1s0x46fd73998575d1cd:0x47b3e93ebc7a94a8!8m2!3d54.3625999!4d18.6351356!16s%2Fg%2F1v3_1cb7!19sChIJzdF1hZlz_UYRqJR6vD7ps0c?authuser=0&hl=en&rclk=1
54.3599386,18.6432946,szkola,Ateneum-Akademia Nauk Stosowanych,https://www.google.com/maps/place/Ateneum-Akademia+Nauk+Stosowanych/data=!4m7!3m6!1s0x46fd737127f1c78f:0x1dbf7108697726e1!8m2!3d54.3599386!4d18.6432946!16s%2Fg%2F1tm0rvrn!19sChIJj8fxJ3Fz_UYR4SZ3aQhxvx0?authuser=0&hl=en&rclk=1
54.3606933,18.6448204,szkola,Gdańskie Szkoły Medyczne,https://www.google.com/maps/place/Gda%C5%84skie+Szko%C5%82y+Medyczne/data=!4m7!3m6!1s0x46fd738788bc0001:0x614b6f365364fcb6!8m2!3d54.3606933!4d18.6448204!16s%2Fg%2F11hyxnq20l!19sChIJAQC8iIdz_UYRtvxkUzZvS2E?authuser=0&hl=en&rclk=1
54.3565775,18.6471547,szkola,Szkoła PASCAL,https://www.google.com/maps/place/Szko%C5%82a+PASCAL/data=!4m7!3m6!1s0x46fd73b47647c87f:0x6c45208520a53a2b!8m2!3d54.3565775!4d18.6471547!16s%2Fg%2F11s33zfq_h!19sChIJf8hHdrRz_UYRKzqlIIUgRWw?authuser=0&hl=en&rclk=1
54.365734,18.634192,szkola,Uczelnia Świadomego Terapeuty 38 | Klinika 89 | Warsztaty Rozwojowe | Gdańsk,https://www.google.com/maps/place/Uczelnia+%C5%9Awiadomego+Terapeuty+38+%7C+Klinika+89+%7C+Warsztaty+Rozwojowe+%7C+Gda%C5%84sk/data=!4m7!3m6!1s0x46fd731a9ef168df:0x1a0993484f0dbcbd!8m2!3d54.365734!4d18.634192!16s%2Fg%2F11f779qfwl!19sChIJ32jxnhpz_UYRvbwNT0iTCRo?authuser=0&hl=en&rclk=1
54.352403,18.6737929,szkola,Szkoła Mistrzostwa Sportowego nr. 94 w Gdansku,https://www.google.com/maps/place/Szko%C5%82a+Mistrzostwa+Sportowego+nr.+94+w+Gdansku/data=!4m7!3m6!1s0x46fd7306188c81f9:0x14884771538bde65!8m2!3d54.352403!4d18.6737929!16s%2Fg%2F11g6qxp6lt!19sChIJ-YGMGAZz_UYRZd6LU3FHiBQ?authuser=0&hl=en&rclk=1
54.3564161,18.6501469,szkola,Szkoła Informatyki i Internetu,https://www.google.com/maps/place/Szko%C5%82a+Informatyki+i+Internetu/data=!4m7!3m6!1s0x46fd737419faa819:0xc39d5d3312b6f29b!8m2!3d54.3564161!4d18.6501469!16s%2Fg%2F1tfr_s34!19sChIJGaj6GXRz_UYRm_K2EjNdncM?authuser=0&hl=en&rclk=1
54.3466831,18.6638108,szkola,Szkoła Podstawowa nr 4 im. Króla Kazimierza Jagiellończyka,https://www.google.com/maps/place/Szko%C5%82a+Podstawowa+nr+4+im.+Kr%C3%B3la+Kazimierza+Jagiello%C5%84czyka/data=!4m7!3m6!1s0x46fd73a6fe8fa6db:0x996d9e6e5fbcaab8!8m2!3d54.3466831!4d18.6638108!16s%2Fg%2F1tz74p2b!19sChIJ26aP_qZz_UYRuKq8X26ebZk?authuser=0&hl=en&rclk=1
54.3421719,18.6572671,szkola,Szkoła Podstawowa nr 65,https://www.google.com/maps/place/Szko%C5%82a+Podstawowa+nr+65/data=!4m7!3m6!1s0x46fd73a48f9bee17:0x72d3b4ece75487eb!8m2!3d54.3421719!4d18.6572671!16s%2Fg%2F1tcz703f!19sChIJF-6bj6Rz_UYR64dU5-y003I?authuser=0&hl=en&rclk=1
54.3315219,18.799828,szkola,Szkoła Podstawowa im. Orła Białego w Wiślince,https://www.google.com/maps/place/Szko%C5%82a+Podstawowa+im.+Or%C5%82a+Bia%C5%82ego+w+Wi%C5%9Blince/data=!4m7!3m6!1s0x46fd6de874ffa087:0xb89cd2e3f50626b!8m2!3d54.3315219!4d18.799828!16s%2Fg%2F1tfcrxt3!19sChIJh6D_dOht_UYRa2JQPy7NiQs?authuser=0&hl=en&rclk=1
54.3239084,18.7428211,szkola,Szkoła Podstawowa w Przejazdowie,https://www.google.com/maps/place/Szko%C5%82a+Podstawowa+w+Przejazdowie/data=!4m7!3m6!1s0x46fd6d882491a10b:0x98076be251a023ac!8m2!3d54.3239084!4d18.7428211!16s%2Fg%2F11f3rggsf6!19sChIJC6GRJIht_UYRrCOgUeJrB5g?authuser=0&hl=en&rclk=1
54.3364001,18.9094513,szkola,Team primary and lower secondary Education 25,https://www.google.com/maps/place/Team+primary+and+lower+secondary+Education+25/data=!4m7!3m6!1s0x46fd6b5ce8896abb:0x8071c6313467326c!8m2!3d54.3364001!4d18.9094513!16s%2Fg%2F1vnthl8r!19sChIJu2qJ6Fxr_UYRbDJnNDHGcYA?authuser=0&hl=en&rclk=1
54.3364001,18.9094513,szkola,Szkoła Podstawowa nr 88 im. D.G. Fahrenheita,https://www.google.com/maps/place/Szko%C5%82a+Podstawowa+nr+88+im.+D.G.+Fahrenheita/data=!4m7!3m6!1s0x46fd6b5ce8896abb:0x4dc56367c2daa749!8m2!3d54.3364001!4d18.9094513!16s%2Fg%2F1tfm5bx2!19sChIJu2qJ6Fxr_UYRSafawmdjxU0?authuser=0&hl=en&rclk=1
54.2738709,18.8720257,szkola,szkoła,https://www.google.com/maps/place/szko%C5%82a/data=!4m7!3m6!1s0x46fd6be3ad846a09:0x47141626d8bd3613!8m2!3d54.2738709!4d18.8720257!16s%2Fg%2F1thxtxl9!19sChIJCWqEreNr_UYREza92CYWFEc?authuser=0&hl=en&rclk=1
54.328276,18.638448,szkola,Primary School. 16,https://www.google.com/maps/place/Primary+School.+16/data=!4m7!3m6!1s0x46fd73c1d39d6821:0xd012a23ec76c0df4!8m2!3d54.328276!4d18.638448!16s%2Fg%2F1tnpjpyk!19sChIJIWid08Fz_UYR9A1sxz6iEtA?authuser=0&hl=en&rclk=1
54.3387671,18.6263652,szkola,Szkoła Podstawowa Niepubliczna Dwujęzyczna,https://www.google.com/maps/place/Szko%C5%82a+Podstawowa+Niepubliczna+Dwuj%C4%99zyczna/data=!4m7!3m6!1s0x46fd739201988527:0x338eaeebddd5a79f!8m2!3d54.3387671!4d18.6263652!16s%2Fg%2F1ptxshjyh!19sChIJJ4WYAZJz_UYRn6fV3euujjM?authuser=0&hl=en&rclk=1
54.344353,18.641076,szkola,Gdańska Szkoła Wyższa,https://www.google.com/maps/place/Gda%C5%84ska+Szko%C5%82a+Wy%C5%BCsza/data=!4m7!3m6!1s0x46fd72c675343b3b:0x5e8a27cf5c291ab!8m2!3d54.344353!4d18.641076!16s%2Fg%2F1yw9l0cl9!19sChIJOzs0dcZy_UYRq5HC9Xyi6AU?authuser=0&hl=en&rclk=1
54.3914947,18.5964647,szkola,"Katolicka Szkoła Podstawowa im. św. Kazimierza ""Kaziuki""",https://www.google.com/maps/place/Katolicka+Szko%C5%82a+Podstawowa+im.+%C5%9Bw.+Kazimierza+%22Kaziuki%22/data=!4m7!3m6!1s0x46fd74c521d47c4b:0x3487b0b7ff107a80!8m2!3d54.3914947!4d18.5964647!16s%2Fg%2F1wfcmvlg!19sChIJS3zUIcV0_UYRgHoQ_7ewhzQ?authuser=0&hl=en&rclk=1
54.307293,18.388238,szkola,Szkoła Podstawowa im. Jana Pawła II,https://www.google.com/maps/place/Szko%C5%82a+Podstawowa+im.+Jana+Paw%C5%82a+II/data=!4m7!3m6!1s0x46fd9daf7c92d3d7:0xe29694350d95242!8m2!3d54.307293!4d18.388238!16s%2Fg%2F1tg6tdfj!19sChIJ19OSfK-d_UYRQlLZUENpKQ4?authuser=0&hl=en&rclk=1
54.3226049,18.3442344,szkola,Szkoła Podstawowa im. Remusa,https://www.google.com/maps/place/Szko%C5%82a+Podstawowa+im.+Remusa/data=!4m7!3m6!1s0x46fd9c51cd148e3d:0x3ba8e4371c24d1cc!8m2!3d54.3226049!4d18.3442344!16s%2Fg%2F1tdfrv8b!19sChIJPY4UzVGc_UYRzNEkHDfkqDs?authuser=0&hl=en&rclk=1
54.3133909,18.4672505,szkola,Dawna szkoła,https://www.google.com/maps/place/Dawna+szko%C5%82a/data=!4m7!3m6!1s0x46fd76180223158f:0xdaf192f7eb5b5113!8m2!3d54.3133909!4d18.4672505!16s%2Fg%2F11ckqn93zy!19sChIJjxUjAhh2_UYRE1Fb6_eS8do?authuser=0&hl=en&rclk=1
54.3437,18.4983,szkola,"Feniks Szkoła Żeglarstwa - Kursy, Kolonie i Obozy Żeglarskie dla dzieci i młodzieży","https://www.google.com/maps/place/Feniks+Szko%C5%82a+%C5%BBeglarstwa+-+Kursy,+Kolonie+i+Obozy+%C5%BBeglarskie+dla+dzieci+i+m%C5%82odzie%C5%BCy/data=!4m7!3m6!1s0x46fd75e8c96c451d:0x52fff053db9ed828!8m2!3d54.3437!4d18.4983!16s%2Fg%2F11f4pf3n_s!19sChIJHUVsyeh1_UYRKNie21Pw_1I?authuser=0&hl=en&rclk=1"
54.3516841,18.527487,szkola,English Garden Szkoła Języków Obcych,https://www.google.com/maps/place/English+Garden+Szko%C5%82a+J%C4%99zyk%C3%B3w+Obcych/data=!4m7!3m6!1s0x46fd750bb68e1975:0x6224e46593454a0a!8m2!3d54.3516841!4d18.527487!16s%2Fg%2F11rgh41tsl!19sChIJdRmOtgt1_UYRCkpFk2XkJGI?authuser=0&hl=en&rclk=1
54.3496168,18.5629437,szkola,"Szkoła nurkowania Happy Dive- kurs nurkowania Gdańsk, Gdynia","https://www.google.com/maps/place/Szko%C5%82a+nurkowania+Happy+Dive-+kurs+nurkowania+Gda%C5%84sk,+Gdynia/data=!4m7!3m6!1s0x46fd744f5ad36abb:0xee271b6c5efa0bcb!8m2!3d54.3496168!4d18.5629437!16s%2Fg%2F11clyc7nyk!19sChIJu2rTWk90_UYRywv6XmwbJ-4?authuser=0&hl=en&rclk=1"
54.3499556,18.5589468,szkola,ABC SCHOOL,https://www.google.com/maps/place/ABC+SCHOOL/data=!4m7!3m6!1s0x46fd744ec4caa859:0x47321553d156322!8m2!3d54.3499556!4d18.5589468!16s%2Fg%2F1yg56hy6x!19sChIJWajKxE50_UYRImMVPVUhcwQ?authuser=0&hl=en&rclk=1
54.346315,18.5991339,szkola,II Podstawowo - Gimnazjalny Zespół Szkół Społecznych STO,https://www.google.com/maps/place/II+Podstawowo+-+Gimnazjalny+Zesp%C3%B3%C5%82+Szk%C3%B3%C5%82+Spo%C5%82ecznych+STO/data=!4m7!3m6!1s0x46fd747035d3e355:0xac448665a4daf6e7!8m2!3d54.346315!4d18.5991339!16s%2Fg%2F1td1c36w!19sChIJVePTNXB0_UYR5_bapGWGRKw?authuser=0&hl=en&rclk=1
54.346191,18.6421059,szkola,Primary School No. 21,https://www.google.com/maps/place/Primary+School+No.+21/data=!4m7!3m6!1s0x46fd73995e48d963:0x807fa995ee660d7f!8m2!3d54.346191!4d18.6421059!16s%2Fg%2F1tfnx8nr!19sChIJY9lIXplz_UYRfw1m7pWpf4A?authuser=0&hl=en&rclk=1
54.3481882,18.6187929,szkola,Primary School No. 14,https://www.google.com/maps/place/Primary+School+No.+14/data=!4m7!3m6!1s0x46fd73879e55b5bb:0x19ee29ad06b1156a!8m2!3d54.3481882!4d18.6187929!16s%2Fg%2F1tdfxdmy!19sChIJu7VVnodz_UYRahWxBq0p7hk?authuser=0&hl=en&rclk=1
54.3420387,18.6309082,szkola,Primary School No. 47,https://www.google.com/maps/place/Primary+School+No.+47/data=!4m7!3m6!1s0x46fd739022f479d3:0x5082205c43f40cbb!8m2!3d54.3420387!4d18.6309082!16s%2Fg%2F1v5k1q1n!19sChIJ03n0IpBz_UYRuwz0Q1wgglA?authuser=0&hl=en&rclk=1
54.348353,18.6634844,szkola,"Gdańska Szkoła Podstawowa ""Lingwista""",https://www.google.com/maps/place/Gda%C5%84ska+Szko%C5%82a+Podstawowa+%22Lingwista%22/data=!4m7!3m6!1s0x46fd73a1ea4b0a11:0xb5c9f93658b6b70d!8m2!3d54.348353!4d18.6634844!16s%2Fg%2F1tgb6144!19sChIJEQpL6qFz_UYRDbe2WDb5ybU?authuser=0&hl=en&rclk=1
54.3539443,18.6569234,szkola,ZSŁ,https://www.google.com/maps/place/ZS%C5%81/data=!4m7!3m6!1s0x46fd7374d2925cc5:0x6b1aa305d1c8258b!8m2!3d54.3539443!4d18.6569234!16s%2Fg%2F122_9kzb!19sChIJxVyS0nRz_UYRiyXI0QWjGms?authuser=0&hl=en&rclk=1
54.3474731,18.6757755,szkola,Zespół Szkół Samochodowych,https://www.google.com/maps/place/Zesp%C3%B3%C5%82+Szk%C3%B3%C5%82+Samochodowych/data=!4m7!3m6!1s0x46fd73077bbb8121:0xe9942b2c56b1c14!8m2!3d54.3474731!4d18.6757755!16s%2Fg%2F1tm67mdf!19sChIJIYG7ewdz_UYRFBxrxbJCmQ4?authuser=0&hl=en&rclk=1
54.352403,18.6737929,szkola,Liceum Ogólnokształcące nr 6,https://www.google.com/maps/place/Liceum+Og%C3%B3lnokszta%C5%82c%C4%85ce+nr+6/data=!4m7!3m6!1s0x46fd73061872cd9f:0x7aceec15dc54e2cb!8m2!3d54.352403!4d18.6737929!16s%2Fg%2F11xkr7lpw!19sChIJn81yGAZz_UYRy-JU3BXszno?authuser=0&hl=en&rclk=1
54.344342,18.82886,szkola,Szkoła Rodzenia Brzuchatkowo,https://www.google.com/maps/place/Szko%C5%82a+Rodzenia+Brzuchatkowo/data=!4m7!3m6!1s0x46fd6ce02290f349:0xcae1df7da21dc2c6!8m2!3d54.344342!4d18.82886!16s%2Fg%2F11c45316hn!19sChIJSfOQIuBs_UYRxsIdon3f4co?authuser=0&hl=en&rclk=1
54.332768,18.332261,szkola,Szkoła Podstawowa im. Jana Pawła II,https://www.google.com/maps/place/Szko%C5%82a+Podstawowa+im.+Jana+Paw%C5%82a+II/data=!4m7!3m6!1s0x46fd9c0d3e0c3a13:0x922b3446a9d79332!8m2!3d54.332768!4d18.332261!16s%2Fg%2F1hc38wps0!19sChIJEzoMPg2c_UYRMpPXqUY0K5I?authuser=0&hl=en&rclk=1
54.3265762,18.5674972,szkola,Szkoła Podstawowa nr 6,https://www.google.com/maps/place/Szko%C5%82a+Podstawowa+nr+6/data=!4m7!3m6!1s0x46fd75d7b9b05291:0xb57aab40ad468c97!8m2!3d54.3265762!4d18.5674972!16s%2Fg%2F11fn4h4frz!19sChIJkVKwudd1_UYRl4xGrUCrerU?authuser=0&hl=en&rclk=1
54.3395793,18.5078432,szkola,Kiełpino - Szkoła 02,https://www.google.com/maps/place/Kie%C5%82pino+-+Szko%C5%82a+02/data=!4m7!3m6!1s0x46fd75dd27245e5d:0x4d89010355bc5605!8m2!3d54.3395793!4d18.5078432!16s%2Fg%2F11gyc38qvm!19sChIJXV4kJ911_UYRBVa8VQMBiU0?authuser=0&hl=en&rclk=1
54.3398113,18.5088713,szkola,Szkoła Piotr SP 84,https://www.google.com/maps/place/Szko%C5%82a+Piotr+SP+84/data=!4m7!3m6!1s0x46fd75dcd0c47af3:0x92b628881a2867f!8m2!3d54.3398113!4d18.5088713!16s%2Fg%2F11c5s66r0b!19sChIJ83rE0Nx1_UYRf4aigYhiKwk?authuser=0&hl=en&rclk=1
54.3397855,18.5092102,szkola,Szkoła Karate Sonkei Gdańsk,https://www.google.com/maps/place/Szko%C5%82a+Karate+Sonkei+Gda%C5%84sk/data=!4m7!3m6!1s0x46fd75b61a1e695d:0xb8e9468392e63c8c!8m2!3d54.3397855!4d18.5092102!16s%2Fg%2F11hdyncsq1!19sChIJXWkeGrZ1_UYRjDzmkoNG6bg?authuser=0&hl=en&rclk=1
54.3397643,18.5080934,szkola,Kiełpino - Szkoła 01,https://www.google.com/maps/place/Kie%C5%82pino+-+Szko%C5%82a+01/data=!4m7!3m6!1s0x46fd75dd27e464d1:0xc5aae18b787ce7e!8m2!3d54.3397643!4d18.5080934!16s%2Fg%2F11fj9c72xp!19sChIJ0WTkJ911_UYRfs6HtxiuWgw?authuser=0&hl=en&rclk=1
54.3321543,18.556935,szkola,Wyższa Szkoła Finansów i Nieruchomości,https://www.google.com/maps/place/Wy%C5%BCsza+Szko%C5%82a+Finans%C3%B3w+i+Nieruchomo%C5%9Bci/data=!4m7!3m6!1s0x46fd75758af25873:0x56dc3860e1a7159a!8m2!3d54.3321543!4d18.556935!16s%2Fg%2F11rf5qnfm4!19sChIJc1jyinV1_UYRmhWn4WA43FY?authuser=0&hl=en&rclk=1
54.3250392,18.5839695,szkola,Primary School No. 12,https://www.google.com/maps/place/Primary+School+No.+12/data=!4m7!3m6!1s0x46fd7404d644f0c5:0x53d89ca534cdffca!8m2!3d54.3250392!4d18.5839695!16s%2Fg%2F1hc363hgw!19sChIJxfBE1gR0_UYRyv_NNKWc2FM?authuser=0&hl=en&rclk=1
54.3263919,18.5686718,szkola,Szkoła Podstawowa nr 6 01,https://www.google.com/maps/place/Szko%C5%82a+Podstawowa+nr+6+01/data=!4m7!3m6!1s0x46fd7418c4a8b437:0xbbd2ffe513191e9e!8m2!3d54.3263919!4d18.5686718!16s%2Fg%2F11h_1z6b3m!19sChIJN7SoxBh0_UYRnh4ZE-X_0rs?authuser=0&hl=en&rclk=1
54.3324863,18.5971238,szkola,Morska Szkoła Podstawowa w Gdańsku,https://www.google.com/maps/place/Morska+Szko%C5%82a+Podstawowa+w+Gda%C5%84sku/data=!4m7!3m6!1s0x46fd740bfc144b43:0x6dc29198c13ab678!8m2!3d54.3324863!4d18.5971238!16s%2Fg%2F11f30mg93h!19sChIJQ0sU_At0_UYReLY6wZiRwm0?authuser=0&hl=en&rclk=1
54.339299,18.607803,szkola,ZESPÓŁ SZKOLNO-PRZEDSZKOLNY NR 8,https://www.google.com/maps/place/ZESP%C3%93%C5%81+SZKOLNO-PRZEDSZKOLNY+NR+8/data=!4m7!3m6!1s0x46fd747596f01249:0xd90aa0ac1553ecf3!8m2!3d54.339299!4d18.607803!16s%2Fg%2F1tf46vj1!19sChIJSRLwlnV0_UYR8-xTFaygCtk?authuser=0&hl=en&rclk=1
54.3393811,18.6059069,szkola,Dragana - Szkoła 01,https://www.google.com/maps/place/Dragana+-+Szko%C5%82a+01/data=!4m7!3m6!1s0x46fd7475ab61021f:0x4ec69fcadf02ac61!8m2!3d54.3393811!4d18.6059069!16s%2Fg%2F11fj9c5w4n!19sChIJHwJhq3V0_UYRYawC38qfxk4?authuser=0&hl=en&rclk=1
54.3357897,18.6095285,szkola,Ambit Szkoła językowa,https://www.google.com/maps/place/Ambit+Szko%C5%82a+j%C4%99zykowa/data=!4m7!3m6!1s0x46fd738acafa0e4f:0x2296aed33e546d6d!8m2!3d54.3357897!4d18.6095285!16s%2Fg%2F11crz_rzws!19sChIJTw76yopz_UYRbW1UPtOuliI?authuser=0&hl=en&rclk=1
54.325668,18.6008304,szkola,Szkoła Podstawowa Montesorri,https://www.google.com/maps/place/Szko%C5%82a+Podstawowa+Montesorri/data=!4m7!3m6!1s0x46fd73f801c83447:0xc51b41c8d05218f6!8m2!3d54.325668!4d18.6008304!16s%2Fg%2F11h3jj0ph9!19sChIJRzTIAfhz_UYR9hhS0MhBG8U?authuser=0&hl=en&rclk=1
54.3404148,18.6220627,szkola,High School No. VII,https://www.google.com/maps/place/High+School+No.+VII/data=!4m7!3m6!1s0x46fd738e96544097:0x3670bd109bafad8b!8m2!3d54.3404148!4d18.6220627!16s%2Fg%2F1tfkpft4!19sChIJl0BUlo5z_UYRi62vmxC9cDY?authuser=0&hl=en&rclk=1
54.3300983,18.6302109,szkola,Gdańska Szkoła Podstawowa,https://www.google.com/maps/place/Gda%C5%84ska+Szko%C5%82a+Podstawowa/data=!4m7!3m6!1s0x46fd73ec82481497:0x7b4740ac726551b9!8m2!3d54.3300983!4d18.6302109!16s%2Fg%2F1tfm04jn!19sChIJlxRIguxz_UYRuVFlcqxAR3s?authuser=0&hl=en&rclk=1
54.330699,18.628622,szkola,Primary School No. 56,https://www.google.com/maps/place/Primary+School+No.+56/data=!4m7!3m6!1s0x46fd73eced922bdd:0xf2da2d78cc02ea2a!8m2!3d54.330699!4d18.628622!16s%2Fg%2F1tdgnjd0!19sChIJ3SuS7exz_UYRKuoCzHgt2vI?authuser=0&hl=en&rclk=1
54.3317049,18.6331035,szkola,Polish-Japanese Academy of Information Technology,https://www.google.com/maps/place/Polish-Japanese+Academy+of+Information+Technology/data=!4m7!3m6!1s0x46fd73eb4c52b003:0x2d26b2439c65b0ee!8m2!3d54.3317049!4d18.6331035!16s%2Fg%2F1tdvc8bx!19sChIJA7BSTOtz_UYR7rBlnEOyJi0?authuser=0&hl=en&rclk=1
54.3372478,18.66274,szkola,Szkoła Podstawowa. Filia,https://www.google.com/maps/place/Szko%C5%82a+Podstawowa.+Filia/data=!4m7!3m6!1s0x46fd73b00b5a0425:0x82ae4fcd1a51a378!8m2!3d54.3372478!4d18.66274!16s%2Fg%2F1v93zr_3!19sChIJJQRaC7Bz_UYReKNRGs1ProI?authuser=0&hl=en&rclk=1
54.3418383,18.6689395,szkola,Olszynka - Szkoła 02,https://www.google.com/maps/place/Olszynka+-+Szko%C5%82a+02/data=!4m7!3m6!1s0x46fd73af189b838f:0x561059638e82f099!8m2!3d54.3418383!4d18.6689395!16s%2Fg%2F11h2p6wqgl!19sChIJj4ObGK9z_UYRmfCCjmNZEFY?authuser=0&hl=en&rclk=1
54.3446687,18.6505387,szkola,Szkoła Podstawowa nr 67 im.Obrońców Poczty Polskiej,https://www.google.com/maps/place/Szko%C5%82a+Podstawowa+nr+67+im.Obro%C5%84c%C3%B3w+Poczty+Polskiej/data=!4m7!3m6!1s0x46fd73a2748f1c7b:0x55d2133b0436ef79!8m2!3d54.3446687!4d18.6505387!16s%2Fg%2F1thx7932!19sChIJexyPdKJz_UYRee82BDsT0lU?authuser=0&hl=en&rclk=1
54.2735481,18.8720932,szkola,Zespół Szkół,https://www.google.com/maps/place/Zesp%C3%B3%C5%82+Szk%C3%B3%C5%82/data=!4m7!3m6!1s0x46fd6be3ad502f53:0x48e95b34e6f817dc!8m2!3d54.2735481!4d18.8720932!16s%2Fg%2F11bw7chn_k!19sChIJUy9QreNr_UYR3Bf45jRb6Ug?authuser=0&hl=en&rclk=1
54.337109,18.9107793,szkola,Trałowa - Szkoła 01,https://www.google.com/maps/place/Tra%C5%82owa+-+Szko%C5%82a+01/data=!4m7!3m6!1s0x46fd6b5cb9832d59:0xd1f241f2699d3593!8m2!3d54.337109!4d18.9107793!16s%2Fg%2F11gyc37xcl!19sChIJWS2DuVxr_UYRkzWdafJB8tE?authuser=0&hl=en&rclk=1
54.3155972,18.4338697,szkola,Niestępowo Szkoła 10,https://www.google.com/maps/place/Niest%C4%99powo+Szko%C5%82a+10/data=!4m7!3m6!1s0x46fd9d8d7f24e9cb:0xe464fdb98e4ddd5!8m2!3d54.3155972!4d18.4338697!16s%2Fg%2F11fj9c5bnx!19sChIJy-kkf42d_UYR1d3kmNtPRg4?authuser=0&hl=en&rclk=1
54.3074085,18.570317,szkola,Szkoła Podstawowa,https://www.google.com/maps/place/Szko%C5%82a+Podstawowa/data=!4m7!3m6!1s0x46fd771114c70f37:0x69e360c085b6970e!8m2!3d54.3074085!4d18.570317!16s%2Fg%2F11f9y4kx7d!19sChIJNw_HFBF3_UYRDpe2hcBg42k?authuser=0&hl=en&rclk=1
54.3162634,18.5896402,szkola,Primary School No. 86,https://www.google.com/maps/place/Primary+School+No.+86/data=!4m7!3m6!1s0x46fd74002aa56fe5:0x3d6bf83dbbe7989d!8m2!3d54.3162634!4d18.5896402!16s%2Fg%2F1tt89z1s!19sChIJ5W-lKgB0_UYRnZjnuz34az0?authuser=0&hl=en&rclk=1
54.3136186,18.5636483,szkola,Niepubliczna Szkoła Podstawowa im. dr Wandy Błeńskiej w Kowalach,https://www.google.com/maps/place/Niepubliczna+Szko%C5%82a+Podstawowa+im.+dr+Wandy+B%C5%82e%C5%84skiej+w+Kowalach/data=!4m7!3m6!1s0x46fd76a229d2c0a9:0xcca56235229773fe!8m2!3d54.3136186!4d18.5636483!16s%2Fg%2F11df4tmzz3!19sChIJqcDSKaJ2_UYR_nOXIjVipcw?authuser=0&hl=en&rclk=1
54.3121929,18.5611848,szkola,Szkoła Podstawowa Montessori,https://www.google.com/maps/place/Szko%C5%82a+Podstawowa+Montessori/data=!4m7!3m6!1s0x46fd76a3a7e5cbbd:0xca312b5273d539f7!8m2!3d54.3121929!4d18.5611848!16s%2Fg%2F11csp7fkg3!19sChIJvcvlp6N2_UYR9znVc1IrMco?authuser=0&hl=en&rclk=1
54.3108256,18.5637068,szkola,Primary School CET,https://www.google.com/maps/place/Primary+School+CET/data=!4m7!3m6!1s0x46fd76a49c30c8bd:0xd693fba4ed3f7e01!8m2!3d54.3108256!4d18.5637068!16s%2Fg%2F12qfr09lf!19sChIJvcgwnKR2_UYRAX4_7aT7k9Y?authuser=0&hl=en&rclk=1
54.3146528,18.5707505,szkola,instruktornurkowania.pl,https://www.google.com/maps/place/instruktornurkowania.pl/data=!4m7!3m6!1s0x46fd76a66421d46d:0xea3d6c438096bd06!8m2!3d54.3146528!4d18.5707505!16s%2Fg%2F11bv35p_fn!19sChIJbdQhZKZ2_UYRBr2WgENsPeo?authuser=0&hl=en&rclk=1
54.3222905,18.5606352,szkola,English JokerS - szkoła języka angielskiego online,https://www.google.com/maps/place/English+JokerS+-+szko%C5%82a+j%C4%99zyka+angielskiego+online/data=!4m7!3m6!1s0x46fd732b58e57539:0xd8ae76dd4223c0cc!8m2!3d54.3222905!4d18.5606352!16s%2Fg%2F11p0110dbv!19sChIJOXXlWCtz_UYRzMAjQt12rtg?authuser=0&hl=en&rclk=1
54.322909,18.55747,szkola,Szkoła Językowa Cool School,https://www.google.com/maps/place/Szko%C5%82a+J%C4%99zykowa+Cool+School/data=!4m7!3m6!1s0x46fd75395aaebd51:0x8bb81d00537e9b81!8m2!3d54.322909!4d18.55747!16s%2Fg%2F11jz0yqbgf!19sChIJUb2uWjl1_UYRgZt-UwAduIs?authuser=0&hl=en&rclk=1
54.319444,18.5838141,szkola,"Zespół Szkolno-Przedszkolny ""Olimpijczyk""",https://www.google.com/maps/place/Zesp%C3%B3%C5%82+Szkolno-Przedszkolny+%22Olimpijczyk%22/data=!4m7!3m6!1s0x46fd74024509832f:0x487b37c3efa467a0!8m2!3d54.319444!4d18.5838141!16s%2Fg%2F1tg6j78s!19sChIJL4MJRQJ0_UYRoGek78M3e0g?authuser=0&hl=en&rclk=1
54.32323,18.592933,szkola,Bull&Dog Kreatywna Szkoła Języka Angielskiego,https://www.google.com/maps/place/Bull%26Dog+Kreatywna+Szko%C5%82a+J%C4%99zyka+Angielskiego/data=!4m7!3m6!1s0x46fd75093fff1a6b:0xb5dc2cd9d8b7a210!8m2!3d54.32323!4d18.592933!16s%2Fg%2F11h_bzz8w1!19sChIJaxr_Pwl1_UYREKK32Nks3LU?authuser=0&hl=en&rclk=1
54.326944,18.624748,szkola,Szkoła Podstawowa nr 19 Zespołu Kształcenia Podstawowego,https://www.google.com/maps/place/Szko%C5%82a+Podstawowa+nr+19+Zespo%C5%82u+Kszta%C5%82cenia+Podstawowego/data=!4m7!3m6!1s0x46fd737d5f447be7:0xd3f87e8550215329!8m2!3d54.326944!4d18.624748!16s%2Fg%2F1tdqmbp1!19sChIJ53tEX31z_UYRKVMhUIV--NM?authuser=0&hl=en&rclk=1
54.3198955,18.6365389,szkola,Internat Zespołu Szkół Inżynierii Środowiska CKU,https://www.google.com/maps/place/Internat+Zespo%C5%82u+Szk%C3%B3%C5%82+In%C5%BCynierii+%C5%9Arodowiska+CKU/data=!4m7!3m6!1s0x46fd73dcd578ca81:0x7d49fc1a627c81a7!8m2!3d54.3198955!4d18.6365389!16s%2Fg%2F1v4prpkb!19sChIJgcp41dxz_UYRp4F8Yhr8SX0?authuser=0&hl=en&rclk=1
54.3220636,18.6315642,szkola,Państwowa Szkoła Muzyczna I stopnia im. H. Wieniawskiego,https://www.google.com/maps/place/Pa%C5%84stwowa+Szko%C5%82a+Muzyczna+I+stopnia+im.+H.+Wieniawskiego/data=!4m7!3m6!1s0x46fd73e8148afc2d:0x1f0ac0c42749f1ab!8m2!3d54.3220636!4d18.6315642!16s%2Fg%2F1v4k568r!19sChIJLfyKFOhz_UYRq_FJJ8TACh8?authuser=0&hl=en&rclk=1
54.319864,18.636567,szkola,Szkoła Policealna NIEDALEKO w Gdańsku,https://www.google.com/maps/place/Szko%C5%82a+Policealna+NIEDALEKO+w+Gda%C5%84sku/data=!4m7!3m6!1s0x46fd739d07f48257:0xddad13efcdbcc825!8m2!3d54.319864!4d18.636567!16s%2Fg%2F11fkj6vsss!19sChIJV4L0B51z_UYRJci8ze8Trd0?authuser=0&hl=en&rclk=1
54.319859,18.6358818,szkola,Technikum nr 8,https://www.google.com/maps/place/Technikum+nr+8/data=!4m7!3m6!1s0x46fd73a1f55e49c5:0xd2ff5d49e2f8af51!8m2!3d54.319859!4d18.6358818!16s%2Fg%2F1tctw7rx!19sChIJxUle9aFz_UYRUa_44kld_9I?authuser=0&hl=en&rclk=1
54.3300983,18.6302109,szkola,Stowarzyszenie Przyjaciół Gdańskiego Liceum Ogólnokształcącego,https://www.google.com/maps/place/Stowarzyszenie+Przyjaci%C3%B3%C5%82+Gda%C5%84skiego+Liceum+Og%C3%B3lnokszta%C5%82c%C4%85cego/data=!4m7!3m6!1s0x46fd73d3a83581f9:0x4759963cb47c21df!8m2!3d54.3300983!4d18.6302109!16s%2Fg%2F11jlvvblny!19sChIJ-YE1qNNz_UYR3yF8tDyWWUc?authuser=0&hl=en&rclk=1
54.326944,18.624748,szkola,Szkoła Językowa Dialog,https://www.google.com/maps/place/Szko%C5%82a+J%C4%99zykowa+Dialog/data=!4m7!3m6!1s0x46fd73ee854dcbd9:0xb0b20db9a7ba0550!8m2!3d54.326944!4d18.624748!16s%2Fg%2F1tsr1wwg!19sChIJ2ctNhe5z_UYRUAW6p7kNsrA?authuser=0&hl=en&rclk=1
54.3224365,18.677223,szkola,Auto Szkoła,https://www.google.com/maps/place/Auto+Szko%C5%82a/data=!4m7!3m6!1s0x471bb55e645e3857:0x8793c6f9877fc535!8m2!3d54.3224365!4d18.677223!16s%2Fg%2F11hzjz1kwc!19sChIJVzheZF61G0cRNcV_h_nGk4c?authuser=0&hl=en&rclk=1
54.3469532,18.6531779,szkola,Gdańska Szkoła Podstawowa Lingwista im. Zjednoczonej Europy,https://www.google.com/maps/place/Gda%C5%84ska+Szko%C5%82a+Podstawowa+Lingwista+im.+Zjednoczonej+Europy/data=!4m7!3m6!1s0x46fd73a1ea533e19:0xde12df4634042e09!8m2!3d54.3469532!4d18.6531779!16s%2Fg%2F1ptw_nw59!19sChIJGT5T6qFz_UYRCS4ENEbfEt4?authuser=0&hl=en&rclk=1
54.2932966,18.7199651,szkola,"Szkoła Podstawowa im. Danuty Siedzikówny ""INKI"" w Wiślinie",https://www.google.com/maps/place/Szko%C5%82a+Podstawowa+im.+Danuty+Siedzik%C3%B3wny+%22INKI%22+w+Wi%C5%9Blinie/data=!4m7!3m6!1s0x46fd73bdcd69fc9d:0xd6d5992778fe5716!8m2!3d54.2932966!4d18.7199651!16s%2Fg%2F1tg4k1_h!19sChIJnfxpzb1z_UYRFlf-eCeZ1dY?authuser=0&hl=en&rclk=1
54.278438,18.4768299,szkola,Zespół Kształcenia Podstawowego i Gimnazjalnego w Kolbudach,https://www.google.com/maps/place/Zesp%C3%B3%C5%82+Kszta%C5%82cenia+Podstawowego+i+Gimnazjalnego+w+Kolbudach/data=!4m7!3m6!1s0x46fd77b0114ea051:0x9f3a359e5bbb51f0!8m2!3d54.278438!4d18.4768299!16s%2Fg%2F1wk4brtq!19sChIJUaBOEbB3_UYR8FG7W541Op8?authuser=0&hl=en&rclk=1
54.3134735,18.5633835,szkola,Fundacja Edukacja w Drodze,https://www.google.com/maps/place/Fundacja+Edukacja+w+Drodze/data=!4m7!3m6!1s0x46fd76a3ec7f5e97:0x5e2bbbf9d4e1e196!8m2!3d54.3134735!4d18.5633835!16s%2Fg%2F1tfrl0k5!19sChIJl15_7KN2_UYRluHh1Pm7K14?authuser=0&hl=en&rclk=1
54.3065556,18.5693497,szkola,Kowale Szkoła Metropolitalna 01,https://www.google.com/maps/place/Kowale+Szko%C5%82a+Metropolitalna+01/data=!4m7!3m6!1s0x46fd76ba9e05bb7b:0x8b75669a77c72251!8m2!3d54.3065556!4d18.5693497!16s%2Fg%2F11fj9c4nvs!19sChIJe7sFnrp2_UYRUSLHd5pmdYs?authuser=0&hl=en&rclk=1
54.3141772,18.5912911,szkola,Language School New Horizons,https://www.google.com/maps/place/Language+School+New+Horizons/data=!4m7!3m6!1s0x46fd739d18fd2613:0x33c9b989bd105b6a!8m2!3d54.3141772!4d18.5912911!16s%2Fg%2F11fy54tv5c!19sChIJEyb9GJ1z_UYRalsQvYm5yTM?authuser=0&hl=en&rclk=1
54.313485,18.5898311,szkola,🏅 MySportPlus - Nauka pływania Gdańsk dla dzieci i dorosłych | Obozy i półkolonie lato 2022,https://www.google.com/maps/place/%F0%9F%8F%85+MySportPlus+-+Nauka+p%C5%82ywania+Gda%C5%84sk+dla+dzieci+i+doros%C5%82ych+%7C+Obozy+i+p%C3%B3%C5%82kolonie+lato+2022/data=!4m7!3m6!1s0x46fd73f10c9422a7:0x8e7cce1fc6150d52!8m2!3d54.313485!4d18.5898311!16s%2Fg%2F11g22ywjcs!19sChIJpyKUDPFz_UYRUg0Vxh_OfI4?authuser=0&hl=en&rclk=1
54.2980177,18.5961529,szkola,Public Primary School them. J. Brzechwy,https://www.google.com/maps/place/Public+Primary+School+them.+J.+Brzechwy/data=!4m7!3m6!1s0x46fd7148ca2c5f27:0xd8cb5ad978e53709!8m2!3d54.2980177!4d18.5961529!16s%2Fg%2F1hc8m4xmg!19sChIJJ18sykhx_UYRCTfleNlay9g?authuser=0&hl=en&rclk=1
54.3085401,18.5890327,szkola,Szkoła Kitesurfingu OneWave.pl,https://www.google.com/maps/place/Szko%C5%82a+Kitesurfingu+OneWave.pl/data=!4m7!3m6!1s0x46fd71e385db2223:0x7e8b6031c1474c05!8m2!3d54.3085401!4d18.5890327!16s%2Fg%2F11hdjh4jr5!19sChIJIyLbheNx_UYRBUxHwTFgi34?authuser=0&hl=en&rclk=1
54.2838885,18.6365668,szkola,Primary School No. 40,https://www.google.com/maps/place/Primary+School+No.+40/data=!4m7!3m6!1s0x46fd710c39eefb93:0x77e4914748edbc1d!8m2!3d54.2838885!4d18.6365668!16s%2Fg%2F1tfxwqjh!19sChIJk_vuOQxx_UYRHbztSEeR5Hc?authuser=0&hl=en&rclk=1
54.293289,18.719793,szkola,Publiczny Punkt Przedszkolny przy Szkole Podstawowej,https://www.google.com/maps/place/Publiczny+Punkt+Przedszkolny+przy+Szkole+Podstawowej/data=!4m7!3m6!1s0x46fd71ffc75e88a3:0xd86347db74b7f56f!8m2!3d54.293289!4d18.719793!16s%2Fg%2F1ptxb4wcs!19sChIJo4hex_9x_UYRb_W3dNtHY9g?authuser=0&hl=en&rclk=1
54.2736487,18.774518,szkola,Szkoła Podstawowa,https://www.google.com/maps/place/Szko%C5%82a+Podstawowa/data=!4m7!3m6!1s0x46fd6e635985d05b:0x8fe07dea1cbb54b2!8m2!3d54.2736487!4d18.774518!16s%2Fg%2F1tfnx8nd!19sChIJW9CFWWNu_UYRslS7HOp94I8?authuser=0&hl=en&rclk=1
54.2846518,18.3506344,szkola,Szkoła Podstawowa im. ks. dr. Stanisława Sychowskiego,https://www.google.com/maps/place/Szko%C5%82a+Podstawowa+im.+ks.+dr.+Stanis%C5%82awa+Sychowskiego/data=!4m7!3m6!1s0x46fd9cde72950abd:0x395f1c4dd3ddc09c!8m2!3d54.2846518!4d18.3506344!16s%2Fg%2F11c6z08hcz!19sChIJvQqVct6c_UYRnMDd000cXzk?authuser=0&hl=en&rclk=1
54.2830283,18.5048595,szkola,Zespół Kształcenia i Wychowania w Lublewie Gdańskim,https://www.google.com/maps/place/Zesp%C3%B3%C5%82+Kszta%C5%82cenia+i+Wychowania+w+Lublewie+Gda%C5%84skim/data=!4m7!3m6!1s0x46fd77018052483f:0x693a2e3dfc9ba805!8m2!3d54.2830283!4d18.5048595!16s%2Fg%2F1trqfxp0!19sChIJP0hSgAF3_UYRBaib_D0uOmk?authuser=0&hl=en&rclk=1
54.2567288,18.4787034,szkola,Primary School in Pręgowo,https://www.google.com/maps/place/Primary+School+in+Pr%C4%99gowo/data=!4m7!3m6!1s0x46fd77babc32cdcf:0xc583c6079fb000a6!8m2!3d54.2567288!4d18.4787034!16s%2Fg%2F1ptxgf8fb!19sChIJz80yvLp3_UYRpgCwnwfGg8U?authuser=0&hl=en&rclk=1
54.2599473,18.513097,szkola,Zespół Kształcenia i Wychowania,https://www.google.com/maps/place/Zesp%C3%B3%C5%82+Kszta%C5%82cenia+i+Wychowania/data=!4m7!3m6!1s0x46fd7712dc218e8f:0xeee152c9dbe52f51!8m2!3d54.2599473!4d18.513097!16s%2Fg%2F1tjf8z9b!19sChIJj44h3BJ3_UYRUS_l28lS4e4?authuser=0&hl=en&rclk=1
54.2738248,18.581593,szkola,Straszyn School Complex,https://www.google.com/maps/place/Straszyn+School+Complex/data=!4m7!3m6!1s0x46fd71287c632337:0xae2d8c48875bc982!8m2!3d54.2738248!4d18.581593!16s%2Fg%2F1t_th_5m!19sChIJNyNjfChx_UYRgslbh0iMLa4?authuser=0&hl=en&rclk=1
54.2732547,18.5817795,szkola,Szkoła Im. Ignacego Krasickiego,https://www.google.com/maps/place/Szko%C5%82a+Im.+Ignacego+Krasickiego/data=!4m7!3m6!1s0x46fd7127f77b8931:0xf1228a903a6b3604!8m2!3d54.2732547!4d18.5817795!16s%2Fg%2F11fy7dl52g!19sChIJMYl79ydx_UYRBDZrOpCKIvE?authuser=0&hl=en&rclk=1
54.305593,18.5693437,szkola,ARTIS. Szkoła Muzyczna,https://www.google.com/maps/place/ARTIS.+Szko%C5%82a+Muzyczna/data=!4m7!3m6!1s0x46fd76b07bebcfb1:0x627dc9831ac5e79b!8m2!3d54.305593!4d18.5693437!16s%2Fg%2F11cn94836z!19sChIJsc_re7B2_UYRm-fFGoPJfWI?authuser=0&hl=en&rclk=1
54.3038726,18.5691162,szkola,English Mentors - Native Speakers,https://www.google.com/maps/place/English+Mentors+-+Native+Speakers/data=!4m7!3m6!1s0x46fd76a5761168db:0x806e70db0c7aa71b!8m2!3d54.3038726!4d18.5691162!16s%2Fg%2F11hczgmcgm!19sChIJ22gRdqV2_UYRG6d6DNtwboA?authuser=0&hl=en&rclk=1
54.3015321,18.5769689,szkola,Szkoła językowa Hubinor,https://www.google.com/maps/place/Szko%C5%82a+j%C4%99zykowa+Hubinor/data=!4m7!3m6!1s0x46fd76b28f38fa75:0x670daee869e4a864!8m2!3d54.3015321!4d18.5769689!16s%2Fg%2F1td1nkzt!19sChIJdfo4j7J2_UYRZKjkaeiuDWc?authuser=0&hl=en&rclk=1
54.3015676,18.5769282,szkola,"Aktywna Szkoła Rodzenia ""Bocianek""",https://www.google.com/maps/place/Aktywna+Szko%C5%82a+Rodzenia+%22Bocianek%22/data=!4m7!3m6!1s0x46fd76b3a94cfc49:0x4c90e97d3e59b342!8m2!3d54.3015676!4d18.5769282!16s%2Fg%2F1thpvjht!19sChIJSfxMqbN2_UYRQrNZPn3pkEw?authuser=0&hl=en&rclk=1
54.2992514,18.6090749,szkola,szkoła podstawowa,https://www.google.com/maps/place/szko%C5%82a+podstawowa/data=!4m7!3m6!1s0x46fd71964749b1df:0xb0c9e6c42ef327ad!8m2!3d54.2992514!4d18.6090749!16s%2Fg%2F11fq_l45l7!19sChIJ37FJR5Zx_UYRrSfzLsTmybA?authuser=0&hl=en&rclk=1
54.2992361,18.5943371,szkola,Early Stage,https://www.google.com/maps/place/Early+Stage/data=!4m7!3m6!1s0x46fd71b5a0f268ff:0x154abeff63282661!8m2!3d54.2992361!4d18.5943371!16s%2Fg%2F11fw9_z9b8!19sChIJ_2jyoLVx_UYRYSYoY_--ShU?authuser=0&hl=en&rclk=1
54.298279,18.5960949,szkola,Publiczne Przedszkole W Borkowie,https://www.google.com/maps/place/Publiczne+Przedszkole+W+Borkowie/data=!4m7!3m6!1s0x46fd714f34a17d75:0x1b927b5bc1c01948!8m2!3d54.298279!4d18.5960949!16s%2Fg%2F11h42pzb5s!19sChIJdX2hNE9x_UYRSBnAwVt7khs?authuser=0&hl=en&rclk=1
54.2608228,18.6513083,szkola,Szkoła Podstawowa Akademia Dobrej Edukacji w Pruszczu Gdańskim,https://www.google.com/maps/place/Szko%C5%82a+Podstawowa+Akademia+Dobrej+Edukacji+w+Pruszczu+Gda%C5%84skim/data=!4m7!3m6!1s0x46fd7194279bad2d:0xe09cc1716a2706b3!8m2!3d54.2608228!4d18.6513083!16s%2Fg%2F11g4dwbxv9!19sChIJLa2bJ5Rx_UYRswYnanHBnOA?authuser=0&hl=en&rclk=1
54.214872,18.848148,szkola,Szkoła Podstawowa,https://www.google.com/maps/place/Szko%C5%82a+Podstawowa/data=!4m7!3m6!1s0x46fd68e8e56c9d8d:0xb50dbb0c9f7edf01!8m2!3d54.214872!4d18.848148!16s%2Fg%2F1tffhghz!19sChIJjZ1s5eho_UYRAd9-nwy7DbU?authuser=0&hl=en&rclk=1
54.2703869,18.4692919,szkola,Szkoła Muzyczna Społeczna I stopnia,https://www.google.com/maps/place/Szko%C5%82a+Muzyczna+Spo%C5%82eczna+I+stopnia/data=!4m7!3m6!1s0x46fd77bce2e14ac7:0xd787ea22975dd40c!8m2!3d54.2703869!4d18.4692919!16s%2Fg%2F1pv2fjd1t!19sChIJx0rh4rx3_UYRDNRdlyLqh9c?authuser=0&hl=en&rclk=1
54.2718217,18.4735319,szkola,Szkoła Języków Obcych SEVENOAKS,https://www.google.com/maps/place/Szko%C5%82a+J%C4%99zyk%C3%B3w+Obcych+SEVENOAKS/data=!4m7!3m6!1s0x46fd77bcad346507:0xe275708d0dfed9af!8m2!3d54.2718217!4d18.4735319!16s%2Fg%2F11cmr_y59b!19sChIJB2U0rbx3_UYRr9n-DY1wdeI?authuser=0&hl=en&rclk=1
54.276785,18.477716,szkola,🌊Szkoła pływania Małe nurki - pływanie niemowląt,https://www.google.com/maps/place/%F0%9F%8C%8ASzko%C5%82a+p%C5%82ywania+Ma%C5%82e+nurki+-+p%C5%82ywanie+niemowl%C4%85t/data=!4m7!3m6!1s0x46fd778f15833b3b:0xf583f0bb6210fbcc!8m2!3d54.276785!4d18.477716!16s%2Fg%2F11swdsrvjr!19sChIJOzuDFY93_UYRzPsQYrvwg_U?authuser=0&hl=en&rclk=1
54.2783486,18.4769281,szkola,Szkoła Pływania Żarłacze,https://www.google.com/maps/place/Szko%C5%82a+P%C5%82ywania+%C5%BBar%C5%82acze/data=!4m7!3m6!1s0x46fd77de930d6d25:0x889ac17f82f0b95!8m2!3d54.2783486!4d18.4769281!16s%2Fg%2F11q4h_581c!19sChIJJW0Nk953_UYRlQsv-BesiQg?authuser=0&hl=en&rclk=1
54.2693811,18.6087584,szkola,Szkoła Podstawowa w Rotmance im. Karola Wojtyły,https://www.google.com/maps/place/Szko%C5%82a+Podstawowa+w+Rotmance+im.+Karola+Wojty%C5%82y/data=!4m7!3m6!1s0x46fd711da03b0f7d:0xd41b0e408be37a45!8m2!3d54.2693811!4d18.6087584!16s%2Fg%2F1ptwflkd6!19sChIJfQ87oB1x_UYRRXrji0AOG9Q?authuser=0&hl=en&rclk=1
54.27323,18.582109,szkola,Szkoła Hani,https://www.google.com/maps/place/Szko%C5%82a+Hani/data=!4m7!3m6!1s0x46fd71be988599cf:0x1bbabe69d56396bd!8m2!3d54.27323!4d18.582109!16s%2Fg%2F11j1bcnb53!19sChIJz5mFmL5x_UYRvZZj1Wm-uhs?authuser=0&hl=en&rclk=1
54.260714,18.6282809,szkola,School 2,https://www.google.com/maps/place/School+2/data=!4m7!3m6!1s0x46fd7055bf023d59:0x1db968558703991d!8m2!3d54.260714!4d18.6282809!16s%2Fg%2F1hhgp5hbq!19sChIJWT0Cv1Vw_UYRHZkDh1VouR0?authuser=0&hl=en&rclk=1
54.262441,18.6344322,szkola,Katolicka Niepubliczna Szkoła Podstawowa,https://www.google.com/maps/place/Katolicka+Niepubliczna+Szko%C5%82a+Podstawowa/data=!4m7!3m6!1s0x46fd7053f54f4757:0x5c141a050b5859b4!8m2!3d54.262441!4d18.6344322!16s%2Fg%2F1tf7l7ny!19sChIJV0dP9VNw_UYRtFlYCwUaFFw?authuser=0&hl=en&rclk=1
54.2647606,18.6520419,szkola,"Szkoła Podstawowa nr 1 - filia ""Jedyneczka""",https://www.google.com/maps/place/Szko%C5%82a+Podstawowa+nr+1+-+filia+%22Jedyneczka%22/data=!4m7!3m6!1s0x46fd71917647da45:0xe35ddea92992118a!8m2!3d54.2647606!4d18.6520419!16s%2Fg%2F11frplyg3_!19sChIJRdpHdpFx_UYRihGSKaneXeM?authuser=0&hl=en&rclk=1
54.2638111,18.6697626,szkola,Szkoła Podstawowa nr 4 im. I. J. Paderewskiego,https://www.google.com/maps/place/Szko%C5%82a+Podstawowa+nr+4+im.+I.+J.+Paderewskiego/data=!4m7!3m6!1s0x46fd71b60220f487:0x444e93a74c2f6590!8m2!3d54.2638111!4d18.6697626!16s%2Fg%2F1tcwk7vz!19sChIJh_QgArZx_UYRkGUvTKeTTkQ?authuser=0&hl=en&rclk=1
54.2597287,18.6337055,szkola,Yes Your English School. Szkoła języków obcych,https://www.google.com/maps/place/Yes+Your+English+School.+Szko%C5%82a+j%C4%99zyk%C3%B3w+obcych/data=!4m7!3m6!1s0x46fd705b08a80ded:0xd6b5bce39c8489a2!8m2!3d54.2597287!4d18.6337055!16s%2Fg%2F1tdqmbnw!19sChIJ7Q2oCFtw_UYRoomEnOO8tdY?authuser=0&hl=en&rclk=1
54.2394516,18.7533586,szkola,Szkoła Podstawowa,https://www.google.com/maps/place/Szko%C5%82a+Podstawowa/data=!4m7!3m6!1s0x46fd6f1fd78aa663:0x82ff557447fa7bd0!8m2!3d54.2394516!4d18.7533586!16s%2Fg%2F1tmqkgtf!19sChIJY6aK1x9v_UYR0Hv6R3RV_4I?authuser=0&hl=en&rclk=1
54.248781,18.8454349,szkola,Szkoła Podstawowa im. Henryka Sienkiewicza w Cedrach Wielkich,https://www.google.com/maps/place/Szko%C5%82a+Podstawowa+im.+Henryka+Sienkiewicza+w+Cedrach+Wielkich/data=!4m7!3m6!1s0x46fd6975981ccb93:0x2f534cd94e16ee7c!8m2!3d54.248781!4d18.8454349!16s%2Fg%2F11gr1b24cw!19sChIJk8scmHVp_UYRfO4WTtlMUy8?authuser=0&hl=en&rclk=1
54.2071977,18.7645197,szkola,Szkoła Podstawowa im. Obrońców Westerplatte,https://www.google.com/maps/place/Szko%C5%82a+Podstawowa+im.+Obro%C5%84c%C3%B3w+Westerplatte/data=!4m7!3m6!1s0x46fd6f5cfca89229:0x1be9388a039b3d16!8m2!3d54.2071977!4d18.7645197!16s%2Fg%2F1tf41ncd!19sChIJKZKo_Fxv_UYRFj2bA4o46Rs?authuser=0&hl=en&rclk=1
54.230032,18.439926,szkola,Niepubliczna Szkoła Podstawowa SCAS w Buszkowach,https://www.google.com/maps/place/Niepubliczna+Szko%C5%82a+Podstawowa+SCAS+w+Buszkowach/data=!4m7!3m6!1s0x46fd7839aa285be9:0x104eb82090b28907!8m2!3d54.230032!4d18.439926!16s%2Fg%2F11c6t8vml6!19sChIJ6Vsoqjl4_UYRB4mykCC4ThA?authuser=0&hl=en&rclk=1
54.270563,18.455239,szkola,Szkoła jazdy konnej Galopagos,https://www.google.com/maps/place/Szko%C5%82a+jazdy+konnej+Galopagos/data=!4m7!3m6!1s0x46fd7782889a8d6f:0x4354dcdcfb135481!8m2!3d54.270563!4d18.455239!16s%2Fg%2F11lglmtxw_!19sChIJb42aiIJ3_UYRgVQT-9zcVEM?authuser=0&hl=en&rclk=1
54.2714024,18.4710402,szkola,Gdańska Szkoła Strzelectwa GSS,https://www.google.com/maps/place/Gda%C5%84ska+Szko%C5%82a+Strzelectwa+GSS/data=!4m7!3m6!1s0x46fd75b9e142fe49:0x799a034dd4147863!8m2!3d54.2714024!4d18.4710402!16s%2Fg%2F11gf98nzv_!19sChIJSf5C4bl1_UYRY3gU1E0Dmnk?authuser=0&hl=en&rclk=1
54.2789556,18.5892358,szkola,NUMBER ONE,https://www.google.com/maps/place/NUMBER+ONE/data=!4m7!3m6!1s0x46fd70d8182a625b:0xe692aaed14a266ba!8m2!3d54.2789556!4d18.5892358!16s%2Fg%2F1tdcq6j4!19sChIJW2IqGNhw_UYRumaiFO2qkuY?authuser=0&hl=en&rclk=1
54.2605817,18.6304859,szkola,Oddziały Przedszkolne Szkoła Podstawowa nr 2 im. Mikołaja Kopernika w Pruszczu Gdańskim,https://www.google.com/maps/place/Oddzia%C5%82y+Przedszkolne+Szko%C5%82a+Podstawowa+nr+2+im.+Miko%C5%82aja+Kopernika+w+Pruszczu+Gda%C5%84skim/data=!4m7!3m6!1s0x46fd70544d2d1825:0xc2de9300ae287edb!8m2!3d54.2605817!4d18.6304859!16s%2Fg%2F1v2gcfrj!19sChIJJRgtTVRw_UYR234orgCT3sI?authuser=0&hl=en&rclk=1
54.2554495,18.6363918,szkola,Szkoła Podstawowa nr 3 im. Jana Matejki,https://www.google.com/maps/place/Szko%C5%82a+Podstawowa+nr+3+im.+Jana+Matejki/data=!4m7!3m6!1s0x46fd705031ca686f:0x3ca42f2b6a1b3c0e!8m2!3d54.2554495!4d18.6363918!16s%2Fg%2F1tjffjt2!19sChIJb2jKMVBw_UYRDjwbaisvpDw?authuser=0&hl=en&rclk=1
54.270369,18.604259,szkola,Szkoła Rodzenia Supermama,https://www.google.com/maps/place/Szko%C5%82a+Rodzenia+Supermama/data=!4m7!3m6!1s0x46fd71cbe2d65427:0x4faf61bf5a3d8edb!8m2!3d54.270369!4d18.604259!16s%2Fg%2F1tl8jdg7!19sChIJJ1TW4stx_UYR2449Wr9hr08?authuser=0&hl=en&rclk=1
54.2690851,18.6239112,szkola,Zespół Szkół Rolniczych Centrum Kształcenia Praktycznego,https://www.google.com/maps/place/Zesp%C3%B3%C5%82+Szk%C3%B3%C5%82+Rolniczych+Centrum+Kszta%C5%82cenia+Praktycznego/data=!4m7!3m6!1s0x46fd71016fca2bbd:0x321191ad4e7b1774!8m2!3d54.2690851!4d18.6239112!16s%2Fg%2F11hyxnkf97!19sChIJvSvKbwFx_UYRdBd7Tq2RETI?authuser=0&hl=en&rclk=1
54.2637384,18.6343016,szkola,Zespół Szkół Ogrodniczych i Ogólnokształcących,https://www.google.com/maps/place/Zesp%C3%B3%C5%82+Szk%C3%B3%C5%82+Ogrodniczych+i+Og%C3%B3lnokszta%C5%82c%C4%85cych/data=!4m7!3m6!1s0x46fd7053f54f4757:0x56845a1cf88997d4!8m2!3d54.2637384!4d18.6343016!16s%2Fg%2F1tg4_375!19sChIJV0dP9VNw_UYR1JeJ-BxahFY?authuser=0&hl=en&rclk=1
54.2629753,18.6388349,szkola,Niepubliczna Branżowa Szkoła I stopnia Remedium,https://www.google.com/maps/place/Niepubliczna+Bran%C5%BCowa+Szko%C5%82a+I+stopnia+Remedium/data=!4m7!3m6!1s0x46fd717f215d721d:0xaf19d5421a275ed!8m2!3d54.2629753!4d18.6388349!16s%2Fg%2F11s3zsczw3!19sChIJHXJdIX9x_UYR7XWiIVSd8Qo?authuser=0&hl=en&rclk=1
54.2607303,18.6530698,szkola,Oddział Przedszkolny Szkoły Podstawowej nr 4 w Pruszczu Gdańskim,https://www.google.com/maps/place/Oddzia%C5%82+Przedszkolny+Szko%C5%82y+Podstawowej+nr+4+w+Pruszczu+Gda%C5%84skim/data=!4m7!3m6!1s0x46fd71cada72acfb:0x5dc956091ca53b5e!8m2!3d54.2607303!4d18.6530698!16s%2Fg%2F1tf6_mw6!19sChIJ-6xy2spx_UYRXjulHAlWyV0?authuser=0&hl=en&rclk=1
54.2673552,18.6713192,szkola,Akademia Montessori Niepubliczna Szkoła Podstawowa,https://www.google.com/maps/place/Akademia+Montessori+Niepubliczna+Szko%C5%82a+Podstawowa/data=!4m7!3m6!1s0x46fd7034444a0c7f:0xa2a05c68ad3860f4!8m2!3d54.2673552!4d18.6713192!16s%2Fg%2F1ptxms50h!19sChIJfwxKRDRw_UYR9GA4rWhcoKI?authuser=0&hl=en&rclk=1
54.2645282,18.6721446,szkola,Yes Shool,https://www.google.com/maps/place/Yes+Shool/data=!4m7!3m6!1s0x46fd71c94be37ffd:0xb163169b82611829!8m2!3d54.2645282!4d18.6721446!16s%2Fg%2F11bvv56xz8!19sChIJ_X_jS8lx_UYRKRhhgpsWY7E?authuser=0&hl=en&rclk=1
54.2602326,18.6654354,szkola,Zespół Szkół Metalowych,https://www.google.com/maps/place/Zesp%C3%B3%C5%82+Szk%C3%B3%C5%82+Metalowych/data=!4m7!3m6!1s0x46fd71cb22078311:0xeaf3defecd91efe6!8m2!3d54.2602326!4d18.6654354!16s%2Fg%2F1ptwxjs1c!19sChIJEYMHIstx_UYR5u-Rzf7e8-o?authuser=0&hl=en&rclk=1
54.2615419,18.6505372,szkola,High School No 1 in Pruszczu Gdansk,https://www.google.com/maps/place/High+School+No+1+in+Pruszczu+Gdansk/data=!4m7!3m6!1s0x46fd71b34c9d39cf:0xaa5455d1dfcde9f0!8m2!3d54.2615419!4d18.6505372!16s%2Fg%2F1tdn7c6_!19sChIJzzmdTLNx_UYR8OnN39FVVKo?authuser=0&hl=en&rclk=1
54.2638916,18.6709311,szkola,Pływalnia,https://www.google.com/maps/place/P%C5%82ywalnia/data=!4m7!3m6!1s0x46fd71c967ffa8a5:0xaea5b5395febba6a!8m2!3d54.2638916!4d18.6709311!16s%2Fg%2F11dxnmsy9x!19sChIJpaj_Z8lx_UYRarrrXzm1pa4?authuser=0&hl=en&rclk=1
54.2647929,18.6520507,szkola,"Szkoła Podstawowa nr 1, kl.1-3","https://www.google.com/maps/place/Szko%C5%82a+Podstawowa+nr+1,+kl.1-3/data=!4m7!3m6!1s0x46fd71b3b90780eb:0x4e29815dfd8c2732!8m2!3d54.2647929!4d18.6520507!16s%2Fg%2F11hbqswg0l!19sChIJ64AHubNx_UYRMieM_V2BKU4?authuser=0&hl=en&rclk=1"
