lat,lon,type,title,link
54.441118,18.4410009,touristattraction,Diabelski Kamień,https://www.google.com/maps/place/Diabelski+Kamie%C5%84/data=!4m7!3m6!1s0x46fda1da36309ef9:0x327a675cbb6db400!8m2!3d54.441118!4d18.4410009!16s%2Fg%2F11fn95p0cy!19sChIJ-Z4wNtqh_UYRALRtu1xnejI?authuser=0&hl=en&rclk=1
54.4423593,18.4175822,touristattraction,Szlak rowerowy Żukowska Eska,https://www.google.com/maps/place/Szlak+rowerowy+%C5%BBukowska+Eska/data=!4m7!3m6!1s0x46fda148497a9cd1:0x93a5e07ad6088bc!8m2!3d54.4423593!4d18.4175822!16s%2Fg%2F11q4m1scs5!19sChIJ0Zx6SUih_UYRvIhgrQdeOgk?authuser=0&hl=en&rclk=1
54.4405278,18.4418611,touristattraction,Kamienie Mostowe pod Osową,https://www.google.com/maps/place/Kamienie+Mostowe+pod+Osow%C4%85/data=!4m7!3m6!1s0x46fda15f4a40a325:0x990003ef9653e91b!8m2!3d54.4405278!4d18.4418611!16s%2Fg%2F11rft653sn!19sChIJJaNASl-h_UYRG-lTlu8DAJk?authuser=0&hl=en&rclk=1
54.4187438,18.4432094,touristattraction,Plaża Osowa,https://www.google.com/maps/place/Pla%C5%BCa+Osowa/data=!4m7!3m6!1s0x46fd9fa8ace6ccf5:0x92b169217d0a3fdc!8m2!3d54.4187438!4d18.4432094!16s%2Fg%2F11nn3mrbkx!19sChIJ9czmrKif_UYR3D8KfSFpsZI?authuser=0&hl=en&rclk=1
54.4650335,18.4427448,touristattraction,Staw przy szlaku żółtym,https://www.google.com/maps/place/Staw+przy+szlaku+%C5%BC%C3%B3%C5%82tym/data=!4m7!3m6!1s0x46fda1cf9eee62bf:0x75bca58dfe08fb10!8m2!3d54.4650335!4d18.4427448!16s%2Fg%2F11rw7b4r9j!19sChIJv2Luns-h_UYREPsI_o2lvHU?authuser=0&hl=en&rclk=1
52.2497413,21.0122417,touristattraction,Old Town Market Square,https://www.google.com/maps/place/Old+Town+Market+Square/data=!4m7!3m6!1s0x471ecc660bbbf633:0x1fa1ac7863f881b2!8m2!3d52.2497413!4d21.0122417!16zL20vMGY1MG5z!19sChIJM_a7C2bMHkcRsoH4Y3isoR8?authuser=0&hl=en&rclk=1
54.4463334,18.4719484,touristattraction,Stary Wiadukt (szlak czarny),https://www.google.com/maps/place/Stary+Wiadukt+(szlak+czarny)/data=!4m7!3m6!1s0x46fda1ff9613d9f7:0xab1f4e728f1af682!8m2!3d54.4463334!4d18.4719484!16s%2Fg%2F11h6tzt2xb!19sChIJ99kTlv-h_UYRgvYaj3JOH6s?authuser=0&hl=en&rclk=1
54.451923,18.4773198,touristattraction,Mokradło Końskie,https://www.google.com/maps/place/Mokrad%C5%82o+Ko%C5%84skie/data=!4m7!3m6!1s0x46fda1d78bbb6d71:0xdbac07f3bd4ccfb3!8m2!3d54.451923!4d18.4773198!16s%2Fg%2F11j4p1g2_d!19sChIJcW27i9eh_UYRs89MvfMHrNs?authuser=0&hl=en&rclk=1
54.457596,18.4844864,touristattraction,Źródło - Poidełko Kamienne,https://www.google.com/maps/place/%C5%B9r%C3%B3d%C5%82o+-+Poide%C5%82ko+Kamienne/data=!4m7!3m6!1s0x46fda1386785de8d:0x7699b1447614f3d9!8m2!3d54.457596!4d18.4844864!16s%2Fg%2F11h3mw6_24!19sChIJjd6FZzih_UYR2fMUdkSxmXY?authuser=0&hl=en&rclk=1
54.4679027,18.4936536,touristattraction,Kapliczka z Ołtarza Papieskiego,https://www.google.com/maps/place/Kapliczka+z+O%C5%82tarza+Papieskiego/data=!4m7!3m6!1s0x46fda1f500adddd5:0x721805a9135b1989!8m2!3d54.4679027!4d18.4936536!16s%2Fg%2F11gykdgt5f!19sChIJ1d2tAPWh_UYRiRlbE6kFGHI?authuser=0&hl=en&rclk=1
54.4486107,18.4755157,touristattraction,"Tablica informacyjna, Końskie Łąki","https://www.google.com/maps/place/Tablica+informacyjna,+Ko%C5%84skie+%C5%81%C4%85ki/data=!4m7!3m6!1s0x46fda1c1ae18d207:0xdfffd415c5bc6cd6!8m2!3d54.4486107!4d18.4755157!16s%2Fg%2F11lrvyjrm7!19sChIJB9IYrsGh_UYR1my8xRXU_98?authuser=0&hl=en&rclk=1"
54.4451565,18.4894246,touristattraction,"Pomnik Przyrody - Dąb Szypułkowy ""Dewajtis""",https://www.google.com/maps/place/Pomnik+Przyrody+-+D%C4%85b+Szypu%C5%82kowy+%22Dewajtis%22/data=!4m7!3m6!1s0x46fda1e36b134d6b:0x9a1ff22acefc70e3!8m2!3d54.4451565!4d18.4894246!16s%2Fg%2F11h2vfs8hc!19sChIJa00Ta-Oh_UYR43D8ziryH5o?authuser=0&hl=en&rclk=1
54.4482972,18.4946154,touristattraction,Mokradło Rozlewisko,https://www.google.com/maps/place/Mokrad%C5%82o+Rozlewisko/data=!4m7!3m6!1s0x46fda11388d4f19d:0xd2e25027ff7b7fa3!8m2!3d54.4482972!4d18.4946154!16s%2Fg%2F11h4qbgj_l!19sChIJnfHUiBOh_UYRo397_ydQ4tI?authuser=0&hl=en&rclk=1
54.4432122,18.4939539,touristattraction,Forestry and Shack Gołębiewo,https://www.google.com/maps/place/Forestry+and+Shack+Go%C5%82%C4%99biewo/data=!4m7!3m6!1s0x46fda038ecb6d077:0xf7a0e8a5b1cf23b9!8m2!3d54.4432122!4d18.4939539!16s%2Fg%2F11dfkz9z9w!19sChIJd9C27Dig_UYRuSPPsaXooPc?authuser=0&hl=en&rclk=1
54.4481354,18.4876762,touristattraction,Pomnik Przyrody - Brzoza Brodawkowata,https://www.google.com/maps/place/Pomnik+Przyrody+-+Brzoza+Brodawkowata/data=!4m7!3m6!1s0x46fda104d850cc3b:0x12b6dde942a61ded!8m2!3d54.4481354!4d18.4876762!16s%2Fg%2F11gyk3bs1q!19sChIJO8xQ2ASh_UYR7R2mQundthI?authuser=0&hl=en&rclk=1
54.442933,18.497185,touristattraction,Kamień Bąbelków,https://www.google.com/maps/place/Kamie%C5%84+B%C4%85belk%C3%B3w/data=!4m7!3m6!1s0x46fda1d3ac98c38f:0xa0fcb008991d8c7d!8m2!3d54.442933!4d18.497185!16s%2Fg%2F11hd_ldf7f!19sChIJj8OYrNOh_UYRfYwdmQiw_KA?authuser=0&hl=en&rclk=1
54.4312707,18.5091694,touristattraction,Dostojna Góra—highest hill of Zoppot,https://www.google.com/maps/place/Dostojna+G%C3%B3ra%E2%80%94highest+hill+of+Zoppot/data=!4m7!3m6!1s0x46fda1ae5c48e14f:0xab8c200952ee4b70!8m2!3d54.4312707!4d18.5091694!16s%2Fg%2F11pc9m1q2c!19sChIJT-FIXK6h_UYRcEvuUgkgjKs?authuser=0&hl=en&rclk=1
54.439313,18.49986,touristattraction,Cztery Głazy,https://www.google.com/maps/place/Cztery+G%C5%82azy/data=!4m7!3m6!1s0x46fda1136f94f45d:0x643948d7b1f7e8e1!8m2!3d54.439313!4d18.49986!16s%2Fg%2F11fp4rtvch!19sChIJXfSUbxOh_UYR4ej3sddIOWQ?authuser=0&hl=en&rclk=1
54.4639709,18.5061371,touristattraction,"Ścieżka ""Podleśna""",https://www.google.com/maps/place/%C5%9Acie%C5%BCka+%22Podle%C5%9Bna%22/data=!4m7!3m6!1s0x46fda131f6e6793f:0x48898ebf0cb7e981!8m2!3d54.4639709!4d18.5061371!16s%2Fg%2F11h3b31n_k!19sChIJP3nm9jGh_UYRgem3DL-OiUg?authuser=0&hl=en&rclk=1
54.4470031,18.5734963,touristattraction,Pier in Sopot,https://www.google.com/maps/place/Pier+in+Sopot/data=!4m7!3m6!1s0x46fd0a8e7324335f:0x37fbde4065ff0f10!8m2!3d54.4470031!4d18.5734963!16s%2Fm%2F0661m5f!19sChIJXzMkc44K_UYREA__ZUDe-zc?authuser=0&hl=en&rclk=1
54.4442449,18.5398518,touristattraction,Ośle Wzgórze,https://www.google.com/maps/place/O%C5%9Ble+Wzg%C3%B3rze/data=!4m7!3m6!1s0x46fda1754d2618f1:0xf3102334b04935e3!8m2!3d54.4442449!4d18.5398518!16s%2Fg%2F11gy6gq53x!19sChIJ8RgmTXWh_UYR4zVJsDQjEPM?authuser=0&hl=en&rclk=1
54.4522222,18.5372222,touristattraction,Spadzista Góra,https://www.google.com/maps/place/Spadzista+G%C3%B3ra/data=!4m7!3m6!1s0x46fda13d02b47a6d:0x706b28a71cdd99a3!8m2!3d54.4522222!4d18.5372222!16s%2Fg%2F11q2tpmvgl!19sChIJbXq0Aj2h_UYRo5ndHKcoa3A?authuser=0&hl=en&rclk=1
54.4441644,18.5415024,touristattraction,Stara skocznia narciarska,https://www.google.com/maps/place/Stara+skocznia+narciarska/data=!4m7!3m6!1s0x46fda1a4b71b9737:0x620a9d82683542a8!8m2!3d54.4441644!4d18.5415024!16s%2Fg%2F11j0ttgny2!19sChIJN5cbt6Sh_UYRqEI1aIKdCmI?authuser=0&hl=en&rclk=1
54.4395268,18.537718,touristattraction,Ławka Profesorska,https://www.google.com/maps/place/%C5%81awka+Profesorska/data=!4m7!3m6!1s0x46fda194340c7309:0x32d953535e1c48f6!8m2!3d54.4395268!4d18.537718!16s%2Fg%2F11jx5t7bmg!19sChIJCXMMNJSh_UYR9kgcXlNT2TI?authuser=0&hl=en&rclk=1
54.4438588,18.5680804,touristattraction,Fontanna Jasia Rybaka,https://www.google.com/maps/place/Fontanna+Jasia+Rybaka/data=!4m7!3m6!1s0x46fd0a91f944ed97:0x54abbeedf4de5cf5!8m2!3d54.4438588!4d18.5680804!16s%2Fg%2F122537lr!19sChIJl-1E-ZEK_UYR9Vze9O2-q1Q?authuser=0&hl=en&rclk=1
54.4459417,18.5233072,touristattraction,"Ruiny restauracji ""Großer Stern"" (Wielka Gwiazda)",https://www.google.com/maps/place/Ruiny+restauracji+%22Gro%C3%9Fer+Stern%22+(Wielka+Gwiazda)/data=!4m7!3m6!1s0x46fda103ea03e2f9:0x9b28c54160aa39f5!8m2!3d54.4459417!4d18.5233072!16s%2Fg%2F11knmgg7dh!19sChIJ-eID6gOh_UYR9TmqYEHFKJs?authuser=0&hl=en&rclk=1
54.4441956,18.5667476,touristattraction,Krzywy Domek,https://www.google.com/maps/place/Krzywy+Domek/data=!4m7!3m6!1s0x46fd0a80ca6d63b1:0xa475a4feb561f099!8m2!3d54.4441956!4d18.5667476!16s%2Fm%2F09rvc63!19sChIJsWNtyoAK_UYRmfBhtf6kdaQ?authuser=0&hl=en&rclk=1
54.4411368,18.5491836,touristattraction,Wzgórze Olimpijskie,https://www.google.com/maps/place/Wzg%C3%B3rze+Olimpijskie/data=!4m7!3m6!1s0x46fd0b1b4935f4f9:0xa6062728cb984827!8m2!3d54.4411368!4d18.5491836!16s%2Fg%2F11h2ln0ytm!19sChIJ-fQ1SRsL_UYRJ0iYyygnBqY?authuser=0&hl=en&rclk=1
54.4453634,18.5712246,touristattraction,Sopot Molo EuroVelo 10/13 miejsce postojowe,https://www.google.com/maps/place/Sopot+Molo+EuroVelo+10%2F13+miejsce+postojowe/data=!4m7!3m6!1s0x46fd0b942a7b1ec5:0x16a508faa866ed54!8m2!3d54.4453634!4d18.5712246!16s%2Fg%2F11jdb9zvz4!19sChIJxR57KpQL_UYRVO1mqPoIpRY?authuser=0&hl=en&rclk=1
54.4438002,18.5504787,touristattraction,Ławka Zakopane-Sopot,https://www.google.com/maps/place/%C5%81awka+Zakopane-Sopot/data=!4m7!3m6!1s0x46fd0b0ddbe1333f:0x655327e7ad9fdbe6!8m2!3d54.4438002!4d18.5504787!16s%2Fg%2F11fm19t8ry!19sChIJPzPh2w0L_UYR5tufrecnU2U?authuser=0&hl=en&rclk=1
54.4368671,18.5292719,touristattraction,Zawrotka,https://www.google.com/maps/place/Zawrotka/data=!4m7!3m6!1s0x46fda14bff315cbb:0x778b388373451e19!8m2!3d54.4368671!4d18.5292719!16s%2Fg%2F11rcqmqps_!19sChIJu1wx_0uh_UYRGR5Fc4M4i3c?authuser=0&hl=en&rclk=1
54.4497782,18.5689638,touristattraction,Mini Molo,https://www.google.com/maps/place/Mini+Molo/data=!4m7!3m6!1s0x46fd0a8ed3494b23:0x3db1828a463991f4!8m2!3d54.4497782!4d18.5689638!16s%2Fg%2F11ggm9xwjr!19sChIJI0tJ044K_UYR9JE5RoqCsT0?authuser=0&hl=en&rclk=1
54.4460909,18.5651594,touristattraction,Mural Turystka,https://www.google.com/maps/place/Mural+Turystka/data=!4m7!3m6!1s0x46fd0beea16a0e73:0xc9d7aca7b642e52d!8m2!3d54.4460909!4d18.5651594!16s%2Fg%2F11h70ql4zp!19sChIJcw5qoe4L_UYRLeVCtqes18k?authuser=0&hl=en&rclk=1
54.4480683,18.5764099,touristattraction,Molo w Sopocie,https://www.google.com/maps/place/Molo+w+Sopocie/data=!4m7!3m6!1s0x46fd0be21931514d:0xaca9480f2665ebaa!8m2!3d54.4480683!4d18.5764099!16s%2Fg%2F11s99j9gm3!19sChIJTVExGeIL_UYRqutlJg9Iqaw?authuser=0&hl=en&rclk=1
54.4459568,18.5702066,touristattraction,Skwer Kuracyjny im. M. Jakszta,https://www.google.com/maps/place/Skwer+Kuracyjny+im.+M.+Jakszta/data=!4m7!3m6!1s0x46fd0a8e7719fb8b:0x4e0e969796810bb!8m2!3d54.4459568!4d18.5702066!16s%2Fg%2F1v_w11hv!19sChIJi_sZd44K_UYRuxBoeWnp4AQ?authuser=0&hl=en&rclk=1
54.4449788,18.5699777,touristattraction,Fontanna lecznicza Zdrój św. Wojciecha,https://www.google.com/maps/place/Fontanna+lecznicza+Zdr%C3%B3j+%C5%9Bw.+Wojciecha/data=!4m7!3m6!1s0x46fd0b4568118237:0x6c2d15e173004d2b!8m2!3d54.4449788!4d18.5699777!16s%2Fg%2F11r_f72q24!19sChIJN4IRaEUL_UYRK00Ac-EVLWw?authuser=0&hl=en&rclk=1
54.4303368,18.3962789,touristattraction,Pomnik przyrody - Dąb Szypułkowy (1036),https://www.google.com/maps/place/Pomnik+przyrody+-+D%C4%85b+Szypu%C5%82kowy+(1036)/data=!4m7!3m6!1s0x46fd9f7c5cbdabb9:0x7222901b7f18248b!8m2!3d54.4303368!4d18.3962789!16s%2Fg%2F11fkw94l9v!19sChIJuau9XHyf_UYRiyQYfxuQInI?authuser=0&hl=en&rclk=1
54.6073173,18.799836,touristattraction,Fokarium Stacji Morskiej im. Prof. Krzysztofa Skóry,https://www.google.com/maps/place/Fokarium+Stacji+Morskiej+im.+Prof.+Krzysztofa+Sk%C3%B3ry/data=!4m7!3m6!1s0x46fd068216a5c2df:0x18fed602b08392!8m2!3d54.6073173!4d18.799836!16s%2Fm%2F0gkxw34!19sChIJ38KlFoIG_UYRkoOwAtb-GAA?authuser=0&hl=en&rclk=1
54.435401,18.502407,touristattraction,Kamień przy Drodze Długa Linia,https://www.google.com/maps/place/Kamie%C5%84+przy+Drodze+D%C5%82uga+Linia/data=!4m7!3m6!1s0x46fda1eef94958af:0x4629c0126bab4050!8m2!3d54.435401!4d18.502407!16s%2Fg%2F11hd_lczkw!19sChIJr1hJ-e6h_UYRUECraxLAKUY?authuser=0&hl=en&rclk=1
54.4212778,18.5096389,touristattraction,"Samotny Głaz,","https://www.google.com/maps/place/Samotny+G%C5%82az,/data=!4m7!3m6!1s0x46fda1048e75eceb:0xf9ddd539bc3046de!8m2!3d54.4212778!4d18.5096389!16s%2Fg%2F11ft_3fdwf!19sChIJ6-x1jgSh_UYR3kYwvDnV3fk?authuser=0&hl=en&rclk=1"
54.4310833,18.5376111,touristattraction,Źródło Potoku Karlikowskiego,https://www.google.com/maps/place/%C5%B9r%C3%B3d%C5%82o+Potoku+Karlikowskiego/data=!4m7!3m6!1s0x46fd0ba99c8a2209:0x1a0c6a6f5e7a1d50!8m2!3d54.4310833!4d18.5376111!16s%2Fg%2F11jgxwxn99!19sChIJCSKKnKkL_UYRUB16Xm9qDBo?authuser=0&hl=en&rclk=1
54.4347057,18.5461943,touristattraction,Szlak Borsuka,https://www.google.com/maps/place/Szlak+Borsuka/data=!4m7!3m6!1s0x46fd0aa23f26c667:0xedbe6c9e8a0d8cd9!8m2!3d54.4347057!4d18.5461943!16s%2Fg%2F11c4rqrmt6!19sChIJZ8YmP6IK_UYR2YwNip5svu0?authuser=0&hl=en&rclk=1
54.4269916,18.554122,touristattraction,Jedlinowa Polana (Tannengrund),https://www.google.com/maps/place/Jedlinowa+Polana+(Tannengrund)/data=!4m7!3m6!1s0x46fd0bece52ecc13:0x7352788e5038cc52!8m2!3d54.4269916!4d18.554122!16s%2Fg%2F11rv372y9y!19sChIJE8wu5ewL_UYRUsw4UI54UnM?authuser=0&hl=en&rclk=1
54.4147064,18.6255711,touristattraction,Brzeźno Pier,https://www.google.com/maps/place/Brze%C5%BAno+Pier/data=!4m7!3m6!1s0x46fd0b38473959c5:0x5089a49098d0fca5!8m2!3d54.4147064!4d18.6255711!16s%2Fg%2F11bw8dtg51!19sChIJxVk5RzgL_UYRpfzQmJCkiVA?authuser=0&hl=en&rclk=1
54.4486181,18.5779135,touristattraction,Statek Pirat,https://www.google.com/maps/place/Statek+Pirat/data=!4m7!3m6!1s0x46fd0a8c9d7d9445:0xf37b8c953b374698!8m2!3d54.4486181!4d18.5779135!16s%2Fg%2F11c58rb8cy!19sChIJRZR9nYwK_UYRmEY3O5WMe_M?authuser=0&hl=en&rclk=1
54.4067051,18.6669677,touristattraction,Westerplatte,https://www.google.com/maps/place/Westerplatte/data=!4m7!3m6!1s0x46fd753373b326d7:0x69a7651275b4b5a2!8m2!3d54.4067051!4d18.6669677!16s%2Fm%2F025sr_z!19sChIJ1yazczN1_UYRorW0dRJlp2k?authuser=0&hl=en&rclk=1
54.5195615,18.5511764,touristattraction,"Ship Museum ORP ""Błyskawica""",https://www.google.com/maps/place/Ship+Museum+ORP+%22B%C5%82yskawica%22/data=!4m7!3m6!1s0x46fda73920563239:0x96e9dbf0ecdf66f5!8m2!3d54.5195615!4d18.5511764!16zL20vMDIyMzhx!19sChIJOTJWIDmn_UYR9Wbf7PDb6ZY?authuser=0&hl=en&rclk=1
52.2539535,21.0113328,touristattraction,Multimedialny Park Fontann,https://www.google.com/maps/place/Multimedialny+Park+Fontann/data=!4m7!3m6!1s0x471ecc6e090b4487:0x4f1165a8b83c9506!8m2!3d52.2539535!4d21.0113328!16s%2Fg%2F122bxt3s!19sChIJh0QLCW7MHkcRBpU8uKhlEU8?authuser=0&hl=en&rclk=1
54.4154277,18.4659235,touristattraction,Toaleta,https://www.google.com/maps/place/Toaleta/data=!4m7!3m6!1s0x46fd9f6cbfc4f991:0x399a1ca055728e7b!8m2!3d54.4154277!4d18.4659235!16s%2Fg%2F11rn5r97vr!19sChIJkfnEv2yf_UYRe45yVaAcmjk?authuser=0&hl=en&rclk=1
54.4078498,18.5244824,touristattraction,Punkt widokowy,https://www.google.com/maps/place/Punkt+widokowy/data=!4m7!3m6!1s0x46fd7541e61a00d3:0xe3ec5cc43a259e5d!8m2!3d54.4078498!4d18.5244824!16s%2Fg%2F11fmz9dyww!19sChIJ0wAa5kF1_UYRXZ4lOsRc7OM?authuser=0&hl=en&rclk=1
54.4112209,18.5620805,touristattraction,Oliwski Park,https://www.google.com/maps/place/Oliwski+Park/data=!4m7!3m6!1s0x46fd0acb364b7f71:0x701b855baf5f843!8m2!3d54.4112209!4d18.5620805!16s%2Fg%2F121cs2sj!19sChIJcX9LNssK_UYRQ_j1ulW4AQc?authuser=0&hl=en&rclk=1
54.439997,18.5760431,touristattraction,Sopot Museum,https://www.google.com/maps/place/Sopot+Museum/data=!4m7!3m6!1s0x46fd0aecd84cb1ef:0xa63acfe4a19a30a5!8m2!3d54.439997!4d18.5760431!16s%2Fg%2F1216f54m!19sChIJ77FM2OwK_UYRpTCaoeTPOqY?authuser=0&hl=en&rclk=1
54.4095782,18.5464198,touristattraction,Dolina Oliwska,https://www.google.com/maps/place/Dolina+Oliwska/data=!4m7!3m6!1s0x46fd7560161a42f9:0x7fae1968444753f8!8m2!3d54.4095782!4d18.5464198!16s%2Fg%2F11jkwy868d!19sChIJ-UIaFmB1_UYR-FNHRGgZrn8?authuser=0&hl=en&rclk=1
54.414904,18.5704787,touristattraction,Najwyższy naturalny punkt Żabianki-Jelitkowa,https://www.google.com/maps/place/Najwy%C5%BCszy+naturalny+punkt+%C5%BBabianki-Jelitkowa/data=!4m7!3m6!1s0x46fd0bc2e8f54095:0xd8fe834e2d2195a!8m2!3d54.414904!4d18.5704787!16s%2Fg%2F11tdbm7dsc!19sChIJlUD16MIL_UYRWhnS4jTojw0?authuser=0&hl=en&rclk=1
54.4107825,18.5622758,touristattraction,Palm house,https://www.google.com/maps/place/Palm+house/data=!4m7!3m6!1s0x46fd7534aebb1275:0x2a73fc23626505e3!8m2!3d54.4107825!4d18.5622758!16s%2Fg%2F1pp2x7qpj!19sChIJdRK7rjR1_UYR4wVlYiP8cyo?authuser=0&hl=en&rclk=1
54.4104649,18.5615796,touristattraction,Whisper Grottoes,https://www.google.com/maps/place/Whisper+Grottoes/data=!4m7!3m6!1s0x46fd7534bacd3e55:0x1e357aa888b9d255!8m2!3d54.4104649!4d18.5615796!16s%2Fg%2F1pp2x6wbs!19sChIJVT7NujR1_UYRVdK5iKh6NR4?authuser=0&hl=en&rclk=1
54.4249562,18.6006116,touristattraction,The Oliwski Stream,https://www.google.com/maps/place/The+Oliwski+Stream/data=!4m7!3m6!1s0x46fd0adf801a27b5:0x4126b7fa1738536!8m2!3d54.4249562!4d18.6006116!16s%2Fg%2F11c5g6lnkd!19sChIJtScagN8K_UYRNoVzoX9rEgQ?authuser=0&hl=en&rclk=1
54.4246053,18.5987199,touristattraction,Mostek rowery,https://www.google.com/maps/place/Mostek+rowery/data=!4m7!3m6!1s0x46fd0b77c984024b:0x783c8a0f65c8985f!8m2!3d54.4246053!4d18.5987199!16s%2Fg%2F11td20357n!19sChIJSwKEyXcL_UYRX5jIZQ-KPHg?authuser=0&hl=en&rclk=1
54.4129618,18.6032538,touristattraction,Arc of Freedom,https://www.google.com/maps/place/Arc+of+Freedom/data=!4m7!3m6!1s0x46fd0b7ec2dee9c3:0x19d8de66ed4e9816!8m2!3d54.4129618!4d18.6032538!16s%2Fg%2F11h6v4p2yv!19sChIJw-newn4L_UYRFphO7Wbe2Bk?authuser=0&hl=en&rclk=1
54.4246322,18.5977211,touristattraction,Biały mostek,https://www.google.com/maps/place/Bia%C5%82y+mostek/data=!4m7!3m6!1s0x46fd0b6bc01921d1:0x91caf7398028bc4d!8m2!3d54.4246322!4d18.5977211!16s%2Fg%2F11h4tcgd4b!19sChIJ0SEZwGsL_UYRTbwogDn3ypE?authuser=0&hl=en&rclk=1
54.4019182,18.6062026,touristattraction,Murale w dzielnicy Zaspa,https://www.google.com/maps/place/Murale+w+dzielnicy+Zaspa/data=!4m7!3m6!1s0x46fd7516150b7a69:0xdf0ee385c6b66149!8m2!3d54.4019182!4d18.6062026!16s%2Fg%2F11rg6w89pv!19sChIJaXoLFRZ1_UYRSWG2xoXjDt8?authuser=0&hl=en&rclk=1
54.4329247,18.5874509,touristattraction,Tor wodny,https://www.google.com/maps/place/Tor+wodny/data=!4m7!3m6!1s0x46fd0be71bc642fd:0x1f567311e51e2c9b!8m2!3d54.4329247!4d18.5874509!16s%2Fg%2F11nx65pqd0!19sChIJ_ULGG-cL_UYRmywe5RFzVh8?authuser=0&hl=en&rclk=1
54.4059928,18.5093787,touristattraction,Wzgórze Marii,https://www.google.com/maps/place/Wzg%C3%B3rze+Marii/data=!4m7!3m6!1s0x46fd9fe30f862a3d:0x6a7f03234d402593!8m2!3d54.4059928!4d18.5093787!16s%2Fg%2F11g01vbm00!19sChIJPSqGD-Of_UYRkyVATSMDf2o?authuser=0&hl=en&rclk=1
54.4028021,18.50266,touristattraction,Uroczysko Stary Ogród,https://www.google.com/maps/place/Uroczysko+Stary+Ogr%C3%B3d/data=!4m7!3m6!1s0x46fd9fe6ba836b95:0x68b50c2be9bee69!8m2!3d54.4028021!4d18.50266!16s%2Fg%2F11g01wtrt1!19sChIJlWuDuuaf_UYRae6bvsJQiwY?authuser=0&hl=en&rclk=1
54.4200606,18.5178184,touristattraction,Królewskie Źródło,https://www.google.com/maps/place/Kr%C3%B3lewskie+%C5%B9r%C3%B3d%C5%82o/data=!4m7!3m6!1s0x46fda147a485d145:0xb85c5d5c0c334d18!8m2!3d54.4200606!4d18.5178184!16s%2Fg%2F11rfq52j5l!19sChIJRdGFpEeh_UYRGE0zDFxdXLg?authuser=0&hl=en&rclk=1
54.405105,18.5191319,touristattraction,Kamień przy Drodze Marnych Mostów,https://www.google.com/maps/place/Kamie%C5%84+przy+Drodze+Marnych+Most%C3%B3w/data=!4m7!3m6!1s0x46fd75d9c90dad29:0x9becc12a45fdd4e3!8m2!3d54.405105!4d18.5191319!16s%2Fg%2F11h7zc5b47!19sChIJKa0Nydl1_UYR49T9RSrB7Js?authuser=0&hl=en&rclk=1
54.405271,18.5101819,touristattraction,Kamienna Twarz,https://www.google.com/maps/place/Kamienna+Twarz/data=!4m7!3m6!1s0x46fd9fe25563f213:0xd127d28af24e0369!8m2!3d54.405271!4d18.5101819!16s%2Fg%2F11c1s1z1l1!19sChIJE_JjVeKf_UYRaQNO8orSJ9E?authuser=0&hl=en&rclk=1
54.400396,18.52575,touristattraction,Obelisk Upamiętniający Tragicznie Zmarłego Skoczka Narciarskiego Ernsta Becker-Lee,https://www.google.com/maps/place/Obelisk+Upami%C4%99tniaj%C4%85cy+Tragicznie+Zmar%C5%82ego+Skoczka+Narciarskiego+Ernsta+Becker-Lee/data=!4m7!3m6!1s0x46fd750d49945301:0xf9a4466d429508dd!8m2!3d54.400396!4d18.52575!16s%2Fg%2F11mqg529b1!19sChIJAVOUSQ11_UYR3QiVQm1GpPk?authuser=0&hl=en&rclk=1
54.3958333,18.5140556,touristattraction,Głaz na Zboczu,https://www.google.com/maps/place/G%C5%82az+na+Zboczu/data=!4m7!3m6!1s0x46fd755fb100113d:0x55e5bfe459358772!8m2!3d54.3958333!4d18.5140556!16s%2Fg%2F11j1fhj4rh!19sChIJPREAsV91_UYRcoc1WeS_5VU?authuser=0&hl=en&rclk=1
54.3954186,18.5087982,touristattraction,Czarcia Góra,https://www.google.com/maps/place/Czarcia+G%C3%B3ra/data=!4m7!3m6!1s0x46fd75603ce29e4d:0x3e07ea453b4a7ffa!8m2!3d54.3954186!4d18.5087982!16s%2Fg%2F11f11pyq0c!19sChIJTZ7iPGB1_UYR-n9KO0XqBz4?authuser=0&hl=en&rclk=1
54.4127778,18.5372222,touristattraction,Wzgórze Kawowe,https://www.google.com/maps/place/Wzg%C3%B3rze+Kawowe/data=!4m7!3m6!1s0x46fd755b38dd4047:0x343205c50c48cf3!8m2!3d54.4127778!4d18.5372222!16s%2Fg%2F1n36gjc_j!19sChIJR0DdOFt1_UYR84zEUFwgQwM?authuser=0&hl=en&rclk=1
54.4092038,18.5522862,touristattraction,Wyspa na Stawie Młyńskim w Oliwie,https://www.google.com/maps/place/Wyspa+na+Stawie+M%C5%82y%C5%84skim+w+Oliwie/data=!4m7!3m6!1s0x46fd7561157768ff:0xfd959ff80cbb779c!8m2!3d54.4092038!4d18.5522862!16s%2Fg%2F11js8_7tmt!19sChIJ_2h3FWF1_UYRnHe7DPiflf0?authuser=0&hl=en&rclk=1
54.4207778,18.5375833,touristattraction,Dolina Rynarzewska,https://www.google.com/maps/place/Dolina+Rynarzewska/data=!4m7!3m6!1s0x46fd0b3d5d666b87:0x8800f84e46816a34!8m2!3d54.4207778!4d18.5375833!16s%2Fg%2F11h7w4d0z8!19sChIJh2tmXT0L_UYRNGqBRk74AIg?authuser=0&hl=en&rclk=1
54.41995,18.517703,touristattraction,Źródło Potoku Rynarzewskiego,https://www.google.com/maps/place/%C5%B9r%C3%B3d%C5%82o+Potoku+Rynarzewskiego/data=!4m7!3m6!1s0x46fda1d067325951:0x3d675162e1c9592f!8m2!3d54.41995!4d18.517703!16s%2Fg%2F11fn6cznyp!19sChIJUVkyZ9Ch_UYRL1nJ4WJRZz0?authuser=0&hl=en&rclk=1
54.402262,18.5436829,touristattraction,Kamień przy Szwedzkiej Grobli,https://www.google.com/maps/place/Kamie%C5%84+przy+Szwedzkiej+Grobli/data=!4m7!3m6!1s0x46fd758c11c73641:0xeb27397f251344d0!8m2!3d54.402262!4d18.5436829!16s%2Fg%2F11hdxnvfv6!19sChIJQTbHEYx1_UYR0EQTJX85J-s?authuser=0&hl=en&rclk=1
54.4130136,18.5509286,touristattraction,"Wzgórze Luizy, Wzgórze Kościuszki","https://www.google.com/maps/place/Wzg%C3%B3rze+Luizy,+Wzg%C3%B3rze+Ko%C5%9Bciuszki/data=!4m7!3m6!1s0x46fd0b7f360455b5:0xd3b84d5424836c09!8m2!3d54.4130136!4d18.5509286!16s%2Fg%2F11h37n9wrz!19sChIJtVUENn8L_UYRCWyDJFRNuNM?authuser=0&hl=en&rclk=1"
54.4014444,18.5296111,touristattraction,Głaz Narzutowy,https://www.google.com/maps/place/G%C5%82az+Narzutowy/data=!4m7!3m6!1s0x46fd7503c4b5fd4b:0xb06b209dd07023a!8m2!3d54.4014444!4d18.5296111!16s%2Fg%2F11lfblvxfl!19sChIJS_21xAN1_UYROgIH3QmyBgs?authuser=0&hl=en&rclk=1
54.4035824,18.5709355,touristattraction,Olivia Star,https://www.google.com/maps/place/Olivia+Star/data=!4m7!3m6!1s0x46fd75907cf29c17:0x22ec58915629e7ab!8m2!3d54.4035824!4d18.5709355!16s%2Fg%2F11g8_rr0wx!19sChIJF5zyfJB1_UYRq-cpVpFY7CI?authuser=0&hl=en&rclk=1
54.4111587,18.5615864,touristattraction,Wodospad w Parku Oliwskim,https://www.google.com/maps/place/Wodospad+w+Parku+Oliwskim/data=!4m7!3m6!1s0x46fd7534b37a9121:0xfc7029517d5a0362!8m2!3d54.4111587!4d18.5615864!16s%2Fg%2F1pp2x6wmk!19sChIJIZF6szR1_UYRYgNafVEpcPw?authuser=0&hl=en&rclk=1
54.3925773,18.5959231,touristattraction,Tablica informacyjna - Murale Gdańsk Zaspa,https://www.google.com/maps/place/Tablica+informacyjna+-+Murale+Gda%C5%84sk+Zaspa/data=!4m7!3m6!1s0x46fd74da18fe78c3:0x5c18ad7c2b8f02f3!8m2!3d54.3925773!4d18.5959231!16s%2Fg%2F11h0vqqt3x!19sChIJw3j-GNp0_UYR8wKPK3ytGFw?authuser=0&hl=en&rclk=1
54.403933,18.5568581,touristattraction,Dolina Elfów,https://www.google.com/maps/place/Dolina+Elf%C3%B3w/data=!4m7!3m6!1s0x46fd757a803ebd5b:0xd998ba8f23bec2c5!8m2!3d54.403933!4d18.5568581!16s%2Fg%2F11fp1f0bp6!19sChIJW70-gHp1_UYRxcK-I4-6mNk?authuser=0&hl=en&rclk=1
54.4097967,18.5894152,touristattraction,Najwyższy naturalny punkt Przymorza Wielkiego,https://www.google.com/maps/place/Najwy%C5%BCszy+naturalny+punkt+Przymorza+Wielkiego/data=!4m7!3m6!1s0x46fd0b2cb7b33cc7:0x353c257fa0f6e543!8m2!3d54.4097967!4d18.5894152!16s%2Fg%2F11td9jdgdg!19sChIJxzyztywL_UYRQ-X2oH8lPDU?authuser=0&hl=en&rclk=1
54.4126261,18.5924049,touristattraction,Falowiec Jagiellońska,https://www.google.com/maps/place/Falowiec+Jagiello%C5%84ska/data=!4m7!3m6!1s0x46fd0bba6d9403bb:0xe55c685b324f84cd!8m2!3d54.4126261!4d18.5924049!16s%2Fg%2F11sq301zdj!19sChIJuwOUbboL_UYRzYRPMltoXOU?authuser=0&hl=en&rclk=1
54.4113743,18.5887555,touristattraction,Mural na cześć obrońców Poczty Polskiej w Gdańsku,https://www.google.com/maps/place/Mural+na+cze%C5%9B%C4%87+obro%C5%84c%C3%B3w+Poczty+Polskiej+w+Gda%C5%84sku/data=!4m7!3m6!1s0x46fd0ad5ecbd8171:0x9a4a8f7f81bd9b22!8m2!3d54.4113743!4d18.5887555!16s%2Fg%2F11gdknnt2h!19sChIJcYG97NUK_UYRIpu9gX-PSpo?authuser=0&hl=en&rclk=1
54.4153428,18.6042004,touristattraction,Drewniany pomost nad łąką,https://www.google.com/maps/place/Drewniany+pomost+nad+%C5%82%C4%85k%C4%85/data=!4m7!3m6!1s0x46fd0b569d2dcb2f:0xd8c82bd8460eab8c!8m2!3d54.4153428!4d18.6042004!16s%2Fg%2F11h34g8s_k!19sChIJL8stnVYL_UYRjKsORtgryNg?authuser=0&hl=en&rclk=1
54.4122966,18.6078786,touristattraction,Fire place,https://www.google.com/maps/place/Fire+place/data=!4m7!3m6!1s0x46fd0b2e2cf21c1f:0x5cc88752c5ca4144!8m2!3d54.4122966!4d18.6078786!16s%2Fg%2F11b6dszf8m!19sChIJHxzyLC4L_UYRREHKxVKHyFw?authuser=0&hl=en&rclk=1
54.4085685,18.5971319,touristattraction,Faloviec Falowiec - Europe’s longest building,https://www.google.com/maps/place/Faloviec+Falowiec+-+Europe%E2%80%99s+longest+building/data=!4m7!3m6!1s0x46fd0b298d59a0c3:0xf00d97358fcaba4e!8m2!3d54.4085685!4d18.5971319!16s%2Fg%2F11g9vt3556!19sChIJw6BZjSkL_UYRTrrKjzWXDfA?authuser=0&hl=en&rclk=1
54.3995834,18.606615,touristattraction,Pomnik Mew,https://www.google.com/maps/place/Pomnik+Mew/data=!4m7!3m6!1s0x46fd7576de728983:0xe20c56113575d940!8m2!3d54.3995834!4d18.606615!16s%2Fg%2F11lgr7tjr7!19sChIJg4ly3nZ1_UYRQNl1NRFWDOI?authuser=0&hl=en&rclk=1
54.3926591,18.5834391,touristattraction,Mural Trójmiasto Tu Mieszkam,https://www.google.com/maps/place/Mural+Tr%C3%B3jmiasto+Tu+Mieszkam/data=!4m7!3m6!1s0x46fd75373c10cf7b:0xf38ad7b133288eea!8m2!3d54.3926591!4d18.5834391!16s%2Fg%2F11pxllfqs1!19sChIJe88QPDd1_UYR6o4oM7HXivM?authuser=0&hl=en&rclk=1
54.4135093,18.6243102,touristattraction,Hewelion the Lion,https://www.google.com/maps/place/Hewelion+the+Lion/data=!4m7!3m6!1s0x46fd0b3838a9b935:0xb143f4cfac0be1a0!8m2!3d54.4135093!4d18.6243102!16s%2Fg%2F11f0_f6jrm!19sChIJNbmpODgL_UYRoOELrM_0Q7E?authuser=0&hl=en&rclk=1
54.4072595,18.6385792,touristattraction,Krzyż pamiątkowy,https://www.google.com/maps/place/Krzy%C5%BC+pami%C4%85tkowy/data=!4m7!3m6!1s0x46fd0b0112ecad5f:0xa0625c39693888bc!8m2!3d54.4072595!4d18.6385792!16s%2Fg%2F11tjy7pmtj!19sChIJX63sEgEL_UYRvIg4aTlcYqA?authuser=0&hl=en&rclk=1
54.407593,18.6325201,touristattraction,Molo w Gdańsku,https://www.google.com/maps/place/Molo+w+Gda%C5%84sku/data=!4m7!3m6!1s0x46fd0b97b1d00921:0x9ffd3254d5b1d220!8m2!3d54.407593!4d18.6325201!16s%2Fg%2F11jzwbhtqz!19sChIJIQnQsZcL_UYRINKx1VQy_Z8?authuser=0&hl=en&rclk=1
54.4092178,18.638792,touristattraction,Stare Molo,https://www.google.com/maps/place/Stare+Molo/data=!4m7!3m6!1s0x46fd0bd20cd2fded:0x7f3de4b47d1e8fb1!8m2!3d54.4092178!4d18.638792!16s%2Fg%2F11jh6659vf!19sChIJ7f3SDNIL_UYRsY8efbTkPX8?authuser=0&hl=en&rclk=1
54.4114932,18.6295784,touristattraction,Plaża dla niepełnosprawnych,https://www.google.com/maps/place/Pla%C5%BCa+dla+niepe%C5%82nosprawnych/data=!4m7!3m6!1s0x46fd0bac9bac8dbf:0x7309cac9dc05b9c0!8m2!3d54.4114932!4d18.6295784!16s%2Fg%2F11rrp52jnq!19sChIJv42sm6wL_UYRwLkF3MnKCXM?authuser=0&hl=en&rclk=1
54.4062747,18.6611732,touristattraction,North Harbor Lighthouse,https://www.google.com/maps/place/North+Harbor+Lighthouse/data=!4m7!3m6!1s0x46fd0ca87a148eb9:0x90b2f9a13cebb9e!8m2!3d54.4062747!4d18.6611732!16s%2Fg%2F122tjb4n!19sChIJuY4UeqgM_UYRnrvOE5ovCwk?authuser=0&hl=en&rclk=1
54.4058291,18.6388295,touristattraction,Znak nawigacyjny,https://www.google.com/maps/place/Znak+nawigacyjny/data=!4m7!3m6!1s0x46fd0b4e19a3c689:0xaa1f8675cc6cb32f!8m2!3d54.4058291!4d18.6388295!16s%2Fg%2F11g8xfvp0b!19sChIJicajGU4L_UYRL7NszHWGH6o?authuser=0&hl=en&rclk=1
54.3934832,18.6149094,touristattraction,Pomnik Bojownikom o wolność Gdańska,https://www.google.com/maps/place/Pomnik+Bojownikom+o+wolno%C5%9B%C4%87+Gda%C5%84ska/data=!4m7!3m6!1s0x46fd7557c7618309:0x6a72c6e8fdb9cf6d!8m2!3d54.3934832!4d18.6149094!16s%2Fg%2F11rc10fbmk!19sChIJCYNhx1d1_UYRbc-5_ejGcmo?authuser=0&hl=en&rclk=1
54.4066017,18.668584,touristattraction,Westerplatte Museum,https://www.google.com/maps/place/Westerplatte+Museum/data=!4m7!3m6!1s0x46fd0cbac9171a89:0x82585cd83b78da2c!8m2!3d54.4066017!4d18.668584!16s%2Fg%2F11cm_q5vdw!19sChIJiRoXyboM_UYRLNp4O9hcWII?authuser=0&hl=en&rclk=1
54.4084278,18.6761397,touristattraction,Promenada,https://www.google.com/maps/place/Promenada/data=!4m7!3m6!1s0x46fd0d5b862ebf3b:0x2b269da1b5abc926!8m2!3d54.4084278!4d18.6761397!16s%2Fg%2F11nn45fvt3!19sChIJO78uhlsN_UYRJsmrtaGdJis?authuser=0&hl=en&rclk=1
54.4098427,18.6630943,touristattraction,Peace Embankment,https://www.google.com/maps/place/Peace+Embankment/data=!4m7!3m6!1s0x46fd0ca70dca262d:0xc0edbe0eb12c6a5!8m2!3d54.4098427!4d18.6630943!16s%2Fg%2F1tg66svp!19sChIJLSbKDacM_UYRpcYS6-DbDgw?authuser=0&hl=en&rclk=1
54.4060822,18.6689482,touristattraction,"""Never More War"" Sign",https://www.google.com/maps/place/%22Never+More+War%22+Sign/data=!4m7!3m6!1s0x46fd0dfe861d51e9:0x6bda76825d95dafb!8m2!3d54.4060822!4d18.6689482!16s%2Fg%2F11fmy2zjyl!19sChIJ6VEdhv4N_UYR-9qVXYJ22ms?authuser=0&hl=en&rclk=1
54.41054,18.663125,touristattraction,Nabieżnik dolny Westerplatte,https://www.google.com/maps/place/Nabie%C5%BCnik+dolny+Westerplatte/data=!4m7!3m6!1s0x46fd0de40a97bba7:0xb07a89f531c824cc!8m2!3d54.41054!4d18.663125!16s%2Fg%2F11pdgchl6h!19sChIJp7uXCuQN_UYRzCTIMfWJerA?authuser=0&hl=en&rclk=1
54.4037236,18.6848534,touristattraction,Plaża przy Westerplatte,https://www.google.com/maps/place/Pla%C5%BCa+przy+Westerplatte/data=!4m7!3m6!1s0x46fd0deaa539e7ed:0x34f061f1ee6dd30b!8m2!3d54.4037236!4d18.6848534!16s%2Fg%2F11q26pdl7t!19sChIJ7ec5peoN_UYRC9Nt7vFh8DQ?authuser=0&hl=en&rclk=1
54.3991464,18.669678,touristattraction,Najwyższy naturalny punkt Nowego Portu,https://www.google.com/maps/place/Najwy%C5%BCszy+naturalny+punkt+Nowego+Portu/data=!4m7!3m6!1s0x46fd0dcc6b13d46d:0xf8fca17ecbee96e0!8m2!3d54.3991464!4d18.669678!16s%2Fg%2F11tfny0g0d!19sChIJbdQTa8wN_UYR4Jbuy36h_Pg?authuser=0&hl=en&rclk=1
54.3935875,18.676798,touristattraction,Przystań POLsail - zatoka jachtów tradycyjnych,https://www.google.com/maps/place/Przysta%C5%84+POLsail+-+zatoka+jacht%C3%B3w+tradycyjnych/data=!4m7!3m6!1s0x46fd0dfe4624ba1f:0x4c8dd08b11ac540d!8m2!3d54.3935875!4d18.676798!16s%2Fg%2F11q8s78mch!19sChIJH7okRv4N_UYRDVSsEYvQjUw?authuser=0&hl=en&rclk=1
54.4015591,18.6803161,touristattraction,Zakręt Pięciu Gwizdków,https://www.google.com/maps/place/Zakr%C4%99t+Pi%C4%99ciu+Gwizdk%C3%B3w/data=!4m7!3m6!1s0x46fd0df8a461f80b:0x399541f576fa87a6!8m2!3d54.4015591!4d18.6803161!16s%2Fg%2F11fn260rb5!19sChIJC_hhpPgN_UYRpof6dvVBlTk?authuser=0&hl=en&rclk=1
54.3892222,18.4937778,touristattraction,Głaz Narzutowy,https://www.google.com/maps/place/G%C5%82az+Narzutowy/data=!4m7!3m6!1s0x46fd9f88b85f17ad:0xcea3462155f74a22!8m2!3d54.3892222!4d18.4937778!16s%2Fg%2F11j1snl85d!19sChIJrRdfuIif_UYRIkr3VSFGo84?authuser=0&hl=en&rclk=1
54.3932154,18.5101966,touristattraction,Diabelski Kamień,https://www.google.com/maps/place/Diabelski+Kamie%C5%84/data=!4m7!3m6!1s0x46fd75610f9d1239:0xf716b9bb1ccf659a!8m2!3d54.3932154!4d18.5101966!16s%2Fg%2F12mm8byvv!19sChIJORKdD2F1_UYRmmXPHLu5Fvc?authuser=0&hl=en&rclk=1
54.395903,18.494971,touristattraction,Głaz na Rozdrożu,https://www.google.com/maps/place/G%C5%82az+na+Rozdro%C5%BCu/data=!4m7!3m6!1s0x46fd9fb808fa5c39:0xe4431e297fff819f!8m2!3d54.395903!4d18.494971!16s%2Fg%2F11j07vzkh3!19sChIJOVz6CLif_UYRn4H_fykeQ-Q?authuser=0&hl=en&rclk=1
54.394144,18.503585,touristattraction,Kamień przy Drodze Węglowej,https://www.google.com/maps/place/Kamie%C5%84+przy+Drodze+W%C4%99glowej/data=!4m7!3m6!1s0x46fd9f89df5e0111:0x19e26fd5f7ee4a13!8m2!3d54.394144!4d18.503585!16s%2Fg%2F11h7zby0z2!19sChIJEQFe34mf_UYRE0ru99Vv4hk?authuser=0&hl=en&rclk=1
54.3886667,18.5155832,touristattraction,Dolina Bobrów,https://www.google.com/maps/place/Dolina+Bobr%C3%B3w/data=!4m7!3m6!1s0x46fd75e56b347733:0x5069f13f008f252b!8m2!3d54.3886667!4d18.5155832!16s%2Fg%2F11hftmcnwv!19sChIJM3c0a-V1_UYRKyWPAD_xaVA?authuser=0&hl=en&rclk=1
54.3955556,18.5113889,touristattraction,Głaz w Wykopie,https://www.google.com/maps/place/G%C5%82az+w+Wykopie/data=!4m7!3m6!1s0x46fd75ac01b82aa5:0xc0d84b04b960f81!8m2!3d54.3955556!4d18.5113889!16s%2Fg%2F11hzzf2p6f!19sChIJpSq4Aax1_UYRgQ-WS7CEDQw?authuser=0&hl=en&rclk=1
54.3895311,18.5469593,touristattraction,Najwyższe wzgórze VII Dworu,https://www.google.com/maps/place/Najwy%C5%BCsze+wzg%C3%B3rze+VII+Dworu/data=!4m7!3m6!1s0x46fd75ef073dd6c3:0x8b72eb967ca0c1d0!8m2!3d54.3895311!4d18.5469593!16s%2Fg%2F11jyyt11ry!19sChIJw9Y9B-91_UYR0MGgfJbrcos?authuser=0&hl=en&rclk=1
54.4031703,18.5710133,touristattraction,Olivia Garden,https://www.google.com/maps/place/Olivia+Garden/data=!4m7!3m6!1s0x46fd759301bb2c39:0x4c09da2d499121ac!8m2!3d54.4031703!4d18.5710133!16s%2Fg%2F11hm5xrkkl!19sChIJOSy7AZN1_UYRrCGRSS3aCUw?authuser=0&hl=en&rclk=1
54.4055093,18.5531838,touristattraction,park linowy Oliwa,https://www.google.com/maps/place/park+linowy+Oliwa/data=!4m7!3m6!1s0x46fd75fc42220b63:0xd410a83251801b56!8m2!3d54.4055093!4d18.5531838!16s%2Fg%2F11n0lvsvl8!19sChIJYwsiQvx1_UYRVhuAUTKoENQ?authuser=0&hl=en&rclk=1
54.3973028,18.5732282,touristattraction,Napis I Love UG,https://www.google.com/maps/place/Napis+I+Love+UG/data=!4m7!3m6!1s0x46fd753b0d8805ab:0x2f04e4662e7101b8!8m2!3d54.3973028!4d18.5732282!16s%2Fg%2F11qnt5r3hp!19sChIJqwWIDTt1_UYRuAFxLmbkBC8?authuser=0&hl=en&rclk=1
54.3944319,18.5879281,touristattraction,Mural - Wallride,https://www.google.com/maps/place/Mural+-+Wallride/data=!4m7!3m6!1s0x46fd75de35674b83:0x819524abb157b30c!8m2!3d54.3944319!4d18.5879281!16s%2Fg%2F11hympt1k8!19sChIJg0tnNd51_UYRDLNXsasklYE?authuser=0&hl=en&rclk=1
54.39143,18.595192,touristattraction,Mural - Shai Dahan,https://www.google.com/maps/place/Mural+-+Shai+Dahan/data=!4m7!3m6!1s0x46fd758ed6419803:0xfaa735c96fd7316c!8m2!3d54.39143!4d18.595192!16s%2Fg%2F11h426b5hp!19sChIJA5hB1o51_UYRbDHXb8k1p_o?authuser=0&hl=en&rclk=1
54.3908786,18.596188,touristattraction,Mural - Ozmo,https://www.google.com/maps/place/Mural+-+Ozmo/data=!4m7!3m6!1s0x46fd75c4227653cd:0x8d2f9c9385838165!8m2!3d54.3908786!4d18.596188!16s%2Fg%2F11h426dx_f!19sChIJzVN2IsR1_UYRZYGDhZOcL40?authuser=0&hl=en&rclk=1
54.3892455,18.6039062,touristattraction,Mural - Jub Monster,https://www.google.com/maps/place/Mural+-+Jub+Monster/data=!4m7!3m6!1s0x46fd7588f0322603:0x9b74912cac791fc5!8m2!3d54.3892455!4d18.6039062!16s%2Fg%2F11hz0wsns4!19sChIJAyYy8Ih1_UYRxR95rCyRdJs?authuser=0&hl=en&rclk=1
54.3912595,18.5925357,touristattraction,Mural - PGR ART,https://www.google.com/maps/place/Mural+-+PGR+ART/data=!4m7!3m6!1s0x46fd75e49503e00f:0xaababb6edac50d93!8m2!3d54.3912595!4d18.5925357!16s%2Fg%2F11flmp_wrv!19sChIJD-ADleR1_UYRkw3F2m67uqo?authuser=0&hl=en&rclk=1
54.3913872,18.6043819,touristattraction,Mural - Tim Portlock,https://www.google.com/maps/place/Mural+-+Tim+Portlock/data=!4m7!3m6!1s0x46fd7543dcd7efd3:0x6eb8eee2302e2776!8m2!3d54.3913872!4d18.6043819!16s%2Fg%2F11ng2dp9zp!19sChIJ0-_X3EN1_UYRdicuMOLuuG4?authuser=0&hl=en&rclk=1
54.3942999,18.5897192,touristattraction,Mural - David de La Mano + Pablo Sanchez,https://www.google.com/maps/place/Mural+-+David+de+La+Mano+%2B+Pablo+Sanchez/data=!4m7!3m6!1s0x46fd7585a1b1a295:0xd92a791278a463d9!8m2!3d54.3942999!4d18.5897192!16s%2Fg%2F11h4264z89!19sChIJlaKxoYV1_UYR2WOkeBJ5Ktk?authuser=0&hl=en&rclk=1
54.3945849,18.6376458,touristattraction,Wieża ciśnień w Letnicy,https://www.google.com/maps/place/Wie%C5%BCa+ci%C5%9Bnie%C5%84+w+Letnicy/data=!4m7!3m6!1s0x46fd757eb03673b3:0x5a5792df1552eee9!8m2!3d54.3945849!4d18.6376458!16s%2Fg%2F11k6qnfh5v!19sChIJs3M2sH51_UYR6e5SFd-SV1o?authuser=0&hl=en&rclk=1
54.3825,18.602623,touristattraction,Infomat turystyczny Pomorskie.travel,https://www.google.com/maps/place/Infomat+turystyczny+Pomorskie.travel/data=!4m7!3m6!1s0x46fd754573d9f8f1:0x97c812c85891320e!8m2!3d54.3825!4d18.602623!16s%2Fg%2F11h_7w0lyz!19sChIJ8fjZc0V1_UYRDjKRWMgSyJc?authuser=0&hl=en&rclk=1
54.3894439,18.6424745,touristattraction,Lew Hewelion - Piłkarz,https://www.google.com/maps/place/Lew+Hewelion+-+Pi%C5%82karz/data=!4m7!3m6!1s0x46fd74a84573b475:0xe4696cf0b6140d99!8m2!3d54.3894439!4d18.6424745!16s%2Fg%2F11h9rq3wyx!19sChIJdbRzRah0_UYRmQ0UtvBsaeQ?authuser=0&hl=en&rclk=1
54.398678,18.668475,touristattraction,Sól Życia / The Spice of Life,https://www.google.com/maps/place/S%C3%B3l+%C5%BBycia+%2F+The+Spice+of+Life/data=!4m7!3m6!1s0x46fd0dd90fc52cdd:0xe3278f7f908fe94f!8m2!3d54.398678!4d18.668475!16s%2Fg%2F11ppf76y8y!19sChIJ3SzFD9kN_UYRT-mPkH-PJ-M?authuser=0&hl=en&rclk=1
54.3937003,18.6753821,touristattraction,Kuter rybacki Incentive (zachęta),https://www.google.com/maps/place/Kuter+rybacki+Incentive+(zach%C4%99ta)/data=!4m7!3m6!1s0x46fd0d8c584fbb03:0xd289fc2ee37d070c!8m2!3d54.3937003!4d18.6753821!16s%2Fg%2F11nnh1jf46!19sChIJA7tPWIwN_UYRDAd94y78idI?authuser=0&hl=en&rclk=1
54.3955564,18.6814226,touristattraction,Wielka czerwona brama,https://www.google.com/maps/place/Wielka+czerwona+brama/data=!4m7!3m6!1s0x46fd0df2023b1a9d:0x603b3cdf331300aa!8m2!3d54.3955564!4d18.6814226!16s%2Fg%2F11rd_wnbtc!19sChIJnRo7AvIN_UYRqgATM988O2A?authuser=0&hl=en&rclk=1
52.2496078,21.0140991,touristattraction,Dawna street gateway,https://www.google.com/maps/place/Dawna+street+gateway/data=!4m7!3m6!1s0x471ecd1808803a81:0xbcbe4e5ce4c7a6ae!8m2!3d52.2496078!4d21.0140991!16s%2Fg%2F11hz1nt_gq!19sChIJgTqACBjNHkcRrqbH5FxOvrw?authuser=0&hl=en&rclk=1
52.2314539,21.0001124,touristattraction,Mural - żołnierz,https://www.google.com/maps/place/Mural+-+%C5%BCo%C5%82nierz/data=!4m7!3m6!1s0x471ecd65bdc0eda7:0xa4866f7f989417d!8m2!3d52.2314539!4d21.0001124!16s%2Fg%2F11s9dmcy28!19sChIJp-3AvWXNHkcRfUGJ-fdmSAo?authuser=0&hl=en&rclk=1
52.2453215,21.0062802,touristattraction,Mural Powstańcza Reduta Bank Polski,https://www.google.com/maps/place/Mural+Powsta%C5%84cza+Reduta+Bank+Polski/data=!4m7!3m6!1s0x471ecd51c666f61f:0x4465a444cb1a8ba0!8m2!3d52.2453215!4d21.0062802!16s%2Fg%2F11t26fq34l!19sChIJH_ZmxlHNHkcRoIsay0SkZUQ?authuser=0&hl=en&rclk=1
52.2496093,21.0140962,touristattraction,Blue passage gate,https://www.google.com/maps/place/Blue+passage+gate/data=!4m7!3m6!1s0x471ecd5638085ec7:0xa4eed4c17595ba3b!8m2!3d52.2496093!4d21.0140962!16s%2Fg%2F11fm59g44y!19sChIJx14IOFbNHkcRO7qVdcHU7qQ?authuser=0&hl=en&rclk=1
54.38255,18.4653976,touristattraction,Hewelion Lion at the airport,https://www.google.com/maps/place/Hewelion+Lion+at+the+airport/data=!4m7!3m6!1s0x46fd9f341c1ec465:0xb0786171d96b3e0c!8m2!3d54.38255!4d18.4653976!16s%2Fg%2F11h0zfz_kg!19sChIJZcQeHDSf_UYRDD5r2XFheLA?authuser=0&hl=en&rclk=1
54.394574,18.5176666,touristattraction,Tablica informacyjna Leśnictwa Matemblewo,https://www.google.com/maps/place/Tablica+informacyjna+Le%C5%9Bnictwa+Matemblewo/data=!4m7!3m6!1s0x46fd758a9f09ce75:0x9afeedffcd5c13e9!8m2!3d54.394574!4d18.5176666!16s%2Fg%2F11h8kty_m8!19sChIJdc4Jn4p1_UYR6RNczf_t_po?authuser=0&hl=en&rclk=1
54.3827052,18.5760234,touristattraction,Wiadukt Weisera,https://www.google.com/maps/place/Wiadukt+Weisera/data=!4m7!3m6!1s0x46fd74e11715393f:0x62963a60056dc475!8m2!3d54.3827052!4d18.5760234!16s%2Fg%2F1n3dwb5yb!19sChIJPzkVF-F0_UYRdcRtBWA6lmI?authuser=0&hl=en&rclk=1
54.3910538,18.5778638,touristattraction,Murale Strzyża PKM,https://www.google.com/maps/place/Murale+Strzy%C5%BCa+PKM/data=!4m7!3m6!1s0x46fd75292c3a8b29:0xa530cbd1abc842e2!8m2!3d54.3910538!4d18.5778638!16s%2Fg%2F11rfjctnz2!19sChIJKYs6LCl1_UYR4kLIq9HLMKU?authuser=0&hl=en&rclk=1
54.3916316,18.5949392,touristattraction,Mural - Run,https://www.google.com/maps/place/Mural+-+Run/data=!4m7!3m6!1s0x46fd7576d58a36fd:0xfd3f0a92d6c50c4e!8m2!3d54.3916316!4d18.5949392!16s%2Fg%2F11h41sp5s4!19sChIJ_TaK1XZ1_UYRTgzF1pIKP_0?authuser=0&hl=en&rclk=1
54.3796565,18.6123984,touristattraction,Ruiny kawiarni Bublitza (Gaststätte Bublitz),https://www.google.com/maps/place/Ruiny+kawiarni+Bublitza+(Gastst%C3%A4tte+Bublitz)/data=!4m7!3m6!1s0x46fd75d00b660ed3:0x7d4279117e6be3bc!8m2!3d54.3796565!4d18.6123984!16s%2Fg%2F11qq9gtbtk!19sChIJ0w5mC9B1_UYRvONrfhF5Qn0?authuser=0&hl=en&rclk=1
54.3819935,18.6074424,touristattraction,Park Kuźniczki,https://www.google.com/maps/place/Park+Ku%C5%BAniczki/data=!4m7!3m6!1s0x46fd74bfdc2a2305:0xa44636d5ecfcca38!8m2!3d54.3819935!4d18.6074424!16s%2Fg%2F121gjxhf!19sChIJBSMq3L90_UYROMr87NU2RqQ?authuser=0&hl=en&rclk=1
54.3485459,18.6532258,touristattraction,Neptune's Fountain,https://www.google.com/maps/place/Neptune's+Fountain/data=!4m7!3m6!1s0x46fd73a1d2d03071:0x80de874a0a33d731!8m2!3d54.3485459!4d18.6532258!16s%2Fg%2F122qx_c2!19sChIJcTDQ0qFz_UYRMdczCkqH3oA?authuser=0&hl=en&rclk=1
54.3695586,18.7421031,touristattraction,Bunkier,https://www.google.com/maps/place/Bunkier/data=!4m7!3m6!1s0x46fd736b58a7b243:0x261f9a7a8c19f961!8m2!3d54.3695586!4d18.7421031!16s%2Fg%2F11rsqp34fk!19sChIJQ7KnWGtz_UYRYfkZjHqaHyY?authuser=0&hl=en&rclk=1
54.374749,18.732818,touristattraction,Plaża - Gdańsk Stogi,https://www.google.com/maps/place/Pla%C5%BCa+-+Gda%C5%84sk+Stogi/data=!4m7!3m6!1s0x46fd73a9a60fde83:0x335a2cd2f2b80585!8m2!3d54.374749!4d18.732818!16s%2Fg%2F11fn66tl7n!19sChIJg94Ppqlz_UYRhQW48tIsWjM?authuser=0&hl=en&rclk=1
54.368327,18.778098,touristattraction,"Astro-boat - wynajem łodzi bez patentu, wynajem SUP","https://www.google.com/maps/place/Astro-boat+-+wynajem+%C5%82odzi+bez+patentu,+wynajem+SUP/data=!4m7!3m6!1s0x46fd6d56931fa95f:0x554268b4bc6a86c1!8m2!3d54.368327!4d18.778098!16s%2Fg%2F11qbn39ry6!19sChIJX6kfk1Zt_UYRwYZqvLRoQlU?authuser=0&hl=en&rclk=1"
52.2443621,21.0004517,touristattraction,Street Art,https://www.google.com/maps/place/Street+Art/data=!4m7!3m6!1s0x471ecd58c9785ef3:0xb9e7c327e3064b18!8m2!3d52.2443621!4d21.0004517!16s%2Fg%2F11t64d14my!19sChIJ8154yVjNHkcRGEsG4yfD57k?authuser=0&hl=en&rclk=1
52.248122,20.9831678,touristattraction,Mural Dzieci Muranowa,https://www.google.com/maps/place/Mural+Dzieci+Muranowa/data=!4m7!3m6!1s0x471ecb41621bcd3f:0xa94d78407a8c1cf2!8m2!3d52.248122!4d20.9831678!16s%2Fg%2F11mhcz3vg4!19sChIJP80bYkHLHkcR8hyMekB4Tak?authuser=0&hl=en&rclk=1
52.2518892,21.0026922,touristattraction,Mural,https://www.google.com/maps/place/Mural/data=!4m7!3m6!1s0x471ecc70605199d7:0xeea92293cfbed9b7!8m2!3d52.2518892!4d21.0026922!16s%2Fg%2F11dylzwd3y!19sChIJ15lRYHDMHkcRt9m-z5Miqe4?authuser=0&hl=en&rclk=1
52.2545947,21.0095917,touristattraction,Mural Powstania Warszawskiego,https://www.google.com/maps/place/Mural+Powstania+Warszawskiego/data=!4m7!3m6!1s0x471ecd062151d31d:0x4e51664bf6e34f07!8m2!3d52.2545947!4d21.0095917!16s%2Fg%2F11r8fz5jgz!19sChIJHdNRIQbNHkcRB0_j9ktmUU4?authuser=0&hl=en&rclk=1
52.2450471,20.9999917,touristattraction,Fountain,https://www.google.com/maps/place/Fountain/data=!4m7!3m6!1s0x471ecc7c9f7fc363:0x3b200a2da1681fc0!8m2!3d52.2450471!4d20.9999917!16s%2Fg%2F11gdlx557b!19sChIJY8N_n3zMHkcRwB9ooS0KIDs?authuser=0&hl=en&rclk=1
52.2471891,20.9978021,touristattraction,Mural with perspective,https://www.google.com/maps/place/Mural+with+perspective/data=!4m7!3m6!1s0x471ecd339f35abef:0x5a5f1819ea6e74ef!8m2!3d52.2471891!4d20.9978021!16s%2Fg%2F11h8gxz98r!19sChIJ76s1nzPNHkcR73Ru6hkYX1o?authuser=0&hl=en&rclk=1
54.3670578,18.4984684,touristattraction,Czarna Strzyża,https://www.google.com/maps/place/Czarna+Strzy%C5%BCa/data=!4m7!3m6!1s0x46fd75260683e741:0x7dfcc04d364b7e60!8m2!3d54.3670578!4d18.4984684!16s%2Fg%2F11rswm3v27!19sChIJQeeDBiZ1_UYRYH5LNk3A_H0?authuser=0&hl=en&rclk=1
54.3672619,18.4945147,touristattraction,Staw Strzyski (dziś najsilniejsze źródło Strzyży),https://www.google.com/maps/place/Staw+Strzyski+(dzi%C5%9B+najsilniejsze+%C5%BAr%C3%B3d%C5%82o+Strzy%C5%BCy)/data=!4m7!3m6!1s0x46fd7554a1c82b9f:0x10dca6e6fa48eceb!8m2!3d54.3672619!4d18.4945147!16s%2Fg%2F11rwlc59jd!19sChIJnyvIoVR1_UYR6-xI-uam3BA?authuser=0&hl=en&rclk=1
54.3639732,18.4932964,touristattraction,Historyczne (dziś słabsze) źródło Strzyży,https://www.google.com/maps/place/Historyczne+(dzi%C5%9B+s%C5%82absze)+%C5%BAr%C3%B3d%C5%82o+Strzy%C5%BCy/data=!4m7!3m6!1s0x46fd75c734540491:0x6d5448ccbefa1c4a!8m2!3d54.3639732!4d18.4932964!16s%2Fg%2F11n_z41d98!19sChIJkQRUNMd1_UYRShz6vsxIVG0?authuser=0&hl=en&rclk=1
54.3651437,18.5024153,touristattraction,Źródliska Strzyży,https://www.google.com/maps/place/%C5%B9r%C3%B3dliska+Strzy%C5%BCy/data=!4m7!3m6!1s0x46fd75d0f0ea61ef:0x29245d6f3cdf6ad3!8m2!3d54.3651437!4d18.5024153!16s%2Fg%2F11ng_zkz3g!19sChIJ72Hq8NB1_UYR02rfPG9dJCk?authuser=0&hl=en&rclk=1
54.3900551,18.5055534,touristattraction,Głaz na Wzgórzu,https://www.google.com/maps/place/G%C5%82az+na+Wzg%C3%B3rzu/data=!4m7!3m6!1s0x46fd753af2790c6b:0x2aa789f30f36ee22!8m2!3d54.3900551!4d18.5055534!16s%2Fg%2F11fjbkqsvs!19sChIJawx58jp1_UYRIu42D_OJpyo?authuser=0&hl=en&rclk=1
54.3734383,18.5254048,touristattraction,Najwyższe wzgórze Brętowa,https://www.google.com/maps/place/Najwy%C5%BCsze+wzg%C3%B3rze+Br%C4%99towa/data=!4m7!3m6!1s0x46fd75a52f6343e9:0xd51a80aeee474a86!8m2!3d54.3734383!4d18.5254048!16s%2Fg%2F11jz8kqxgw!19sChIJ6UNjL6V1_UYRhkpH7q6AGtU?authuser=0&hl=en&rclk=1
54.3690664,18.6169799,touristattraction,Stary Sobieski Reservoir,https://www.google.com/maps/place/Stary+Sobieski+Reservoir/data=!4m7!3m6!1s0x46fd749ad3a23e95:0xcf7420cfbca8393b!8m2!3d54.3690664!4d18.6169799!16s%2Fg%2F11c76n231x!19sChIJlT6i05p0_UYROzmovM8gdM8?authuser=0&hl=en&rclk=1
54.3483187,18.6540384,touristattraction,Long Market,https://www.google.com/maps/place/Long+Market/data=!4m7!3m6!1s0x46fd73a1cb5fa973:0x5b6e2bb9417050af!8m2!3d54.3483187!4d18.6540384!16s%2Fm%2F03cgh7v!19sChIJc6lfy6Fz_UYRr1BwQbkrbls?authuser=0&hl=en&rclk=1
54.3733427,18.6290626,touristattraction,Dzwonnica Cmentarza Lutra,https://www.google.com/maps/place/Dzwonnica+Cmentarza+Lutra/data=!4m7!3m6!1s0x46fd759806a48f23:0xc5fe6e3e383a695e!8m2!3d54.3733427!4d18.6290626!16s%2Fg%2F11q4dl63xl!19sChIJI4-kBph1_UYRXmk6OD5u_sU?authuser=0&hl=en&rclk=1
54.3504988,18.6574274,touristattraction,Stary żuraw portowy,https://www.google.com/maps/place/Stary+%C5%BCuraw+portowy/data=!4m7!3m6!1s0x46fd73a71ad66957:0x9dd0859aad9f2fc1!8m2!3d54.3504988!4d18.6574274!16s%2Fg%2F120t41jn!19sChIJV2nWGqdz_UYRwS-frZqF0J0?authuser=0&hl=en&rclk=1
54.3609771,18.6594992,touristattraction,"Rzeźba ""Rozbitkowie"" Czesława Podleśnego",https://www.google.com/maps/place/Rze%C5%BAba+%22Rozbitkowie%22+Czes%C5%82awa+Podle%C5%9Bnego/data=!4m7!3m6!1s0x46fd734fe95081b1:0x5c43bad6edbc02f5!8m2!3d54.3609771!4d18.6594992!16s%2Fg%2F11jwtyzz75!19sChIJsYFQ6U9z_UYR9QK87da6Q1w?authuser=0&hl=en&rclk=1
54.3568564,18.6405266,touristattraction,Góra Gradowa,https://www.google.com/maps/place/G%C3%B3ra+Gradowa/data=!4m7!3m6!1s0x46fd73777d678f75:0x468d96375a53e32b!8m2!3d54.3568564!4d18.6405266!16s%2Fg%2F123977wb!19sChIJdY9nfXdz_UYRK-NTWjeWjUY?authuser=0&hl=en&rclk=1
54.3702174,18.7383514,touristattraction,Szlak fortyfikacji nadmorskich,https://www.google.com/maps/place/Szlak+fortyfikacji+nadmorskich/data=!4m7!3m6!1s0x46fd72c636f6bfa5:0xc60079bcf1ab6f34!8m2!3d54.3702174!4d18.7383514!16s%2Fg%2F11hdb1lwq7!19sChIJpb_2NsZy_UYRNG-r8bx5AMY?authuser=0&hl=en&rclk=1
54.3700506,18.7776964,touristattraction,Maszt radionawigacyjny,https://www.google.com/maps/place/Maszt+radionawigacyjny/data=!4m7!3m6!1s0x46fd6d9993e2c6cb:0x1445b381a4582d3!8m2!3d54.3700506!4d18.7776964!16s%2Fg%2F11jcqs30yg!19sChIJy8bik5lt_UYR04JFGjhbRAE?authuser=0&hl=en&rclk=1
52.2150475,21.035814,touristattraction,Palace on the Isle,https://www.google.com/maps/place/Palace+on+the+Isle/data=!4m7!3m6!1s0x471ecd1e8cf37e3f:0xbae128cd6ad4bdf3!8m2!3d52.2150475!4d21.035814!16s%2Fm%2F025xqfq!19sChIJP37zjB7NHkcR873Uas0o4bo?authuser=0&hl=en&rclk=1
54.3503007,18.4663717,touristattraction,Granica gdańsko-kaszubska,https://www.google.com/maps/place/Granica+gda%C5%84sko-kaszubska/data=!4m7!3m6!1s0x46fd9fc3959bcdcb:0xa32be8dafb7376bc!8m2!3d54.3503007!4d18.4663717!16s%2Fg%2F11pc9npv6s!19sChIJy82blcOf_UYRvHZz-9roK6M?authuser=0&hl=en&rclk=1
54.3731102,18.6297348,touristattraction,Oryginalny płot Cmentarza Lutra,https://www.google.com/maps/place/Oryginalny+p%C5%82ot+Cmentarza+Lutra/data=!4m7!3m6!1s0x46fd75f1b33a52e7:0x8ddd2291e56b5a67!8m2!3d54.3731102!4d18.6297348!16s%2Fg%2F11sx0dxlkt!19sChIJ51I6s_F1_UYRZ1pr5ZEi3Y0?authuser=0&hl=en&rclk=1
54.3513217,18.5524579,touristattraction,Molo Jasień Gdańsk,https://www.google.com/maps/place/Molo+Jasie%C5%84+Gda%C5%84sk/data=!4m7!3m6!1s0x46fd7566a3d75137:0xc7dc3fb6cf413c6c!8m2!3d54.3513217!4d18.5524579!16s%2Fg%2F11p0zrtnhj!19sChIJN1HXo2Z1_UYRbDxBz7Y_3Mc?authuser=0&hl=en&rclk=1
54.3633888,18.5435038,touristattraction,Jar Nowiecki (Nawitzthal),https://www.google.com/maps/place/Jar+Nowiecki+(Nawitzthal)/data=!4m7!3m6!1s0x46fd75e432606749:0x88ba21eeb317da8d!8m2!3d54.3633888!4d18.5435038!16s%2Fg%2F11p4yc63sy!19sChIJSWdgMuR1_UYRjdoXs-4huog?authuser=0&hl=en&rclk=1
54.3595454,18.5462134,touristattraction,Kaskady strumienia,https://www.google.com/maps/place/Kaskady+strumienia/data=!4m7!3m6!1s0x46fd75027262b6fb:0x7e48887ec45c4eaa!8m2!3d54.3595454!4d18.5462134!16s%2Fg%2F11h057q0z_!19sChIJ-7ZicgJ1_UYRqk5cxH6ISH4?authuser=0&hl=en&rclk=1
54.3731437,18.5275308,touristattraction,Góra Matemblewska,https://www.google.com/maps/place/G%C3%B3ra+Matemblewska/data=!4m7!3m6!1s0x46fd75166b39bcf1:0xdd889085cabcfe86!8m2!3d54.3731437!4d18.5275308!16s%2Fg%2F11qq1y3bbh!19sChIJ8bw5axZ1_UYRhv68yoWQiN0?authuser=0&hl=en&rclk=1
54.3829911,18.5697826,touristattraction,Głaz Przemysława Dżangel Dyferencjał,https://www.google.com/maps/place/G%C5%82az+Przemys%C5%82awa+D%C5%BCangel+Dyferencja%C5%82/data=!4m7!3m6!1s0x46fd75d6e04c55c1:0xc46644b08178d4c7!8m2!3d54.3829911!4d18.5697826!16s%2Fg%2F11gh_kgyrz!19sChIJwVVM4NZ1_UYRx9R4gbBEZsQ?authuser=0&hl=en&rclk=1
54.3662354,18.5745803,touristattraction,Punkt Widokowy Piecki-Migowo,https://www.google.com/maps/place/Punkt+Widokowy+Piecki-Migowo/data=!4m7!3m6!1s0x46fd75d9ede2279f:0xba31f9a3f2698301!8m2!3d54.3662354!4d18.5745803!16s%2Fg%2F11ny2fbc_t!19sChIJnyfi7dl1_UYRAYNp8qP5Mbo?authuser=0&hl=en&rclk=1
54.3526481,18.5739794,touristattraction,Dwór - Migowo,https://www.google.com/maps/place/Dw%C3%B3r+-+Migowo/data=!4m7!3m6!1s0x46fd75d857c6ba73:0x328345b658fcc1ab!8m2!3d54.3526481!4d18.5739794!16s%2Fg%2F11k7smptx1!19sChIJc7rGV9h1_UYRq8H8WLZFgzI?authuser=0&hl=en&rclk=1
54.3830856,18.5756442,touristattraction,Najwyższy naturalny punkt Strzyży,https://www.google.com/maps/place/Najwy%C5%BCszy+naturalny+punkt+Strzy%C5%BCy/data=!4m7!3m6!1s0x46fd75f1294d199b:0x2ed4198d03e7db91!8m2!3d54.3830856!4d18.5756442!16s%2Fg%2F11tf1c1_2d!19sChIJmxlNKfF1_UYRkdvnA40Z1C4?authuser=0&hl=en&rclk=1
54.3583508,18.5799897,touristattraction,Pomnik przyrody dąb szypułkowy,https://www.google.com/maps/place/Pomnik+przyrody+d%C4%85b+szypu%C5%82kowy/data=!4m7!3m6!1s0x46fd75bf8bb88c77:0xafbb3cbdd76f2b6f!8m2!3d54.3583508!4d18.5799897!16s%2Fg%2F11rhdxjgb8!19sChIJd4y4i791_UYRbytv1708u68?authuser=0&hl=en&rclk=1
54.3671387,18.6028259,touristattraction,Ruiny Górzyny,https://www.google.com/maps/place/Ruiny+G%C3%B3rzyny/data=!4m7!3m6!1s0x46fd7579dd35be8b:0x11465d54d438bbea!8m2!3d54.3671387!4d18.6028259!16s%2Fg%2F11j6ywdyth!19sChIJi7413Xl1_UYR6rs41FRdRhE?authuser=0&hl=en&rclk=1
54.3785359,18.5987287,touristattraction,Mural z Krawczykiem,https://www.google.com/maps/place/Mural+z+Krawczykiem/data=!4m7!3m6!1s0x46fd75bb6d14be49:0xb6a9d48e6ae30fc8!8m2!3d54.3785359!4d18.5987287!16s%2Fg%2F11r9wb_zb3!19sChIJSb4Ubbt1_UYRyA_jao7UqbY?authuser=0&hl=en&rclk=1
54.3744309,18.613003,touristattraction,Mural - Zbigniew Wodecki,https://www.google.com/maps/place/Mural+-+Zbigniew+Wodecki/data=!4m7!3m6!1s0x46fd75e045486d47:0x6271a855ede26e19!8m2!3d54.3744309!4d18.613003!16s%2Fg%2F11hzv44lbr!19sChIJR21IReB1_UYRGW7i7VWocWI?authuser=0&hl=en&rclk=1
54.3671717,18.5998779,touristattraction,Głaz Narzutowy,https://www.google.com/maps/place/G%C5%82az+Narzutowy/data=!4m7!3m6!1s0x46fd75c078469687:0x3e0ab0b3f682b04d!8m2!3d54.3671717!4d18.5998779!16s%2Fg%2F11q33b926r!19sChIJh5ZGeMB1_UYRTbCC9rOwCj4?authuser=0&hl=en&rclk=1
54.3717731,18.6314065,touristattraction,Najwyższy naturalny punkt Młynisk,https://www.google.com/maps/place/Najwy%C5%BCszy+naturalny+punkt+M%C5%82ynisk/data=!4m7!3m6!1s0x46fd75c87deca137:0xc4e626da969d2a5b!8m2!3d54.3717731!4d18.6314065!16s%2Fg%2F11tfn8xmfr!19sChIJN6Hsfch1_UYRWyqdltom5sQ?authuser=0&hl=en&rclk=1
54.355102,18.6162798,touristattraction,Tablicą edukacyjna Siedlce,https://www.google.com/maps/place/Tablic%C4%85+edukacyjna+Siedlce/data=!4m7!3m6!1s0x46fd75e195d5003f:0x89206f1a60952da6!8m2!3d54.355102!4d18.6162798!16s%2Fg%2F11nn0yvt7r!19sChIJPwDVleF1_UYRpi2VYBpvIIk?authuser=0&hl=en&rclk=1
54.3711864,18.6052453,touristattraction,Grzbiet Książęcy,https://www.google.com/maps/place/Grzbiet+Ksi%C4%85%C5%BC%C4%99cy/data=!4m7!3m6!1s0x46fd75570fe3fc1b:0x10dedbe9101b6499!8m2!3d54.3711864!4d18.6052453!16s%2Fg%2F11sc2kn9zq!19sChIJG_zjD1d1_UYRmWQbEOnb3hA?authuser=0&hl=en&rclk=1
54.3695561,18.6064307,touristattraction,Ruiny Café Königshöhe,https://www.google.com/maps/place/Ruiny+Caf%C3%A9+K%C3%B6nigsh%C3%B6he/data=!4m7!3m6!1s0x46fd751267cbbd87:0xc89626b563d601cc!8m2!3d54.3695561!4d18.6064307!16s%2Fg%2F11qrbf0r_x!19sChIJh73LZxJ1_UYRzAHWY7Umlsg?authuser=0&hl=en&rclk=1
54.3780901,18.6025595,touristattraction,Mural Anna Przybylska,https://www.google.com/maps/place/Mural+Anna+Przybylska/data=!4m7!3m6!1s0x46fd75454d76f057:0x348f32fe9190a2dc!8m2!3d54.3780901!4d18.6025595!16s%2Fg%2F11rjv92l2j!19sChIJV_B2TUV1_UYR3KKQkf4yjzQ?authuser=0&hl=en&rclk=1
54.3720867,18.6002854,touristattraction,Głaz upamiętniający posadzenie dębu w 1863 r.,https://www.google.com/maps/place/G%C5%82az+upami%C4%99tniaj%C4%85cy+posadzenie+d%C4%99bu+w+1863+r./data=!4m7!3m6!1s0x46fd74929644d965:0xe8059abdce84ad85!8m2!3d54.3720867!4d18.6002854!16s%2Fg%2F1jkxx1tr0!19sChIJZdlElpJ0_UYRha2Ezr2aBeg?authuser=0&hl=en&rclk=1
54.3739714,18.6041324,touristattraction,Fundamenty ogrodzenia ogrodu Dworu Frommów sprzed poszerzenia ulicy w latach '70 XX w.,https://www.google.com/maps/place/Fundamenty+ogrodzenia+ogrodu+Dworu+Fromm%C3%B3w+sprzed+poszerzenia+ulicy+w+latach+'70+XX+w./data=!4m7!3m6!1s0x46fd7535ffbb774f:0xcaa96a55cfd087c1!8m2!3d54.3739714!4d18.6041324!16s%2Fg%2F11n5btdd_s!19sChIJT3e7_zV1_UYRwYfQz1Vqqco?authuser=0&hl=en&rclk=1
54.3460623,18.6051592,touristattraction,Punkt Widokowy Siedlce,https://www.google.com/maps/place/Punkt+Widokowy+Siedlce/data=!4m7!3m6!1s0x46fd750bdcb777df:0x42aa7e0bf3671bc2!8m2!3d54.3460623!4d18.6051592!16s%2Fg%2F11jk22kg1w!19sChIJ33e33At1_UYRwhtn8wt-qkI?authuser=0&hl=en&rclk=1
54.366155,18.6270003,touristattraction,Pomnik Stefana Michalaka,https://www.google.com/maps/place/Pomnik+Stefana+Michalaka/data=!4m7!3m6!1s0x46fd753808d3c439:0xb75e030dfbb8b5aa!8m2!3d54.366155!4d18.6270003!16s%2Fg%2F11n84095tv!19sChIJOcTTCDh1_UYRqrW4-w0DXrc?authuser=0&hl=en&rclk=1
54.365513,18.614883,touristattraction,Głaz przy Krętej,https://www.google.com/maps/place/G%C5%82az+przy+Kr%C4%99tej/data=!4m7!3m6!1s0x46fd75280f5dad11:0x533884e0ea5d8470!8m2!3d54.365513!4d18.614883!16s%2Fg%2F11fn9cn_f9!19sChIJEa1dDyh1_UYRcIRd6uCEOFM?authuser=0&hl=en&rclk=1
54.350581,18.6572974,touristattraction,ELECTRI GDANSK CITY TOUR,https://www.google.com/maps/place/ELECTRI+GDANSK+CITY+TOUR/data=!4m7!3m6!1s0x46fd73a5da655523:0x218bc703d3e8206c!8m2!3d54.350581!4d18.6572974!16s%2Fg%2F11b76p7l68!19sChIJI1Vl2qVz_UYRbCDo0wPHiyE?authuser=0&hl=en&rclk=1
54.356594,18.6386956,touristattraction,Fort Góry Gradowej,https://www.google.com/maps/place/Fort+G%C3%B3ry+Gradowej/data=!4m7!3m6!1s0x46fd7379c4ee7813:0xb71839502bd2ebfe!8m2!3d54.356594!4d18.6386956!16s%2Fg%2F11fzc4sf5f!19sChIJE3juxHlz_UYR_uvSK1A5GLc?authuser=0&hl=en&rclk=1
54.3645336,18.6422395,touristattraction,Kładka z widokiem na Dźwigi Stoczniowego,https://www.google.com/maps/place/K%C5%82adka+z+widokiem+na+D%C5%BAwigi+Stoczniowego/data=!4m7!3m6!1s0x46fd7382ecbb670d:0x51a0b3dd714d8bb9!8m2!3d54.3645336!4d18.6422395!16s%2Fg%2F11mvpkg228!19sChIJDWe77IJz_UYRuYtNcd2zoFE?authuser=0&hl=en&rclk=1
54.3523449,18.6501483,touristattraction,Pamiątkowa fontanna - Wodopój,https://www.google.com/maps/place/Pami%C4%85tkowa+fontanna+-+Wodop%C3%B3j/data=!4m7!3m6!1s0x46fd73758385885b:0xe45e9f48988a1c76!8m2!3d54.3523449!4d18.6501483!16s%2Fg%2F1jkxnh65f!19sChIJW4iFg3Vz_UYRdhyKmEifXuQ?authuser=0&hl=en&rclk=1
54.3510728,18.6555992,touristattraction,Mural Gdańsk pełen tajemnic - Szeroka,https://www.google.com/maps/place/Mural+Gda%C5%84sk+pe%C5%82en+tajemnic+-+Szeroka/data=!4m7!3m6!1s0x46fd73d1df4fa089:0x7e6bea0fcbc7a11b!8m2!3d54.3510728!4d18.6555992!16s%2Fg%2F11lh82h_0_!19sChIJiaBP39Fz_UYRG6HHyw_qa34?authuser=0&hl=en&rclk=1
54.3576721,18.6402317,touristattraction,Krzyż Milenijny,https://www.google.com/maps/place/Krzy%C5%BC+Milenijny/data=!4m7!3m6!1s0x46fd7379dd79cfff:0x6963f09c4e9a2734!8m2!3d54.3576721!4d18.6402317!16s%2Fg%2F1ywqf_rs_!19sChIJ_8953Xlz_UYRNCeaTpzwY2k?authuser=0&hl=en&rclk=1
54.3536804,18.6484719,touristattraction,"Most Chlebowy - ""Most Miłości""",https://www.google.com/maps/place/Most+Chlebowy+-+%22Most+Mi%C5%82o%C5%9Bci%22/data=!4m7!3m6!1s0x46fd7375c2e53791:0x401b091131196d85!8m2!3d54.3536804!4d18.6484719!16s%2Fg%2F11c525wttg!19sChIJkTflwnVz_UYRhW0ZMREJG0A?authuser=0&hl=en&rclk=1
54.353755,18.6487415,touristattraction,Kanał Raduni,https://www.google.com/maps/place/Kana%C5%82+Raduni/data=!4m7!3m6!1s0x46fd7375b01505a3:0x38dcb6ce2ad8bb65!8m2!3d54.353755!4d18.6487415!16s%2Fg%2F1tdjvqf5!19sChIJowUVsHVz_UYRZbvYKs623Dg?authuser=0&hl=en&rclk=1
54.3622472,18.6439571,touristattraction,Wiadukt Nowa Wałowa,https://www.google.com/maps/place/Wiadukt+Nowa+Wa%C5%82owa/data=!4m7!3m6!1s0x46fd738b56ebf903:0xd5aa23aaf7517c3c!8m2!3d54.3622472!4d18.6439571!16s%2Fg%2F11lgm_0t7y!19sChIJA_nrVotz_UYRPHxR96ojqtU?authuser=0&hl=en&rclk=1
54.3615461,18.6435011,touristattraction,Pozostałość po starym wiadukcie,https://www.google.com/maps/place/Pozosta%C5%82o%C5%9B%C4%87+po+starym+wiadukcie/data=!4m7!3m6!1s0x46fd73b527f9029f:0x8b2f3029636ffd48!8m2!3d54.3615461!4d18.6435011!16s%2Fg%2F11hdygy5sk!19sChIJnwL5J7Vz_UYRSP1vYykwL4s?authuser=0&hl=en&rclk=1
54.3529362,18.6599285,touristattraction,Gdańsk Neon Sign,https://www.google.com/maps/place/Gda%C5%84sk+Neon+Sign/data=!4m7!3m6!1s0x46fd730a55a9e0b5:0xa8d392d9f2564153!8m2!3d54.3529362!4d18.6599285!16s%2Fg%2F11f2rqs4ss!19sChIJteCpVQpz_UYRU0FW8tmS06g?authuser=0&hl=en&rclk=1
54.3610681,18.6600145,touristattraction,Sea Sculptures,https://www.google.com/maps/place/Sea+Sculptures/data=!4m7!3m6!1s0x46fd733f2ce30e5b:0x90b0f638b9826c0c!8m2!3d54.3610681!4d18.6600145!16s%2Fg%2F11jcmlf2rp!19sChIJWw7jLD9z_UYRDGyCuTj2sJA?authuser=0&hl=en&rclk=1
54.350569,18.6593164,touristattraction,Lew Hewelion - Marynarz,https://www.google.com/maps/place/Lew+Hewelion+-+Marynarz/data=!4m7!3m6!1s0x46fd730a79cb54c1:0xff598bf9353aeed9!8m2!3d54.350569!4d18.6593164!16s%2Fg%2F11fy2lwlhy!19sChIJwVTLeQpz_UYR2e46NfmLWf8?authuser=0&hl=en&rclk=1
54.3614768,18.6591687,touristattraction,Stocznia Cesarska - punkt informacyjny,https://www.google.com/maps/place/Stocznia+Cesarska+-+punkt+informacyjny/data=!4m7!3m6!1s0x46fd731af2ef3387:0x22b1d1b6ca6aee76!8m2!3d54.3614768!4d18.6591687!16s%2Fg%2F11jwttnz28!19sChIJhzPv8hpz_UYRdu5qyrbRsSI?authuser=0&hl=en&rclk=1
54.3552945,18.6551952,touristattraction,Murale Obrońców Poczty Polskiej w Gdańsku,https://www.google.com/maps/place/Murale+Obro%C5%84c%C3%B3w+Poczty+Polskiej+w+Gda%C5%84sku/data=!4m7!3m6!1s0x46fd73a3f4fe191f:0x7c071d37a153decb!8m2!3d54.3552945!4d18.6551952!16s%2Fg%2F11rgw_cscw!19sChIJHxn-9KNz_UYRy95ToTcdB3w?authuser=0&hl=en&rclk=1
54.3488054,18.6979207,touristattraction,Tunel im. Grzegorza Oryszczaka,https://www.google.com/maps/place/Tunel+im.+Grzegorza+Oryszczaka/data=!4m7!3m6!1s0x46fd738aa35956ed:0xcd2bedea6b970af4!8m2!3d54.3488054!4d18.6979207!16s%2Fg%2F11rgfv8gvh!19sChIJ7VZZo4pz_UYR9AqXa-rtK80?authuser=0&hl=en&rclk=1
54.3509362,18.6585288,touristattraction,Statek Generał Zaruski,https://www.google.com/maps/place/Statek+Genera%C5%82+Zaruski/data=!4m7!3m6!1s0x46fd731730f2e8bb:0x7ab9fe5f3bb64d78!8m2!3d54.3509362!4d18.6585288!16s%2Fg%2F11fn9pddbs!19sChIJu-jyMBdz_UYReE22O1_-uXo?authuser=0&hl=en&rclk=1
54.3472173,18.6597776,touristattraction,"Stągwie Mleczne, Gdańsk","https://www.google.com/maps/place/St%C4%85gwie+Mleczne,+Gda%C5%84sk/data=!4m7!3m6!1s0x46fd73a12a25ea1b:0x554d1ab4b653a2fe!8m2!3d54.3472173!4d18.6597776!16s%2Fg%2F12301zbf!19sChIJG-olKqFz_UYR_qJTtrQaTVU?authuser=0&hl=en&rclk=1"
54.3481408,18.6571304,touristattraction,DEO PLAZA Biuro Sprzedaży,https://www.google.com/maps/place/DEO+PLAZA+Biuro+Sprzeda%C5%BCy/data=!4m7!3m6!1s0x46fd73a0f2785be3:0xaf045d908b3feedc!8m2!3d54.3481408!4d18.6571304!16s%2Fg%2F11cp7r3jgq!19sChIJ41t48qBz_UYR3O4_i5BdBK8?authuser=0&hl=en&rclk=1
54.3555934,18.6835237,touristattraction,Mural Looney - bajki Disneya,https://www.google.com/maps/place/Mural+Looney+-+bajki+Disneya/data=!4m7!3m6!1s0x46fd738c5762d9c9:0x64fcba6e77d0b790!8m2!3d54.3555934!4d18.6835237!16s%2Fg%2F11pxdt1nqw!19sChIJydliV4xz_UYRkLfQd266_GQ?authuser=0&hl=en&rclk=1
54.3669424,18.7761293,touristattraction,STREFA MORSOWANIA AZS,https://www.google.com/maps/place/STREFA+MORSOWANIA+AZS/data=!4m7!3m6!1s0x46fd6d4c0cfd1419:0x512ff0c02fd8c9cc!8m2!3d54.3669424!4d18.7761293!16s%2Fg%2F11j2mmff5m!19sChIJGRT9DExt_UYRzMnYL8DwL1E?authuser=0&hl=en&rclk=1
54.347874,18.784018,touristattraction,Najwyższy naturalny punkt Rudników,https://www.google.com/maps/place/Najwy%C5%BCszy+naturalny+punkt+Rudnik%C3%B3w/data=!4m7!3m6!1s0x46fd6d1cee2a3a87:0xae245c7361667316!8m2!3d54.347874!4d18.784018!16s%2Fg%2F11td0t6kqx!19sChIJhzoq7hxt_UYRFnNmYXNcJK4?authuser=0&hl=en&rclk=1
54.3552852,18.7807923,touristattraction,"Quellberg, highest dune of Westlich-Neufähr","https://www.google.com/maps/place/Quellberg,+highest+dune+of+Westlich-Neuf%C3%A4hr/data=!4m7!3m6!1s0x46fd6d991376c8bb:0x2147d1be0ae123bb!8m2!3d54.3552852!4d18.7807923!16s%2Fg%2F11k0s039cf!19sChIJu8h2E5lt_UYRuyPhCr7RRyE?authuser=0&hl=en&rclk=1"
54.3518661,18.7912087,touristattraction,altana przy Ptasim Raju,https://www.google.com/maps/place/altana+przy+Ptasim+Raju/data=!4m7!3m6!1s0x46fd6d0077f6761b:0xf1835cd032da9aed!8m2!3d54.3518661!4d18.7912087!16s%2Fg%2F11kxbz_xh9!19sChIJG3b2dwBt_UYR7ZraMtBcg_E?authuser=0&hl=en&rclk=1
54.3675671,18.7775281,touristattraction,"Sea Fishing ""LEON"" and ""Gadus"" - Cod, Salmon","https://www.google.com/maps/place/Sea+Fishing+%22LEON%22+and+%22Gadus%22+-+Cod,+Salmon/data=!4m7!3m6!1s0x46fd7235b8d87dc1:0x9af1d88351e6dcfa!8m2!3d54.3675671!4d18.7775281!16s%2Fg%2F11b75mn3vm!19sChIJwX3YuDVy_UYR-tzmUYPY8Zo?authuser=0&hl=en&rclk=1"
54.3601477,18.8155829,touristattraction,Plaża 19 - Gdańsk,https://www.google.com/maps/place/Pla%C5%BCa+19+-+Gda%C5%84sk/data=!4m7!3m6!1s0x46fd6daffa51353f:0x61b995092048e4fa!8m2!3d54.3601477!4d18.8155829!16s%2Fg%2F11h4y5swf2!19sChIJPzVR-q9t_UYR-uRIIAmVuWE?authuser=0&hl=en&rclk=1
54.3508068,18.7919795,touristattraction,Chata na Wyspie,https://www.google.com/maps/place/Chata+na+Wyspie/data=!4m7!3m6!1s0x46fd6dfda627bed7:0x5b1f04068905d281!8m2!3d54.3508068!4d18.7919795!16s%2Fg%2F11qh2y758j!19sChIJ174npv1t_UYRgdIFiQYEH1s?authuser=0&hl=en&rclk=1
54.3429037,18.8874396,touristattraction,Wordelberg—highest dune of Bohnsacker Insel and the whole of Tricity,https://www.google.com/maps/place/Wordelberg%E2%80%94highest+dune+of+Bohnsacker+Insel+and+the+whole+of+Tricity/data=!4m7!3m6!1s0x46fd6d469e01674d:0x15f68bef2c163df6!8m2!3d54.3429037!4d18.8874396!16s%2Fg%2F11h51jl0th!19sChIJTWcBnkZt_UYR9j0WLO-L9hU?authuser=0&hl=en&rclk=1
54.3434185,18.8773334,touristattraction,Kazimierz Reservoir,https://www.google.com/maps/place/Kazimierz+Reservoir/data=!4m7!3m6!1s0x46fd6cbc83058cf1:0xfd3060690dc5b4b9!8m2!3d54.3434185!4d18.8773334!16s%2Fg%2F11bw4710vn!19sChIJ8YwFg7xs_UYRubTFDWlgMP0?authuser=0&hl=en&rclk=1
54.3483992,18.8751542,touristattraction,Watering Sea Eagle Gdańsk,https://www.google.com/maps/place/Watering+Sea+Eagle+Gda%C5%84sk/data=!4m7!3m6!1s0x46fd6cb98ad7458d:0x548c8931ade4b44c!8m2!3d54.3483992!4d18.8751542!16s%2Fg%2F11gzxgrpf!19sChIJjUXXirls_UYRTLTkrTGJjFQ?authuser=0&hl=en&rclk=1
54.3431615,18.6373613,touristattraction,Bastion Pośredni,https://www.google.com/maps/place/Bastion+Po%C5%9Bredni/data=!4m7!3m6!1s0x46fd7301c131e58f:0x2869eaea25ac0a6f!8m2!3d54.3431615!4d18.6373613!16s%2Fg%2F11lfg_lp2d!19sChIJj-UxwQFz_UYRbwqsJerqaSg?authuser=0&hl=en&rclk=1
54.3370787,18.6140873,touristattraction,Pomnik 1050 lecie Chrztu Polski i 100 lecie odzyskania Niepodległości,https://www.google.com/maps/place/Pomnik+1050+lecie+Chrztu+Polski+i+100+lecie+odzyskania+Niepodleg%C5%82o%C5%9Bci/data=!4m7!3m6!1s0x46fd7312130e3777:0x35db4949b27fa6e5!8m2!3d54.3370787!4d18.6140873!16s%2Fg%2F11q94y02bw!19sChIJdzcOExJz_UYR5aZ_sklJ2zU?authuser=0&hl=en&rclk=1
54.3388056,18.6122755,touristattraction,Szlak murali Lechii Gdańsk,https://www.google.com/maps/place/Szlak+murali+Lechii+Gda%C5%84sk/data=!4m7!3m6!1s0x46fd737afdaac0ad:0xcb000c67147cea2e!8m2!3d54.3388056!4d18.6122755!16s%2Fg%2F11p0ws9p0d!19sChIJrcCq_Xpz_UYRLup8FGcMAMs?authuser=0&hl=en&rclk=1
54.3487839,18.6144214,touristattraction,Инга Паша,https://www.google.com/maps/place/%D0%98%D0%BD%D0%B3%D0%B0+%D0%9F%D0%B0%D1%88%D0%B0/data=!4m7!3m6!1s0x46fd75a07bab7913:0x985f19b2a4508151!8m2!3d54.3487839!4d18.6144214!16s%2Fg%2F11lwzbgyqd!19sChIJE3mre6B1_UYRUYFQpLIZX5g?authuser=0&hl=en&rclk=1
54.341603,18.647741,touristattraction,Window Art,https://www.google.com/maps/place/Window+Art/data=!4m7!3m6!1s0x46fd73efe85dbb0b:0xf79dbb60b7ee9595!8m2!3d54.341603!4d18.647741!16s%2Fg%2F11j4q30r_p!19sChIJC7td6O9z_UYRlZXut2C7nfc?authuser=0&hl=en&rclk=1
54.3458322,18.6460893,touristattraction,Skwer Daszyńskiego,https://www.google.com/maps/place/Skwer+Daszy%C5%84skiego/data=!4m7!3m6!1s0x46fd73a4603d92d5:0x14a4c3151dc66b0f!8m2!3d54.3458322!4d18.6460893!16s%2Fg%2F11jt4bq45m!19sChIJ1ZI9YKRz_UYRD2vGHRXDpBQ?authuser=0&hl=en&rclk=1
54.3520486,18.6372407,touristattraction,Fontanna Hevelianum,https://www.google.com/maps/place/Fontanna+Hevelianum/data=!4m7!3m6!1s0x46fd73d544b3a8f3:0x84093370e42bdc93!8m2!3d54.3520486!4d18.6372407!16s%2Fg%2F11js30df1x!19sChIJ86izRNVz_UYRk9wr5HAzCYQ?authuser=0&hl=en&rclk=1
54.3473244,18.6404206,touristattraction,Punkt widokowy Biskupia Górka na Stoku,https://www.google.com/maps/place/Punkt+widokowy+Biskupia+G%C3%B3rka+na+Stoku/data=!4m7!3m6!1s0x46fd737a3dc64817:0x4019b5e6ecd9b7a3!8m2!3d54.3473244!4d18.6404206!16s%2Fg%2F11nn3btp2_!19sChIJF0jGPXpz_UYRo7fZ7Oa1GUA?authuser=0&hl=en&rclk=1
54.3496057,18.64767,touristattraction,Gdańsk Mapa Turystyczna Centrum,https://www.google.com/maps/place/Gda%C5%84sk+Mapa+Turystyczna+Centrum/data=!4m7!3m6!1s0x46fd737797309647:0x7ac3121f76c590e5!8m2!3d54.3496057!4d18.64767!16s%2Fg%2F11fmz9f4z8!19sChIJR5Ywl3dz_UYR5ZDFdh8Sw3o?authuser=0&hl=en&rclk=1
54.3428364,18.6475735,touristattraction,Pomorskie.travel infomat turystyczny,https://www.google.com/maps/place/Pomorskie.travel+infomat+turystyczny/data=!4m7!3m6!1s0x46fd73f9bd3f7d65:0x3a0ef21f48062902!8m2!3d54.3428364!4d18.6475735!16s%2Fg%2F11j4f3scv3!19sChIJZX0_vflz_UYRAikGSB_yDjo?authuser=0&hl=en&rclk=1
54.3480187,18.6560081,touristattraction,Przystań Pasażerska,https://www.google.com/maps/place/Przysta%C5%84+Pasa%C5%BCerska/data=!4m7!3m6!1s0x46fd7344b4810edb:0x1bde4b29184fd1b1!8m2!3d54.3480187!4d18.6560081!16s%2Fg%2F11fnqkkjy1!19sChIJ2w6BtERz_UYRsdFPGClL3hs?authuser=0&hl=en&rclk=1
54.3465247,18.6583827,touristattraction,Wyspa Spichrzów,https://www.google.com/maps/place/Wyspa+Spichrz%C3%B3w/data=!4m7!3m6!1s0x46fd73a139172a1b:0x31f5229ac8dcdb48!8m2!3d54.3465247!4d18.6583827!16s%2Fg%2F11cjhblrrm!19sChIJGyoXOaFz_UYRSNvcyJoi9TE?authuser=0&hl=en&rclk=1
54.3416969,18.7123717,touristattraction,"EuroVelo 9/10/13 , i Wislana Trasa Rowerowe route","https://www.google.com/maps/place/EuroVelo+9%2F10%2F13+,+i+Wislana+Trasa+Rowerowe+route/data=!4m7!3m6!1s0x46fd736e796981dd:0xcf8de66a56c4559b!8m2!3d54.3416969!4d18.7123717!16s%2Fg%2F11fnqn66dl!19sChIJ3YFpeW5z_UYRm1XEVmrmjc8?authuser=0&hl=en&rclk=1"
54.3520127,18.7892346,touristattraction,Rejsy rekreacyjne,https://www.google.com/maps/place/Rejsy+rekreacyjne/data=!4m7!3m6!1s0x46fd6d0332249e7b:0x87ec18c6e7c167a1!8m2!3d54.3520127!4d18.7892346!16s%2Fg%2F11qbclg_8q!19sChIJe54kMgNt_UYRoWfB58YY7Ic?authuser=0&hl=en&rclk=1
54.3428392,18.8280522,touristattraction,Szlak Wyspy Sobieszewskiej,https://www.google.com/maps/place/Szlak+Wyspy+Sobieszewskiej/data=!4m7!3m6!1s0x46fd6d07ccabfa89:0xa1fde1b8e9f4fb30!8m2!3d54.3428392!4d18.8280522!16s%2Fg%2F11k2zx5rqw!19sChIJifqrzAdt_UYRMPv06bjh_aE?authuser=0&hl=en&rclk=1
54.3443704,18.8279495,touristattraction,Wyspa Drogowiec,https://www.google.com/maps/place/Wyspa+Drogowiec/data=!4m7!3m6!1s0x46fd6d1fdbc36637:0xa170f493d3637829!8m2!3d54.3443704!4d18.8279495!16s%2Fg%2F1tfqk1_t!19sChIJN2bD2x9t_UYRKXhj05P0cKE?authuser=0&hl=en&rclk=1
54.3441183,18.8269779,touristattraction,"Plan Sobieszewa ""Mozaika""",https://www.google.com/maps/place/Plan+Sobieszewa+%22Mozaika%22/data=!4m7!3m6!1s0x46fd6d71cfd17e37:0xaaee1fe75d2419db!8m2!3d54.3441183!4d18.8269779!16s%2Fg%2F11fpdcpmx7!19sChIJN37Rz3Ft_UYR2xkkXecf7qo?authuser=0&hl=en&rclk=1
54.339259,18.8234853,touristattraction,EuroVelo 10/13 Wislinka Miejsce Postojowe,https://www.google.com/maps/place/EuroVelo+10%2F13+Wislinka+Miejsce+Postojowe/data=!4m7!3m6!1s0x46fd6d7ded328c6b:0x2b3572c20f9988b5!8m2!3d54.339259!4d18.8234853!16s%2Fg%2F11fls6pkvn!19sChIJa4wy7X1t_UYRtYiZD8JyNSs?authuser=0&hl=en&rclk=1
54.3407416,18.8351081,touristattraction,Przystań kajakowa,https://www.google.com/maps/place/Przysta%C5%84+kajakowa/data=!4m7!3m6!1s0x46fd6da046465f2d:0xf8ed40745d17d45b!8m2!3d54.3407416!4d18.8351081!16s%2Fg%2F11rgrnv9qc!19sChIJLV9GRqBt_UYRW9QXXXRA7fg?authuser=0&hl=en&rclk=1
54.3450079,18.8280621,touristattraction,Dom Wypoczynkowy Budowlani,https://www.google.com/maps/place/Dom+Wypoczynkowy+Budowlani/data=!4m7!3m6!1s0x46fd6db386f437f7:0x899267aa0688a7ff!8m2!3d54.3450079!4d18.8280621!16s%2Fg%2F11qpxc5yp4!19sChIJ9zf0hrNt_UYR_6eIBqpnkok?authuser=0&hl=en&rclk=1
54.3428638,18.8785163,touristattraction,Góra Mew,https://www.google.com/maps/place/G%C3%B3ra+Mew/data=!4m7!3m6!1s0x46fd6d93ffddbadb:0xd25b002722216788!8m2!3d54.3428638!4d18.8785163!16s%2Fg%2F11fmvkjrl9!19sChIJ27rd_5Nt_UYRiGchIicAW9I?authuser=0&hl=en&rclk=1
54.3436671,18.8953794,touristattraction,Tablica informacyjna Wyspy Sobieszewskiej,https://www.google.com/maps/place/Tablica+informacyjna+Wyspy+Sobieszewskiej/data=!4m7!3m6!1s0x46fd6dc69bd69275:0x545a2ce967002170!8m2!3d54.3436671!4d18.8953794!16s%2Fg%2F11j48lhbbh!19sChIJdZLWm8Zt_UYRcCEAZ-ksWlQ?authuser=0&hl=en&rclk=1
54.3476442,18.8751364,touristattraction,Plaza,https://www.google.com/maps/place/Plaza/data=!4m7!3m6!1s0x46fd6d0f5c247533:0xdd0198a03969678d!8m2!3d54.3476442!4d18.8751364!16s%2Fg%2F11ftmcx5lc!19sChIJM3UkXA9t_UYRjWdpOaCYAd0?authuser=0&hl=en&rclk=1
54.344784,18.8851313,touristattraction,Altana przy wejściu nr.10,https://www.google.com/maps/place/Altana+przy+wej%C5%9Bciu+nr.10/data=!4m7!3m6!1s0x46fd6d68a005ebf3:0xe2dca50e1507f454!8m2!3d54.344784!4d18.8851313!16s%2Fg%2F11pqwz_x_7!19sChIJ8-sFoGht_UYRVPQHFQ6l3OI?authuser=0&hl=en&rclk=1
54.3419698,18.8934701,touristattraction,Spalona góra,https://www.google.com/maps/place/Spalona+g%C3%B3ra/data=!4m7!3m6!1s0x46fd6d7c8c449829:0x13930859232b2484!8m2!3d54.3419698!4d18.8934701!16s%2Fg%2F11lkhrbfc_!19sChIJKZhEjHxt_UYRhCQrI1kIkxM?authuser=0&hl=en&rclk=1
54.3354632,18.9325614,touristattraction,Stara Poczta,https://www.google.com/maps/place/Stara+Poczta/data=!4m7!3m6!1s0x46fd6b7f689c057b:0x5555f5d66cd37371!8m2!3d54.3354632!4d18.9325614!16s%2Fg%2F11qyd910pz!19sChIJewWcaH9r_UYRcXPTbNb1VVU?authuser=0&hl=en&rclk=1
53.9782384,19.6185133,touristattraction,Buczyniec Slope,https://www.google.com/maps/place/Buczyniec+Slope/data=!4m7!3m6!1s0x46e2af5ae4bf8691:0x9efaff5eb85492fd!8m2!3d53.9782384!4d19.6185133!16s%2Fg%2F11b86717hz!19sChIJkYa_5Fqv4kYR_ZJUuF7_-p4?authuser=0&hl=en&rclk=1
54.3201714,18.497954,touristattraction,Pomnik przyrody,https://www.google.com/maps/place/Pomnik+przyrody/data=!4m7!3m6!1s0x46fd77af4d5beefb:0xc64b3913fcd22972!8m2!3d54.3201714!4d18.497954!16s%2Fg%2F11sz1bnw09!19sChIJ--5bTa93_UYRcinS_BM5S8Y?authuser=0&hl=en&rclk=1
54.3210762,18.566529,touristattraction,Fontanna,https://www.google.com/maps/place/Fontanna/data=!4m7!3m6!1s0x46fd757b1ab6aabb:0x542e998e01765956!8m2!3d54.3210762!4d18.566529!16s%2Fg%2F11ny47l7ny!19sChIJu6q2Gnt1_UYRVll2AY6ZLlQ?authuser=0&hl=en&rclk=1
54.3240909,18.5784505,touristattraction,Pan Buk Zakoniczyn,https://www.google.com/maps/place/Pan+Buk+Zakoniczyn/data=!4m7!3m6!1s0x46fd7552b7d5a777:0x3c6517077c7d18d0!8m2!3d54.3240909!4d18.5784505!16s%2Fg%2F11r9vj1z4n!19sChIJd6fVt1J1_UYR0Bh9fAcXZTw?authuser=0&hl=en&rclk=1
54.3235527,18.5800574,touristattraction,Dworek Zakoniczyn,https://www.google.com/maps/place/Dworek+Zakoniczyn/data=!4m7!3m6!1s0x46fd741b5843be81:0xf58c40663f4760fd!8m2!3d54.3235527!4d18.5800574!16s%2Fg%2F1pp2tvw7t!19sChIJgb5DWBt0_UYR_WBHP2ZAjPU?authuser=0&hl=en&rclk=1
54.3237418,18.5972933,touristattraction,Wieża Widokowa Kozacza Góra,https://www.google.com/maps/place/Wie%C5%BCa+Widokowa+Kozacza+G%C3%B3ra/data=!4m7!3m6!1s0x46fd74079e4e987f:0xc29c51949302f603!8m2!3d54.3237418!4d18.5972933!16s%2Fg%2F12mq2sqmz!19sChIJf5hOngd0_UYRA_YCk5RRnMI?authuser=0&hl=en&rclk=1
54.3208842,18.6260587,touristattraction,Góra pięciu braci,https://www.google.com/maps/place/G%C3%B3ra+pi%C4%99ciu+braci/data=!4m7!3m6!1s0x46fd73e63d7cb10d:0x231495956970380c!8m2!3d54.3208842!4d18.6260587!16s%2Fg%2F121s4j5r!19sChIJDbF8PeZz_UYRDDhwaZWVFCM?authuser=0&hl=en&rclk=1
54.3207655,18.631008,touristattraction,Mural pamięci Feliksa Selmanowicza ps. Zagończyk,https://www.google.com/maps/place/Mural+pami%C4%99ci+Feliksa+Selmanowicza+ps.+Zago%C5%84czyk/data=!4m7!3m6!1s0x46fd7334980708f5:0x446f3afaeaf0b87c!8m2!3d54.3207655!4d18.631008!16s%2Fg%2F11q94xqh0t!19sChIJ9QgHmDRz_UYRfLjw6vo6b0Q?authuser=0&hl=en&rclk=1
54.3305345,18.6336919,touristattraction,"Mural "" W hołdzie Żołnierzom Wyklętym """,https://www.google.com/maps/place/Mural+%22+W+ho%C5%82dzie+%C5%BBo%C5%82nierzom+Wykl%C4%99tym+%22/data=!4m7!3m6!1s0x46fd73c8a376323b:0xdf38fd1d08b16d6b!8m2!3d54.3305345!4d18.6336919!16s%2Fg%2F11qn5rfc30!19sChIJOzJ2o8hz_UYRa22xCB39ON8?authuser=0&hl=en&rclk=1
54.3415786,18.6389174,touristattraction,Bastion Zbawiciel,https://www.google.com/maps/place/Bastion+Zbawiciel/data=!4m7!3m6!1s0x46fd73335022f4e9:0x733a90a047b41d99!8m2!3d54.3415786!4d18.6389174!16s%2Fg%2F11mtjpqc2m!19sChIJ6fQiUDNz_UYRmR20R6CQOnM?authuser=0&hl=en&rclk=1
54.340304,18.6569487,touristattraction,Zabytkowy tramwaj Konstal 105Na,https://www.google.com/maps/place/Zabytkowy+tramwaj+Konstal+105Na/data=!4m7!3m6!1s0x46fd73cb14487bf1:0xabf57e7ad3e2a389!8m2!3d54.340304!4d18.6569487!16s%2Fg%2F11ll8mx5l7!19sChIJ8XtIFMtz_UYRiaPi03p-9as?authuser=0&hl=en&rclk=1
54.3469119,18.6548956,touristattraction,Cow's Gate,https://www.google.com/maps/place/Cow's+Gate/data=!4m7!3m6!1s0x46fd73a1a24411a1:0x1d3a1083db95f3f!8m2!3d54.3469119!4d18.6548956!16s%2Fg%2F122blq0d!19sChIJoRFEoqFz_UYRP1-5PQih0wE?authuser=0&hl=en&rclk=1
54.349692,18.6549484,touristattraction,Ulica Mariacka w Gdańsku,https://www.google.com/maps/place/Ulica+Mariacka+w+Gda%C5%84sku/data=!4m7!3m6!1s0x46fd73a016081e7b:0x74f4bd80ae321f83!8m2!3d54.349692!4d18.6549484!16s%2Fg%2F1ts1lbfr!19sChIJex4IFqBz_UYRgx8yroC99HQ?authuser=0&hl=en&rclk=1
54.348094,18.6541569,touristattraction,Lew Hewelion Fahrenheit,https://www.google.com/maps/place/Lew+Hewelion+Fahrenheit/data=!4m7!3m6!1s0x46fd73dd901019fd:0xddd0f94ef044cacf!8m2!3d54.348094!4d18.6541569!16s%2Fg%2F11h51bck8h!19sChIJ_RkQkN1z_UYRz8pE8E750N0?authuser=0&hl=en&rclk=1
54.3285529,18.7621959,touristattraction,EuroVelo 10/13 Bogatka Miejsce Postojowe,https://www.google.com/maps/place/EuroVelo+10%2F13+Bogatka+Miejsce+Postojowe/data=!4m7!3m6!1s0x46fd6d0dab79be7b:0x86e27f60d8373b5e!8m2!3d54.3285529!4d18.7621959!16s%2Fg%2F11h401j2jx!19sChIJe755qw1t_UYRXjs32GB_4oY?authuser=0&hl=en&rclk=1
54.333359,18.943415,touristattraction,Rejs Crazy Huls,https://www.google.com/maps/place/Rejs+Crazy+Huls/data=!4m7!3m6!1s0x46fd6bbdc6e1231f:0xf7f3856dce7ba3c2!8m2!3d54.333359!4d18.943415!16s%2Fg%2F11k6rxf4j5!19sChIJHyPhxr1r_UYRwqN7zm2F8_c?authuser=0&hl=en&rclk=1
54.3348135,18.9343623,touristattraction,"Pomnik ""100-lecia Przekopu Wisły""",https://www.google.com/maps/place/Pomnik+%22100-lecia+Przekopu+Wis%C5%82y%22/data=!4m7!3m6!1s0x46fd6b393152627d:0x7681b96a0d4354f8!8m2!3d54.3348135!4d18.9343623!16s%2Fg%2F1jkz6mz90!19sChIJfWJSMTlr_UYR-FRDDWq5gXY?authuser=0&hl=en&rclk=1
54.3199733,18.4980312,touristattraction,Plaża Otomin,https://www.google.com/maps/place/Pla%C5%BCa+Otomin/data=!4m7!3m6!1s0x46fd77246eb5701b:0xaa4835dcada72ed9!8m2!3d54.3199733!4d18.4980312!16s%2Fg%2F11gr5zb2cd!19sChIJG3C1biR3_UYR2S6nrdw1SKo?authuser=0&hl=en&rclk=1
54.3101101,18.5672224,touristattraction,Liqinaz,https://www.google.com/maps/place/Liqinaz/data=!4m7!3m6!1s0x46fd77da57ec7ebb:0xf4b370d341fb9c66!8m2!3d54.3101101!4d18.5672224!16s%2Fg%2F11pxm3jp0r!19sChIJu37sV9p3_UYRZpz7QdNws_Q?authuser=0&hl=en&rclk=1
54.3106293,18.5814214,touristattraction,Wąwóz Potoku Kowalskiego,https://www.google.com/maps/place/W%C4%85w%C3%B3z+Potoku+Kowalskiego/data=!4m7!3m6!1s0x46fd77765618c259:0x1a37c1850fdf0fc3!8m2!3d54.3106293!4d18.5814214!16s%2Fg%2F11j8_864ml!19sChIJWcIYVnZ3_UYRww_fD4XBNxo?authuser=0&hl=en&rclk=1
54.3115728,18.590624,touristattraction,Jar Potoku Maćkowy,https://www.google.com/maps/place/Jar+Potoku+Ma%C4%87kowy/data=!4m7!3m6!1s0x46fd71d6ed6c0669:0xc5eb541073152a7d!8m2!3d54.3115728!4d18.590624!16s%2Fg%2F11jfc05v3d!19sChIJaQZs7dZx_UYRfSoVcxBU68U?authuser=0&hl=en&rclk=1
54.3268873,18.6329708,touristattraction,Mural Max Kraatz Gdańska Pralnia Parowa,https://www.google.com/maps/place/Mural+Max+Kraatz+Gda%C5%84ska+Pralnia+Parowa/data=!4m7!3m6!1s0x46fd73078495e87d:0x8384bc2952e237e6!8m2!3d54.3268873!4d18.6329708!16s%2Fg%2F11q9hzf_ys!19sChIJfeiVhAdz_UYR5jfiUim8hIM?authuser=0&hl=en&rclk=1
54.3389019,18.6515902,touristattraction,Kamienna Śluza,https://www.google.com/maps/place/Kamienna+%C5%9Aluza/data=!4m7!3m6!1s0x46fd73bcc5af272f:0x14cde9d7cd66ec8d!8m2!3d54.3389019!4d18.6515902!16s%2Fg%2F121k858j!19sChIJLyevxbxz_UYRjexmzdfpzRQ?authuser=0&hl=en&rclk=1
54.3428489,18.6477094,touristattraction,EuroVelo 9 / Wislana Trasa Rowerowa,https://www.google.com/maps/place/EuroVelo+9+%2F+Wislana+Trasa+Rowerowa/data=!4m7!3m6!1s0x46fd738b44c62263:0x658d88a6ef650409!8m2!3d54.3428489!4d18.6477094!16s%2Fg%2F11fnsc43yz!19sChIJYyLGRItz_UYRCQRl76aIjWU?authuser=0&hl=en&rclk=1
54.3488298,18.6574472,touristattraction,Nowa zabudowa Wyspy Spichrzów,https://www.google.com/maps/place/Nowa+zabudowa+Wyspy+Spichrz%C3%B3w/data=!4m7!3m6!1s0x46fd736a0468fe77:0xb61dedc95d9ddd5d!8m2!3d54.3488298!4d18.6574472!16s%2Fg%2F11hz_x8wlh!19sChIJd_5oBGpz_UYRXd2dXcntHbY?authuser=0&hl=en&rclk=1
54.3059872,18.7292981,touristattraction,SZLAK MENONITÓW,https://www.google.com/maps/place/SZLAK+MENONIT%C3%93W/data=!4m7!3m6!1s0x46fd6d1753e50ddf:0x72473c85e4c6901c!8m2!3d54.3059872!4d18.7292981!16s%2Fg%2F11j9cd8c_8!19sChIJ3w3lUxdt_UYRHJDG5IU8R3I?authuser=0&hl=en&rclk=1
52.2499156,21.0119517,touristattraction,Old water pump,https://www.google.com/maps/place/Old+water+pump/data=!4m7!3m6!1s0x471ecc6f6cae45d7:0xb2599904f8eff8e7!8m2!3d52.2499156!4d21.0119517!16s%2Fg%2F11bwd6_21r!19sChIJ10WubG_MHkcR5_jv-ASZWbI?authuser=0&hl=en&rclk=1
54.3028526,18.5831584,touristattraction,Najwyższy naturalny punkt Oruni Górnej-Gdańska Południe,https://www.google.com/maps/place/Najwy%C5%BCszy+naturalny+punkt+Oruni+G%C3%B3rnej-Gda%C5%84ska+Po%C5%82udnie/data=!4m7!3m6!1s0x46fd77deba6c7dad:0xc2e565aeac058020!8m2!3d54.3028526!4d18.5831584!16s%2Fg%2F11s9ggw2mv!19sChIJrX1sut53_UYRIIAFrK5l5cI?authuser=0&hl=en&rclk=1
54.3013656,18.5791276,touristattraction,Stara fontanna,https://www.google.com/maps/place/Stara+fontanna/data=!4m7!3m6!1s0x46fd77eb779e1f4b:0xdfdf811ebc3a0bde!8m2!3d54.3013656!4d18.5791276!16s%2Fg%2F11rsfj5h_3!19sChIJSx-ed-t3_UYR3gs6vB6B398?authuser=0&hl=en&rclk=1
54.3191215,18.6242613,touristattraction,Stara Orunia Reservoir,https://www.google.com/maps/place/Stara+Orunia+Reservoir/data=!4m7!3m6!1s0x46fd73e663ce19a5:0x896988748cc43566!8m2!3d54.3191215!4d18.6242613!16s%2Fg%2F11c5953dc0!19sChIJpRnOY-Zz_UYRZjXEjHSIaYk?authuser=0&hl=en&rclk=1
54.3073581,18.9256581,touristattraction,EuroVelo9 Wiślana Trasa Rowerowa miejsce postojowe Gdańsk,https://www.google.com/maps/place/EuroVelo9+Wi%C5%9Blana+Trasa+Rowerowa+miejsce+postojowe+Gda%C5%84sk/data=!4m7!3m6!1s0x46fd6bb7fbc579fb:0x16e82ed0155d1bae!8m2!3d54.3073581!4d18.9256581!16s%2Fg%2F11px2jmpss!19sChIJ-3nF-7dr_UYRrhtdFdAu6BY?authuser=0&hl=en&rclk=1
54.2885,18.9218,touristattraction,Infokiosk POMORSKIE.travel,https://www.google.com/maps/place/Infokiosk+POMORSKIE.travel/data=!4m7!3m6!1s0x46fd6b24e6889619:0x72ca2fc26800532b!8m2!3d54.2885!4d18.9218!16s%2Fg%2F11h_tvt039!19sChIJGZaI5iRr_UYRK1MAaMIvynI?authuser=0&hl=en&rclk=1
54.2911666,18.4306148,touristattraction,Las LAMP - ekspozycja firmy art metal,https://www.google.com/maps/place/Las+LAMP+-+ekspozycja+firmy+art+metal/data=!4m7!3m6!1s0x46fd9d51a3b0c223:0xc11bea07a50131e8!8m2!3d54.2911666!4d18.4306148!16s%2Fg%2F11k1hcjztk!19sChIJI8Kwo1Gd_UYR6DEBpQfqG8E?authuser=0&hl=en&rclk=1
54.2751357,18.4614899,touristattraction,Jaz na starorzeczu Raduni,https://www.google.com/maps/place/Jaz+na+starorzeczu+Raduni/data=!4m7!3m6!1s0x46fd7702a95608cb:0x3c7b26413411c030!8m2!3d54.2751357!4d18.4614899!16s%2Fg%2F11h7dg6bz8!19sChIJywhWqQJ3_UYRMMARNEEmezw?authuser=0&hl=en&rclk=1
54.2934339,18.3993751,touristattraction,Łowisko Nowa Przyjaźń,https://www.google.com/maps/place/%C5%81owisko+Nowa+Przyja%C5%BA%C5%84/data=!4m7!3m6!1s0x46fd9deaf1bc9f19:0x76d36f93a592f10c!8m2!3d54.2934339!4d18.3993751!16s%2Fg%2F11rp2g7wxj!19sChIJGZ-88eqd_UYRDPGSpZNv03Y?authuser=0&hl=en&rclk=1
54.297379,18.4541829,touristattraction,Drezyny,https://www.google.com/maps/place/Drezyny/data=!4m7!3m6!1s0x46fd77d3c0e835e1:0x2e647991b868093b!8m2!3d54.297379!4d18.4541829!16s%2Fg%2F11c1xh16s_!19sChIJ4TXowNN3_UYROwlouJF5ZC4?authuser=0&hl=en&rclk=1
54.2942315,18.5212326,touristattraction,Bursztynowa Góra,https://www.google.com/maps/place/Bursztynowa+G%C3%B3ra/data=!4m7!3m6!1s0x46fd76f0f2302ae1:0xa317fd946b85650e!8m2!3d54.2942315!4d18.5212326!16s%2Fg%2F11cfjndxl!19sChIJ4Sow8vB2_UYRDmWFa5T9F6M?authuser=0&hl=en&rclk=1
54.2945741,18.6292433,touristattraction,Punkt widokowy Świnia Góra,https://www.google.com/maps/place/Punkt+widokowy+%C5%9Awinia+G%C3%B3ra/data=!4m7!3m6!1s0x46fd717595716289:0x1524211f6bac91!8m2!3d54.2945741!4d18.6292433!16s%2Fg%2F11ftt60r39!19sChIJiWJxlXVx_UYRkaxrHyEkFQA?authuser=0&hl=en&rclk=1
54.2935369,18.8077945,touristattraction,Arch House,https://www.google.com/maps/place/Arch+House/data=!4m7!3m6!1s0x46fd6c3af7845667:0xebfd40a33912d2f5!8m2!3d54.2935369!4d18.8077945!16s%2Fg%2F12z7gm_c1!19sChIJZ1aE9zps_UYR9dISOaNA_es?authuser=0&hl=en&rclk=1
54.2888623,18.9527785,touristattraction,Wiatrak Koźlak w Drewnicy,https://www.google.com/maps/place/Wiatrak+Ko%C5%BAlak+w+Drewnicy/data=!4m7!3m6!1s0x46fd6a45aa061845:0x56afcdd7bbb2f27b!8m2!3d54.2888623!4d18.9527785!16s%2Fg%2F11hbqc0wmk!19sChIJRRgGqkVq_UYRe_Kyu9fNr1Y?authuser=0&hl=en&rclk=1
54.276572,18.9338767,touristattraction,Tablica upamiętniająca Początek Przekopu Wisły z 31 marca 1895r.,https://www.google.com/maps/place/Tablica+upami%C4%99tniaj%C4%85ca+Pocz%C4%85tek+Przekopu+Wis%C5%82y+z+31+marca+1895r./data=!4m7!3m6!1s0x46fd6b753948b25b:0xd11c23e5e1b722e7!8m2!3d54.276572!4d18.9338767!16s%2Fg%2F11fmk6bjfd!19sChIJW7JIOXVr_UYR5yK34eUjHNE?authuser=0&hl=en&rclk=1
54.270247,18.5712508,touristattraction,Dworzec stacji Straszyn Prędzieszyn,https://www.google.com/maps/place/Dworzec+stacji+Straszyn+Pr%C4%99dzieszyn/data=!4m7!3m6!1s0x46fd7164147855af:0x255b99c376ac6568!8m2!3d54.270247!4d18.5712508!16s%2Fg%2F11qzhprz2k!19sChIJr1V4FGRx_UYRaGWsdsOZWyU?authuser=0&hl=en&rclk=1
54.2829165,18.6386588,touristattraction,Figura św. Wojciecha,https://www.google.com/maps/place/Figura+%C5%9Bw.+Wojciecha/data=!4m7!3m6!1s0x46fd71a1606070c1:0x4cf45e9590c2e691!8m2!3d54.2829165!4d18.6386588!16s%2Fg%2F11t1f2l85b!19sChIJwXBgYKFx_UYRkebCkJVe9Ew?authuser=0&hl=en&rclk=1
54.2808401,18.6391263,touristattraction,Pomnik Gdańskich Lwów,https://www.google.com/maps/place/Pomnik+Gda%C5%84skich+Lw%C3%B3w/data=!4m7!3m6!1s0x46fd71e9b1369e59:0x2bfccba0add92d5!8m2!3d54.2808401!4d18.6391263!16s%2Fg%2F11t1g7w5ss!19sChIJWZ42selx_UYR1ZLdCrrMvwI?authuser=0&hl=en&rclk=1
54.2625181,18.4359674,touristattraction,Tablica Informacyjna Wsi Babidol,https://www.google.com/maps/place/Tablica+Informacyjna+Wsi+Babidol/data=!4m7!3m6!1s0x46fd774ecf62e6e1:0xdc24097c1023e6d8!8m2!3d54.2625181!4d18.4359674!16s%2Fg%2F11nxx1n7ht!19sChIJ4eZiz053_UYR2OYjEHwJJNw?authuser=0&hl=en&rclk=1
54.2702788,18.5715228,touristattraction,"Początek ""Quest Straszyn - szlakiem elektrowni wodnych"" - edukacyjnej gry terenowej",https://www.google.com/maps/place/Pocz%C4%85tek+%22Quest+Straszyn+-+szlakiem+elektrowni+wodnych%22+-+edukacyjnej+gry+terenowej/data=!4m7!3m6!1s0x46fd717154d19037:0xf16caf625b1461b4!8m2!3d54.2702788!4d18.5715228!16s%2Fg%2F11pbzmlm53!19sChIJN5DRVHFx_UYRtGEUW2KvbPE?authuser=0&hl=en&rclk=1
54.2593231,18.5995676,touristattraction,Punkt rekreacyjny nad Radunią,https://www.google.com/maps/place/Punkt+rekreacyjny+nad+Raduni%C4%85/data=!4m7!3m6!1s0x46fd71807d86a833:0x5af866a85ca20ceb!8m2!3d54.2593231!4d18.5995676!16s%2Fg%2F11hdpf_dv2!19sChIJM6iGfYBx_UYR6wyiXKhm-Fo?authuser=0&hl=en&rclk=1
54.263177,18.6351279,touristattraction,Mural Dzień Pamięci Żołnierzy Wyklętych,https://www.google.com/maps/place/Mural+Dzie%C5%84+Pami%C4%99ci+%C5%BBo%C5%82nierzy+Wykl%C4%99tych/data=!4m7!3m6!1s0x46fd712131ad5b65:0x64df33a961e4c7d5!8m2!3d54.263177!4d18.6351279!16s%2Fg%2F11rb3bdxj1!19sChIJZVutMSFx_UYR1cfkYakz32Q?authuser=0&hl=en&rclk=1
54.2505396,18.622147,touristattraction,Kanał Raduni,https://www.google.com/maps/place/Kana%C5%82+Raduni/data=!4m7!3m6!1s0x46fd70efe7314835:0x304d2212fbef4474!8m2!3d54.2505396!4d18.622147!16s%2Fg%2F1235dwv5!19sChIJNUgx5-9w_UYRdETv-xIiTTA?authuser=0&hl=en&rclk=1
52.231838,21.005995,touristattraction,Palace of Culture and Science,https://www.google.com/maps/place/Palace+of+Culture+and+Science/data=!4m7!3m6!1s0x471ecc8c92692e49:0xc2e97ae5311f2dc2!8m2!3d52.231838!4d21.005995!16zL20vMDg2Mm0!19sChIJSS5pkozMHkcRwi0fMeV66cI?authuser=0&hl=en&rclk=1
52.2459447,20.9990617,touristattraction,Mostowski Palace,https://www.google.com/maps/place/Mostowski+Palace/data=!4m7!3m6!1s0x471ecc7a2d021509:0x4f51fe23c2aa506a!8m2!3d52.2459447!4d20.9990617!16s%2Fg%2F11xd7m572!19sChIJCRUCLXrMHkcRalCqwiP-UU8?authuser=0&hl=en&rclk=1
54.0397526,19.0280127,touristattraction,Malbork Castle,https://www.google.com/maps/place/Malbork+Castle/data=!4m7!3m6!1s0x46fd590b4cbe1b53:0x7583e3f4419b7e96!8m2!3d54.0397526!4d19.0280127!16zL20vMGRwMTZz!19sChIJUxu-TAtZ_UYRln6bQfTjg3U?authuser=0&hl=en&rclk=1
